stop_id,stop_code,stop_name,stop_desc,stop_lat,stop_lon,stop_url,location_type,parent_station,stop_timezone,wheelchair_boarding
1493,1493,Butler Plaza Transfer Station,Westbound SW 30th Place @ Farside SW 42nd Street,29.6251539739528,-82.3878897912567,,0,,,
1349,1349,Hilton Garden Inn,Eastbound SW 33rd PL @ Farside SW 42nd ST,29.6230161655938,-82.3857189374302,,0,,,
1548,1548,Sam's Club,Eastbound SW 33rd PL @ Nearside SW 37th Blvd,29.6229994565635,-82.3834528441513,,0,,,
1491,1491,Lowe's @ Butler Plaza Eastbound,Eastbound Windmeadows Blvd @ Farside SW 62nd Blvd,29.6239525952099,-82.3807989458968,,0,,,
1306,1306,Publix at Butler Plaza,Southbound SW 35th Blvd @ Farside Windmeadows Blvd,29.6252774707952,-82.3787998253896,,0,,,
1592,1592,Pizza Hut Archer Rd Eastbound,Eastbound SW Archer Rd @ Farside SW 35th Blvd,29.6241111695507,-82.3753278368053,,0,,,
34,34,Radio Shack @ Archer Road,Eastbound Archer RD @ Farside SW 34th ST,29.6275808859853,-82.37119808984,,0,,,
35,35,Silver Creek Apartments,Eastbound Archer RD @ Farside SW 34th ST,29.6290784080697,-82.3681700966917,,0,,,
36,36,Capstone Quarters Apartments,Eastbound Archer RD @ Farside Surge Area DR,29.6297469429346,-82.3666248428231,,0,,,
37,37,Brandywine Apartments,Eastbound Archer RD @ Farside Surge Area DR,29.6303682116919,-82.3653664891481,,0,,,
38,38,University Commons,Eastbound Archer RD @ Nearside SW 23rd TER,29.631960275783,-82.361997177181,,0,,,
39,39,The Bartram Apartments,Eastbound Archer RD @ Farside SW 23rd DR,29.6336963550129,-82.358194803026,,0,,,
40,40,Shands Care Helicopter Pad,Eastbound Archer RD @ Nearside Gale Lemerand DR,29.6364016075628,-82.3509115132774,,0,,,
1199,1199,VA Hospital @ Archer Rd,Eastbound Archer RD @ Farside Center DR,29.6382333771218,-82.3455895334687,,0,,,
118,118,Shands Cancer Hospital,Eastbound SW Archer Rd Farside SW 16th St,29.639248,-82.342737,,0,,,
360,360,Norman Field,Northbound SW 13th ST @ Farside SW 8th AVE,29.6454283199756,-82.3392050167923,,0,,,
361,361,Norman Hall,Northbound SW 13th ST @ Nearside SW 5th AVE,29.6471576045708,-82.3392025168385,,0,,,
362,362,Social 28 Apartments,Northbound SW 13th ST @ Nearside SW 3rd AVE,29.6491634370225,-82.3392153494707,,0,,,
1159,1159,Phi Kappa Tau,Eastbound SW 2nd AVE @ Farside SW 13th ST,29.6501849368145,-82.3386720163895,,0,,,
52,52,Eastbound SW 2nd Avenue @ SW 10th Street,Eastbound SW 2nd AVE @ Nearside SW 10th ST,29.6501537704546,-82.3354098508544,,0,,,
53,53,Innovation Square East,Eastbound SW 2nd AVE @ Farside SW 7th TER,29.6501809380727,-82.3320841384592,,0,,,
55,55,Second Avenue Center Apartments,Eastbound SW 2nd AVE @ Farside SW 6th ST,29.6501749257902,-82.3298995914642,,0,,,
56,56,Eastbound SW 2nd Ave @ SW 2nd St,Eastbound SW 2nd AVE @ Nearside SW 2nd ST,29.6502030000099,-82.3266840000657,,0,,,
1290,1290,Alachua County Courthouse,Eastbound SW 2nd AVE @ Nearside S Main ST,29.6501980726537,-82.3251531759259,,0,,,
57,57,Hippodrome Theatre,Eastbound SE 2nd AVE @ Nearside SE 1st ST,29.6502251268302,-82.3236010218356,,0,,,
1216,1216,Arlington Square Apartments,Southbound SE 3rd ST @ Nearside SE 2nd PL,29.6497437702516,-82.3224800209158,,0,,,
1,1,Rosa Parks RTS Downtown Station,Northbound SE 3rd ST @ Nearside SE 3rd ST,29.6455673440143,-82.3226968119631,,0,,,
1206,1206,Arlington Square Apartments,Northbound SE 3rd ST @ Nearside SE 2nd PL,29.6495174903062,-82.3223017187898,,0,,,
2,2,Hampton Inn Hotel,Westbound SE 2nd AVE @ Nearside SE 1st ST,29.6503462541953,-82.3238042826696,,0,,,
3,3,Westbound SW 2nd Avenue @ SW 2nd Street,Westbound SW 2nd AVE @ Nearside SW 2nd ST,29.6503971036323,-82.3264586871383,,0,,,
4,4,The Continuum,Westbound SW 2nd AVE @ Nearside SW 6th ST,29.6503252522694,-82.3296743238639,,0,,,
6,6,720 SW 2nd Ave,Westbound SW 2nd AVE @ Nearside SW 8th ST,29.6503349366547,-82.3327903513476,,0,,,
7,7,Innovation Square West,Westbound SW 2nd AVE @ Nearside SW 10th ST,29.6503142698975,-82.3346026842587,,0,,,
1323,1323,College Manor Apartments,Westbound SW 2nd AVE @ Nearside SW 13th ST,29.6503339374679,-82.3378013504749,,0,,,
442,442,Southbound SW 13th Street @ Inner Road,Southbound SW 13th ST @ Nearside Inner RD,29.6476649378913,-82.3395171835676,,0,,,
443,443,Southbound SW 13th Street @ Museum Road,Southbound SW 13th ST @ Nearside Museum RD,29.6450684382311,-82.3394275165191,,0,,,
444,444,University Housing Office,Southbound SW 13th ST @ Nearside Diamond RD,29.6438915610691,-82.3394270659398,,0,,,
446,446,UF Health Archer Road,Westbound Archer RD @ Farside SW 16th ST,29.6390496064163,-82.3440888486629,,0,,,
18,18,Shands Hospital @ Davis Cancer Pavilion,Westbound Archer RD @ Nearside Gale Lemerand DR,29.6370228881516,-82.3498845078499,,0,,,
20,20,Mt Vernon Apartments,Westbound Archer RD @ Nearside SW 23rd DR,29.6338826565189,-82.3586371294444,,0,,,
22,22,Country Village,Westbound Archer RD @ Farside SW 23rd TER,29.6320459422774,-82.3625338436827,,0,,,
23,23,UF Surge Area Drive,Westbound Archer RD @ Nearside Surge Area DR,29.6305404422562,-82.365762676259,,0,,,
24,24,Tropic Carwash,Westbound Archer RD @ Farside Surge Area DR,29.6295624430867,-82.3678183419007,,0,,,
25,25,Westbound Archer Road @ SW 34th Street,Westbound Archer RD @ Nearside SW 34th ST,29.6277581525267,-82.3715382288572,,0,,,
26,26,Whole Foods @ Butler Town Center,Westbound Archer RD @ Farside SW 34th ST,29.6256036101471,-82.3743943403777,,0,,,
27,27,Chili's Grill and Bar @ Butler Plaza,Westbound Archer RD @ Nearside SW 35th BLVD,29.6237817615045,-82.376087140408,,0,,,
28,28,Bonefish Grill Seafood Restaurant @ Butler Plaza,Westbound SW 35th BLVD @ Farside Archer RD,29.6248042770227,-82.3776125059963,,0,,,
1492,1492,Butler Plaza,Westbound Windmeadows Blvd @ Nearside SW 62nd Blvd,29.623861362598,-82.3813113068383,,0,,,
1547,1547,Sam's Club,Westbound SW 33rd PL @ Farside SW 37th Blvd,29.623178095887,-82.3835661511844,,0,,,
1549,1549,Hilton Garden Inn,Westbound SW 33rd PL @ Nearside SW 42nd ST,29.6231939580388,-82.3865702931895,,0,,,
1234,1234,NE Walmart Supercenter,Eastbound NE 12th AVE @ Farside Waldo RD,29.6626154336528,-82.3024228601284,,0,,,
568,568,Mount Zion Church of God,Southbound NE 19th ST @ Nearside NE 8th AVE,29.6596402772422,-82.299921000187,,0,,,
1261,1261,Gardenia Garden Apartments,Westbound NE 8th AVE @ Farside NE 17th DR,29.6592638083326,-82.3026368640902,,0,,,
1500,1500,NE 15th St @ NE 7th Ave,Southbound NE 15th St @ Nearside NE 7th Ave,29.65787915066,-82.3059138610635,,0,,,
1440,1440,Mt. Olive Primitive Baptist Church,Southbound NE 15th ST @ Farside NE 5th PL,29.6558607918282,-82.3059126146622,,0,,,
1498,1498,NE 15th St @ NE 3rd Ave Farside,Southbound NE 15th St @ Farside NE 3rd Ave,29.6534190453744,-82.3059158431416,,0,,,
350,350,Fast Eddie's Restaurant,Southbound SE 15th ST @ Farside SE 2nd AVE,29.6505059365625,-82.3059275266131,,0,,,
97,97,Veteran's Honor Center,Eastbound SE 3rd AVE @ Nearside SE 17th ST,29.6490979364138,-82.3033458598074,,0,,,
98,98,SE Hawthorne Rd @ SE 18th St Eastbound,Eastbound Hawthorne RD @ Farside SE 21st ST,29.6489245394284,-82.3015193659408,,0,,,
99,99,SE Hawthorne Rd @ SE 21 St Eastbound,Eastbound Hawthorne RD @ Nearside SE 21st ST,29.6469971033976,-82.2977726955064,,0,,,
100,100,GTEC,Eastbound Hawthorne RD @ Nearside SE 24th ST,29.6462059373178,-82.2962120295401,,0,,,
122,122,Lincoln Estates,Southbound SE 19th TER @ Farside SE 8th AVE,29.6442275582911,-82.2994116465633,,0,,,
124,124,Lincoln Estates Neighborhood,Southbound SE 19th TER @ Nearside SE 10th PL,29.6418819103049,-82.29941976818,,0,,,
1364,1364,Southbound SE 19th TER @ SE 12th AVE,Southbound SE 19th TER @ Nearside SE 12th AVE,29.6403679543117,-82.2994303023206,,0,,,
125,125,Westbound SE 12th Avenue @ SE 18th Terrace,Westbound SE 12th AVE @ Nearside SE 18th TER,29.6403019796503,-82.3023553574666,,0,,,
127,127,Lincoln Estates Neighborhood,Westbound SE 12th AVE @ Nearside SE 15th ST,29.6403278231092,-82.3057417088938,,0,,,
128,128,Southbound SE 15th Street @ SE 14th Avenue,Southbound SE 15th ST @ Nearside SE 14th AVE,29.6384591055727,-82.3059460267483,,0,,,
129,129,McPherson Recreational Center,Southbound SE 15th ST @ Nearside SE 22nd AVE,29.6337329402991,-82.3059091935481,,0,,,
131,131,Westbound SE 22nd Avenue @ SE 13th Street,Westbound SE 22nd AVE @ Nearside SE 13th ST,29.6318640854609,-82.3085795769489,,0,,,
132,132,Westbound SE 22nd Avenue @ SE 12th Street,Westbound SE 22nd AVE @ Farside SE 12th ST,29.6318546078209,-82.3109838587728,,0,,,
133,133,Gainesville Housing Authority,Northbound SE 4th ST @ Farside SE 19th PL,29.6339712737066,-82.3159613571141,,0,,,
357,357,SE 7th Avenue @ SE 10th Terrace,Westbound SE 7th AVE @ Farside SE 10th TER,29.6458557611849,-82.3124506757487,,0,,,
358,358,The Cotton Club,Westbound SE 7th AVE @ Nearside SE 9th ST,29.6458497195752,-82.315044475607,,0,,,
359,359,Westbound SE 7th Avenue @ SE 8th Street,Westbound SE 7th AVE @ Farside SE 8th ST,29.6458522712259,-82.3167130232702,,0,,,
291,291,Eastbound SE 7th Avenue @ SE 8th Street,Eastbound SE 7th AVE @ Nearside SE 8th ST,29.645757371802,-82.3166237429531,,0,,,
292,292,The Cotton Club,Eastbound SE 7th AVE @ Nearside SE 9th ST,29.6457538088135,-82.3152151119634,,0,,,
293,293,Mt Moriah Baptist Church,Eastbound SE 7th AVE @ Nearside SE 10th TER,29.6457577706616,-82.3124160245906,,0,,,
64,64,Sugarhill Neighborhood @ SE 4th Street,Southbound SE 4th ST @ Nearside SE 19th PL,29.6340026068393,-82.3160706909206,,0,,,
66,66,Eastbound SE 22nd Avenue @ SE 12th Street,Eastbound SE 22nd AVE @ Nearside SE 12th ST,29.6317886075884,-82.3105998591391,,0,,,
67,67,Eastbound SE 22nd Avenue @ SE 13th Street,Eastbound SE 22nd AVE @ Nearside SE 13th ST,29.6317959411386,-82.3086925264315,,0,,,
69,69,Showers of Blessing,Southbound SE 15th ST @ Farside SE 25th AVE,29.6284413960536,-82.3058756083251,,0,,,
72,72,Boulware Springs Nature Park,Southbound SE 15th ST @ Farside SE 35th AVE,29.6202712435183,-82.30586942254,,0,,,
75,75,Robinson Heights,Southbound SE 15th ST @ Nearside SE 41st AVE,29.6156967778639,-82.3059110272782,,0,,,
76,76,Prairie View Elementary School,Northbound SE 15th ST @ Nearside SE 35th AVE,29.6202920382147,-82.3057993848494,,0,,,
79,79,Showers of Blessings Harvest Center,Northbound SE 15th ST @ Nearside SE 25th AVE,29.6286310831264,-82.3057947623276,,0,,,
82,82,McPherson Recreational Center,Northbound SE 15th ST @ Farside SE 22nd AVE,29.6337519571477,-82.3057940522607,,0,,,
84,84,Northbound SE 15th Street @ SE 13th Place,Northbound SE 15th ST @ Farside SE 13th PL,29.6390454318826,-82.3057960321266,,0,,,
85,85,Lincoln Estate Neighborhood,Eastbound SE 12th AVE @ Farside SE 15th ST,29.6402446057278,-82.3054486931682,,0,,,
87,87,Lincoln Estate Neighborhood,Eastbound SE 12th AVE @ Farside SE 17th TER,29.6402246052653,-82.3027438611556,,0,,,
89,89,Lincoln Estate Neighborhood,Eastbound SE 12th AVE @ Nearside SE 19th TER,29.6401994387229,-82.2995481949652,,0,,,
90,90,Lincoln Estate Neighborhood,Northbound SE 19th TER @ Nearside SE 10th PL,29.6417486325225,-82.2993259813865,,0,,,
92,92,Lincoln Estates,Northbound SE 19th TER @ Nearside SE 8th AVE,29.6444419373263,-82.2993535280654,,0,,,
1496,1496,Save A LOT Food Store,Westbound SE Hawthorne Rd @ Farside SE 24th St,29.6459661545129,-82.2951440372462,,0,,,
109,109,Phase III Supply,Westbound Hawthorne RD @ Nearside SE 21st ST,29.6470114371425,-82.2972283621151,,0,,,
1497,1497,Alachua School Bus Parking Lot,Westbound SE Hawthorne Rd @ Farside SE 20th St,29.6485717065998,-82.3002869980664,,0,,,
110,110,Veteran's Honor Center,Westbound SE 3rd AVE @ Farside SE 17th ST,29.6492486312965,-82.3041748521697,,0,,,
300,300,Fast Eddie's Restaurant,Northbound SE 15th ST @ Nearside SE 1st AVE,29.6507747697706,-82.3057626923242,,0,,,
1499,1499,NE 15th St @ NE 3rd Ave Nearside,Northbound NE 15th St @ Nearside NE 3rd Ave,29.6536543150378,-82.3057374936827,,0,,,
1439,1439,Cohens Temple,Northbound NE 15th ST @ Nearside NE 5th PL,29.655976355529,-82.3057888521781,,0,,,
1501,1501,NE 15th St @ NE 8th Ave,Northbound NE 15th St @ Nearside NE 8th Ave,29.6581616330793,-82.3057780423742,,0,,,
564,564,MLK Center,Northbound Waldo RD @ Farside NE 8th AVE,29.6604447884046,-82.3057159544999,,0,,,
101,101,SE 24th Street - Dollar General Store,Northbound SE 24th ST @ Farside Hawthorne RD,29.6461227721715,-82.2937675601375,,0,,,
102,102,Health Department,Northbound SE 24th ST @ Nearside SE 2nd AVE,29.6491629063265,-82.2932209342291,,0,,,
103,103,Northbound SE 24th Street @ E University Avenue,Northbound SE 24th ST @ Nearside E University AVE,29.651128269079,-82.293200862867,,0,,,
345,345,Harper's Pointe,Westbound E University AVE @Nearside 22nd ST,29.6520237147349,-82.2951867288672,,0,,,
346,346,Westbound E University Avenue @ SE 21st Street,Westbound E University AVE @ Nearside SE 21st ST,29.6520224355439,-82.2974791948695,,0,,,
347,347,SE 18th St @ E University Avenue,Westbound E University AVE @ Nearside SE 18th ST,29.6520248357937,-82.3015248326505,,0,,,
1462,1462,NE 18 ST @ NE 3 AVE,Northbound NE 18 ST @ Nearside NE 3 AVE,29.6534178864146,-82.3016222480492,,0,,,
1464,1464,NE 18th St,Northbound NE 18th ST @ Farside NE 5th Ave,29.6558993935117,-82.30164413794,,0,,,
1466,1466,NE 18th St @ NE 8th Ave,Northbound NE 18th ST @ Nearside NE 8th Ave,29.6590347419252,-82.3015940120587,,0,,,
619,619,Bartley Temple United Methodist Church,Northbound NE 19th ST @ Farside NE 8th AVE,29.6596756005894,-82.2998115276153,,0,,,
1235,1235,NE Walmart Supercenter,Westbound NE 12th AVE @ Nearside Waldo RD,29.6628389328352,-82.3022065263959,,0,,,
898,898,Rose Food Store,Westbound NE 16th AVE @ Nearside NE 16th WAY,29.6665617837031,-82.3031973611291,,0,,,
899,899,Michelle Garden Apartments,Westbound NE 16th AVE @ Nearside NE 15th ST,29.6665837525919,-82.3056884790659,,0,,,
900,900,Auto Audio,Westbound NE 16th AVE @ Nearside NE 12th ST,29.6666199327943,-82.3101218573154,,0,,,
902,902,Department of Children and Families,Westbound NE 16th AVE @ Nearside NE 9th ST,29.6666026430358,-82.3137588024618,,0,,,
1453,1453,St. Patrick Catholic Church,Westbound NE 16th AVE @ Nearside NE 2 ST,29.6666244686578,-82.3193753294713,,0,,,
761,761,Sandwich Inn @ NE 16th Ave,Westbound NE 16th AVE @ Nearside NE 2nd ST,29.6666840993906,-82.3231148535768,,0,,,
762,762,Midas @ N Main Street,Southbound N Main ST @ Farside NE 16th AVE,29.6655147665592,-82.3245910200746,,0,,,
1468,1468,N Main Post Office,Westbound NW 14th Ave @ Farside Main Street,29.6648456894619,-82.3256675509694,,0,,,
1543,1543,NW 2nd St @ NW 16th Ave Northbound,Northbound NW 2nd St @ Nearside NW 16th Ave,29.6663149714072,-82.3265270403542,,0,,,
1454,1454,Northeast Park,Eastbound NE 16th AVE @ Farside NE 2 ST,29.6665054961076,-82.3194490926266,,0,,,
865,865,Department of Children and Families,Eastbound NE 16th AVE @ Farside NE 9th ST,29.6664864322562,-82.3136368566068,,0,,,
867,867,Auto Audio,Eastbound NE 16th AVE @ Nearside NE 12th ST,29.6664579325704,-82.3106071913589,,0,,,
868,868,Michelle Garden Apartments,Eastbound NE 16th AVE @ Nearside NE 15th ST,29.6664502566311,-82.3059386490544,,0,,,
869,869,Fair View Apartments,Eastbound NE 16th AVE @ Nearside NE 16th TER,29.6664340642073,-82.304088306678,,0,,,
1467,1467,NE 18th St @ NE 8th Ave,Southbound NE 18th ST @ Nearside NE 8th Ave,29.6589246923915,-82.3017314266883,,0,,,
1465,1465,NE 18th St,Southbound NE 18th ST @ Farside NE 5th Ave,29.6559546480039,-82.3017386233316,,0,,,
1463,1463,NE 18 ST @ NE 3 AVE,Southbound NE 18 ST @ Farside NE 3 AVE,29.6532808861663,-82.3017325128804,,0,,,
303,303,Alachua County School Board Administration Annex,Eastbound E University AVE @ Farside SE 18th ST,29.6517859306278,-82.301128895464,,0,,,
304,304,Eastbound University Avenue @ SE 21st Street,Eastbound E University AVE @ Nearside SE 21st ST,29.6517992689053,-82.2977235285656,,0,,,
306,306,Eastbound University Avenue @ SE 24th Street,Eastbound E University AVE @ Nearside SE 24th ST,29.6517747693446,-82.2937388630284,,0,,,
1553,1553,Health Department,Southbound SE 24th ST @ Farside SE 2nd AVE,29.6491681573531,-82.2933788691399,,0,,,
108,108,SE 24th Street at Hawthorne Road,Southbound SE 24th ST @ Nearside Hawthorne RD,29.6461483045913,-82.2939492714779,,0,,,
175,175,Oaks Mall SW 62nd Blvd,Northbound NW 62nd ST @ Nearside Newberry RD,29.658046270091,-82.4087854955701,,0,,,
176,176,Panera Bread @ Newberry Road,Eastbound Newberry RD @ Farside NW 62nd ST,29.6594637702565,-82.4076808293604,,0,,,
177,177,Durant Estate,Eastbound Newberry RD @ Farside NW 57th ST,29.6594336035527,-82.4031708310739,,0,,,
179,179,Eastbound W Newberry Rd @ NW 53rd Terrace,Eastbound Newberry RD @ Nearside NW 53rd TER,29.6590056030665,-82.3999601654568,,0,,,
181,181,Millpond Apartments,Eastbound Newberry RD @ Farside NW 50th BLVD,29.657733103122,-82.3959236667391,,0,,,
182,182,Gainesville Health & Fitness,Eastbound Newberry RD @ Nearside NW 48th BLVD,29.6572737698474,-82.3947083332906,,0,,,
184,184,Alarion Bank,Eastbound Newberry RD @ Nearside NW 43rd ST,29.6558187709709,-82.3907330008811,,0,,,
185,185,Urgent Care Center,Eastbound Newberry RD @ Farside NW 43rd ST,29.6549002621697,-82.3881821167526,,0,,,
186,186,Life South Blood Center,Eastbound Newberry RD @ Nearside NW 39th ST,29.6542969377784,-82.3865545025331,,0,,,
187,187,Florida Citizens Bank,Eastbound Newberry RD @ Nearside NW 39th RD,29.653332770492,-82.3838990034697,,0,,,
188,188,Regal Royal Park Stadium 16,Eastbound Newberry RD @ Farside SW 38th ST,29.6520006043718,-82.3802256708876,,0,,,
189,189,SW 2nd AVE and SW 36th TER - CIL,Eastbound SW 2nd AVE @ Nearside SW 36th ST,29.6510612806375,-82.3773957313525,,0,,,
190,190,Hawaiian Village,Eastbound SW 2nd AVE @ Nearside SW 34th ST,29.6504529378592,-82.3745098396174,,0,,,
191,191,Westgate Plaza,Eastbound SW 2nd AVE @ Farside SW 34th ST,29.6503121685494,-82.3707881395296,,0,,,
192,192,UF Golf Course,Eastbound SW 2nd AVE @ Farside SW 30th ST,29.6503429380299,-82.3674205080792,,0,,,
194,194,Eastbound SW 2nd Avenue @ SW 26th Street,Eastbound SW 2nd AVE @ Nearside SW 26th ST,29.650346937931,-82.3612780095194,,0,,,
195,195,University of Florida Law School,Eastbound SW 2nd AVE @ Farside SW 23rd ST,29.6503344379926,-82.3588471777368,,0,,,
196,196,Pressly Stadium,Eastbound SW 2nd AVE @ Farside Woodlawn DR,29.6504461045339,-82.355430678461,,0,,,
197,197,Ben Hill Griffin Stadium,Eastbound W University AVE @ Farside Gale Lemeran*,29.6519746038784,-82.3490491802911,,0,,,
198,198,St. Augustine Catholic Church,Eastbound W University AVE @ Nearside Fletcher DR,29.6519771037665,-82.3464341805482,,0,,,
199,199,Keene Flint Hall,Eastbound W University AVE @ Farside Buckman DR,29.6519819372831,-82.3442468482756,,0,,,
200,200,Anderson Hall,Eastbound W University AVE @ Nearside NW 15th ST,29.6520004367792,-82.3420101819847,,0,,,
201,201,Leonardo's Pizza By The Slice,Eastbound W University AVE @ Farside SW 13th ST,29.6519827702874,-82.3382303504311,,0,,,
203,203,University of Florida Human Resources,Eastbound W University AVE @ Nearside W 8th ST,29.6519615914564,-82.3337512638895,,0,,,
204,204,Innovation Square North,Eastbound W University AVE @ Nearside SW 7th ST,29.6519681029555,-82.3319593518252,,0,,,
205,205,The Continuum,Eastbound W University AVE @ Farside W 6th ST,29.6519251163906,-82.3294373975497,,0,,,
206,206,AT&T Building,Eastbound W University AVE @ Nearside W 3rd ST,29.6519340752115,-82.3280465756411,,0,,,
207,207,Alachua County Office of the State Attorney,Eastbound W University AVE @ Nearside SW 1st ST,29.6518616619522,-82.3260173416736,,0,,,
208,208,Bo Diddley Community Plaza,Eastbound E University AVE @ Nearside E 3st ST,29.6518708173803,-82.3227435592451,,0,,,
139,139,City Hall,Westbound E University AVE @ Nearside NE 1st ST,29.6520535872899,-82.3235983459204,,0,,,
140,140,Alachua County Office of the State Attorney,Westbound W University AVE @ Nearside NW 2nd ST,29.6520572406839,-82.3264077076957,,0,,,
142,142,Seagle Building,Westbound W University AVE @ Farside W 3rd ST,29.6520759700542,-82.3284266653693,,0,,,
143,143,Santa Fe College Charles L. Blount Center,Westbound W University AVE @ Nearside NW 6th ST,29.6521677212132,-82.3311188719874,,0,,,
144,144,Leonardo's 706,Westbound W University AVE @ Nearside NW 8th ST,29.6521498104048,-82.3323592812755,,0,,,
145,145,Westbound W University Ave @ NW 10th St,Westbound W University AVE @ Nearside NW 10th ST,29.6521481346863,-82.3348966593223,,0,,,
146,146,Holiday Inn @ W University Avenue,Westbound W University AVE @ Nearside SW 13th ST,29.6521857473704,-82.3389726826848,,0,,,
147,147,Target Copy @ W University Avenue,Westbound W University AVE @ Nearside SW 14th ST,29.6521964024034,-82.340837394999,,0,,,
148,148,Smathers Library,Westbound W University AVE @ Nearside NW 16th ST,29.6521326035954,-82.3430786817666,,0,,,
149,149,Swamp Restaurant,Westbound W University AVE @ Nearside NW 17th ST,29.6521576038024,-82.3445738484146,,0,,,
150,150,University Lutheran Church,Westbound W University AVE @ Nearside NW 19th ST,29.6521821960177,-82.3476932657922,,0,,,
1475,1475,President's Park,Westbound SW 2nd Ave @ Nearside SW 23rd St,29.650539814207,-82.355435424453,,0,,,
932,932,UF Law School,Westbound SW 2nd AVE @ Nearside SW 26th ST,29.6504551967349,-82.3590950169242,,0,,,
934,934,Campus Church of Christ,Westbound SW 2nd AVE @ Farside SW 26th ST,29.6504279381254,-82.3627603427011,,0,,,
935,935,Westbound SW 2nd Avenue @ SW 30th Street,Westbound SW 2nd AVE @ Nearside SW 30th ST,29.6504809377205,-82.3672691754061,,0,,,
936,936,Westgate Plaza,Westbound SW 2nd AVE @ Nearside SW 34th ST,29.6504374790099,-82.3707314802966,,0,,,
1474,1474,Renaissance Jewelers,Westbound SW 2nd Ave @ Farrside SW 34th St,29.6505626567999,-82.3738531662361,,0,,,
1473,1473,Fire Station,Westbound SW 2nd Ave @ Farside SW 36th St,29.6511280166715,-82.3770207048272,,0,,,
161,161,Plaza Royale,Westbound Newberry RD @ Farside NW 36th DR,29.6527053543534,-82.3815052230109,,0,,,
162,162,Tire Kingdom @ Newberry Road,Westbound Newberry RD @ Farside NW 39th RD,29.6538084375354,-82.3845120034375,,0,,,
163,163,Allstate Insurance @ Newberry Road,Westbound Newberry RD @ Nearside NW 39th ST,29.6545954372106,-82.3866665026901,,0,,,
164,164,Millennium Center,Westbound Newberry RD @ Nearside NW 43rd ST,29.6556116026665,-82.389408442341,,0,,,
165,165,Orthopedic Institute,Westbound Newberry RD @ Farside NW 43rd ST,29.6564576034634,-82.3918601675568,,0,,,
166,166,Gainesville Health & Fitness,Westbound Newberry RD @ Nearside NW 48th BLVD,29.6573276032835,-82.3941026672109,,0,,,
167,167,SunTrust Bank @ Newberry Road,Westbound Newberry RD @ Farside NW 51st ST,29.6583339367855,-82.3968983325634,,0,,,
168,168,Capital City Bank @ Newberry Road,Westbound Newberry RD @ Nearside N 8th AVE,29.6590861028679,-82.3991628322277,,0,,,
1594,1594,AT&T Store @ NW 4th Place,NW 4th Pl Nearside NW 62nd Street,29.6562723518297,-82.4087125190144,,0,,,
1361,1361,Gainesville Rock Gym,Northbound S Main ST @ Farside SW Depot Ave,29.6454843546274,-82.324858689765,,0,,,
209,209,Alachua County Courthouse,Northbound S Main ST @ Nearside SW 2nd AVE,29.6495370701672,-82.3249013932294,,0,,,
1505,1505,Planned Furnishings,Northbound SW 6th ST @ Nearside University Avenue,29.6519202010778,-82.3307723895273,,0,,,
1585,1585,NW 6th St @ NW 3rd Ave,Northbound NW 6th St @ NW 3rd Ave,29.6537137858442,-82.3307510185242,,0,,,
270,270,Santa Fe College Charles L. Blount Center,Northbound NW 6th ST @ Nearside NW 5th AVE,29.655544602613,-82.3307665187995,,0,,,
215,215,Williams Fellowship Hall,Northbound NW 6th ST @ Nearside NW 7th AVE,29.6573730156032,-82.3307700288256,,0,,,
216,216,Gainesville Police Department,Northbound NW 6th ST @ Nearside NW 8th AVE,29.6592437679444,-82.3307665181516,,0,,,
217,217,Big Ron's Yoga,Northbound NW 6th ST @ Nearside NW 10th AVE,29.6609954344325,-82.3308026847687,,0,,,
218,218,Bailey Village Assisted Living,Northbound NW 6th ST @ Farside NW 13th ST,29.6638644340064,-82.3307631850507,,0,,,
220,220,Medical Marihuana Treatment Center,Northbound NW 6th ST @ Nearside NW 16th AVE,29.6663409331194,-82.3307675179544,,0,,,
221,221,Sixth Street Plaza,Northbound NW 6th ST @ Nearside NW 19th AVE,29.6685242215285,-82.3307590064898,,0,,,
222,222,Hand & Hand Day Care,Northbound NW 6th ST @ Farside NW 19th LN,29.6705624317265,-82.3307535182952,,0,,,
223,223,NW 6th St NW 23rd Ave,Northbound NW 6th ST @ Nearside NW 22nd AVE,29.672788598209,-82.3307318516743,,0,,,
735,735,Rena's Ballroom,Westbound NW 23rd AVE @ Farside NW 6th ST,29.6740139031741,-82.3322008937145,,0,,,
736,736,Wesley United Methodist Church,Westbound NW 23rd AVE @ Nearside NW 10th ST,29.6740214313595,-82.3348396836138,,0,,,
737,737,NW 23rd Avenue @ NW 12th St,Westbound NW 23rd AVE @ Farside NW 12th ST,29.6740525763794,-82.3384290039967,,0,,,
254,254,Big Lot on NW 13th Street,Northbound NW 13th ST @ Farside NW 23rd AVE,29.675138597645,-82.3389903494415,,0,,,
255,255,NW 13th Street,Northbound NW 13th ST @ Farside NW 26th PL,29.677463764347,-82.338960848889,,0,,,
256,256,Mount Pleasant Cemetary,Northbound NW 13th ST @ Farside NW 29th RD,29.6797120970923,-82.3389500150399,,0,,,
258,258,Johnson & Fletcher Insurance,Northbound NW 13th ST @ Nearside NW 33rd AVE,29.6828847413399,-82.3389313645798,,0,,,
259,259,ALDI Food Market,Northbound NW 13th ST @ Nearside NW 39th AVE,29.6876065266628,-82.3388566360885,,0,,,
260,260,Auto Zone @ NW 13th Street,Northbound NW 13th ST @ Farside NW 39th AVE,29.6894556787498,-82.3388589619794,,0,,,
261,261,Sunshine Inn,Northbound NW 13th ST @ Nearside NW 42nd AVE,29.6914488027494,-82.3388836125763,,0,,,
262,262,Westgate Mobile Manor Park,Northbound NW 13th ST @ Nearside NW 45th AVE,29.6954259267381,-82.338870514863,,0,,,
1593,1593,Social Security NB NW 13th St,Northbound NW 13th St @ Farside 45th Ave,29.6968346800453,-82.3388508637543,,0,,,
1478,1478,Great Lakes Carpet @ NW 53rd Avenue,Westbound NW 53rd AVE @ Nearside NW 19th ST,29.7033242328815,-82.3464419412056,,0,,,
1479,1479,Sorrento New Home Community,Westbound NW 53rd AVE @ Nearside NW 55th AVE,29.7033594151179,-82.3531412643933,,0,,,
1168,1168,Northwood Oaks Neighborhood,Northbound NW 34th ST @ Farside NW 54th AVE,29.7040074806726,-82.3621087743091,,0,,,
1169,1169,Northwood Pines Neighborhood,Northbound NW 34th ST @ Nearside NW 25th TER,29.7049577114171,-82.3599749300427,,0,,,
1170,1170,Pine Ridge Apartments,Northbound NW 34th ST @ Nearside NW 23rd TER,29.7062919770061,-82.3569874846309,,0,,,
1455,1455,North Walmart Supercenter,Northbound NW 23rd ST @ Nearside NW 62nd AVE,29.7099159239301,-82.3558236572472,,0,,,
402,402,ABC Liquor Store @ NW 34th Street,Southbound NW 34th ST @ Nearside NW 58th AVE,29.7095917125956,-82.3542605264118,,0,,,
403,403,Kangaroo Gas @ NW 34th Street,Southbound NW 34th ST @ Nearside NW 23rd TER,29.7066052210463,-82.3566521148093,,0,,,
412,412,Northwood Pines Neighborhood,Southbound NW 34th ST @ Nearside NW 23rd TER,29.7051925495661,-82.3597159054849,,0,,,
413,413,Northwood Oaks Neighborhood,Southbound NW 34th ST @ Nearside NW 54th AVE,29.7040840919275,-82.3622333415323,,0,,,
397,397,Eastbound NW 53rd Avenue @ NW 24th Boulevard,Eastbound NW 53rd AVE @ Farside NW 24th BLVD,29.7032564253486,-82.3580911758614,,0,,,
398,398,Sorrento New Home Community,Eastbound NW 53rd AVE @ Farside NW 21st DR,29.7032309246002,-82.3530508441692,,0,,,
399,399,The Home Depot @ NW 53rd Avenue,Eastbound NW 53rd AVE @ Nearside NW 13th ST,29.7031671886045,-82.3464942897514,,0,,,
1551,1551,Social Security Administration,Southbound NW 13th ST @ Nearside NW 45th AVE,29.6967986039591,-82.3391618489442,,0,,,
236,236,Early Learning Coalition,Southbound NW 13th ST @ Farside NW 44th AVE,29.6949925934795,-82.3391618485241,,0,,,
237,237,Sandy's Boutique,Southbound NW 13th ST @ Farside NW 42nd AVE,29.6919880947705,-82.3391569545367,,0,,,
238,238,CVS @ NW 13th Street,Southbound NW 13th ST @ Farside NW 41st AVE,29.6901659984685,-82.3391938598,,0,,,
239,239,Publix @ NW 39th Avenue,Southbound NW 13th ST @ Farside NW 39th AVE,29.6874992617275,-82.3391520148655,,0,,,
240,240,Tires Plus @ NW 13th Street,Southbound NW 13th ST @ Nearside NW 33rd AVE,29.6833810960391,-82.3391993485269,,0,,,
241,241,Grace Presbyterian Church,Southbound NW 13th ST @ Nearside NW 31st AVE,29.6813543915907,-82.3392094409094,,0,,,
242,242,McDonald's @ NW 13th Street,Southbound NW 13th ST @ Nearside NW 29th AVE,29.679423195696,-82.3392224104254,,0,,,
243,243,Verizon Shop,Southbound NW 13th ST @ Nearside NW 26th PL,29.6774744310104,-82.3392525156273,,0,,,
1221,1221,Eastbound NW 23rd Avenue @ NW 13th Street,Eastbound NW 23rd AVE @ Farside NW 13th ST,29.673890765308,-82.3380400160729,,0,,,
1222,1222,Hearing Aid Gainesville,Eastbound NW 23rd TER @ Nearside NW 10th ST,29.6738672651358,-82.335107517236,,0,,,
1223,1223,Forest Meadows Funeral Home,Eastbound NW 23rd TER @ Nearside NW 6th ST,29.6738445981527,-82.3318156849371,,0,,,
275,275,NW 6th St NW 23rd Ave,Southbound NW 6th ST @ Farside NW 21st AVE,29.6727699942619,-82.3308856424825,,0,,,
276,276,NW 6th ST at NW 19th LN (Hand N' Hand Childcare),Southbound NW 6th ST @ Nearside NW 19th LN,29.6705322831279,-82.3309091865779,,0,,,
277,277,Acupuncture Center,Southbound NW 6th ST @ Farside NW 19th AVE,29.6691322659914,-82.3309290184808,,0,,,
278,278,Atlantic Design,Southbound NW 6th ST @ Farside NW 16th AVE,29.6660861001756,-82.3309541850492,,0,,,
279,279,Granny D's,Southbound NW 6th ST @ Nearside NW 13th AVE,29.6638831007179,-82.3310091846144,,0,,,
280,280,American Auto Insurance,Southbound NW 6th ST @ Nearside NW 10th AVE,29.6612491424864,-82.3310023199337,,0,,,
281,281,Jon Uman Attorney,Southbound NW 6th ST @ Nearside NW 8th PL,29.6598847231721,-82.3310026759547,,0,,,
282,282,Greater Bethel African Methodist Episcopal Church,Southbound NW 6th ST @ Farside NW 6th AVE,29.6563944553505,-82.3308725324882,,0,,,
1504,1504,PPG Paints Store,Southbound NW 6th ST @ Nearside University Avenue,29.6529481284122,-82.3308651888551,,0,,,
288,288,Alachua County Courthouse,Southbound S Main ST @ Farside SE 2nd PL,29.6494302703914,-82.3251075204285,,0,,,
294,294,Tools for Schools,Eastbound SE 11th ST @ Farside SE 7th AVE,29.6457284370362,-82.3108693584946,,0,,,
295,295,Williams Elementary School,Eastbound SE 7th AVE @ Farside SE 12th TER,29.645729603991,-82.3089365259085,,0,,,
297,297,Eastbound SE 7th Avenue @ SE 15th Street,Eastbound SE 7th AVE @ Nearside SE 15th ST,29.6457237710767,-82.3060146932167,,0,,,
96,96,Northbound SE 15th Street @ SE 3rd Avenue,Northbound SE 15th ST @ Nearside SE 3rd Ave,29.648789575131,-82.3057880154094,,0,,,
301,301,Eastbound University Avenue @ SE 15th Street,Eastbound E University AVE @ Farside SE 15th ST,29.6518044359852,-82.3047358594529,,0,,,
107,107,Health Department,Southbound Alachua County Health Department @ Far*,29.6490856024981,-82.2949411962673,,0,,,
307,307,Southeast Gator Liquor @ Hawthorne Road,Eastbound Hawthorne RD @ Farside SE 24th ST,29.6449972709106,-82.2938375303107,,0,,,
308,308,Eastbound Hawthorne Road @ SE 26th Street,Eastbound Hawthorne RD @ Nearside SE 26th ST,29.6438466310556,-82.2915506689436,,0,,,
309,309,Alachua County Sheriff's Office,Eastbound Hawthorne RD @ Nearside SE 27th ST,29.6428304378191,-82.2894490306565,,0,,,
311,311,Southbound SE 27th Street @ SE 15th Avenue,Southbound SE 27th ST @ Farside SE 15th AVE,29.6370711264546,-82.2892695473422,,0,,,
312,312,Durelle Heights Neighborhood,Southbound SE 27th ST @ Farside SE 18th AVE,29.6345886066137,-82.2892525315063,,0,,,
313,313,Lana's Place,Eastbound SE 21st AVE @ Nearside SE 28 DR,29.6325887735764,-82.2880815321553,,0,,,
314,314,Faith Missionary Church,Eastbound SE 21st AVE @ Nearside SE 30th Dr,29.6325849402396,-82.2856813664332,,0,,,
315,315,Eastbound SE 21st Avenue @ SE 32nd Terrace,Eastbound SE 21st AVE @ Nearside SE 32 TER,29.6325901570141,-82.2836999939835,,0,,,
316,316,SE 35th St @ SE 21st Avenue,Eastbound SE 21st AVE @ Farside SE 35th ST,29.6325432727073,-82.280937200899,,0,,,
317,317,Northbound SE 35th Street @ SE 20th Avenue,Northbound SE 35th ST @ Nearside SE 18th AVE,29.6347147972047,-82.2807030011653,,0,,,
319,319,Northbound SE 35th Street @ SE 16th Avenue,Northbound SE 35th ST @ Farside SE 16th AVE,29.6366712719887,-82.2806898670343,,0,,,
320,320,Kangaroo @ SE 35th Street,Northbound SE 35th ST @ Nearside Hawthorne RD,29.6385591925771,-82.2806947082981,,0,,,
322,322,E Hawthorne Road @ SE 39th Terrace,Eastbound Hawthorne RD @ Farside SE 39th TER,29.6366656057643,-82.2758293683567,,0,,,
323,323,Chevron Food Mart @ SE 43rd Street,Northbound SE 43rd ST @ Farside Hawthorne RD,29.6362157719772,-82.2724118692795,,0,,,
324,324,Eastside High School,Northbound SE 43rd ST @ Farside SE 13th AVE,29.6398956365732,-82.2724210210153,,0,,,
325,325,The Glades,Northbound SE 43rd ST @ Nearside SE 10th PL,29.6418998715933,-82.2724196557155,,0,,,
326,326,Eastwood Meadows,Northbound SE 44th ST @ Farside SE 10th PL,29.6424344151242,-82.2714733727789,,0,,,
327,327,The Verdant Cove,Southbound SE 43rd ST @ Nearside SE 10th PL,29.6421862709259,-82.2725472030831,,0,,,
329,329,Chevron Food Mart @ SE 43rd Street,Southbound SE 43rd ST @ Nearside Hawthorne RD,29.636222772275,-82.2725590361599,,0,,,
330,330,Westbound Hawthorne Road @ SE 39th Street,Westbound Hawthorne RD @ Nearside SE 39th TER,29.6369189383006,-82.2757022022059,,0,,,
331,331,Eastside Food Store,Southbound SE 35th ST @ Farside Hawthorne RD,29.6386231051574,-82.2808462005984,,0,,,
332,332,Southbound SE 35th Street @ SE 16th Avenue,Southbound SE 35th ST @ Nearside SE 16th AVE,29.6366364389102,-82.2808427008065,,0,,,
333,333,Southbound Se 35th Street @ SE 18th Avenue,Southbound SE 35th ST @ Farside SE 18th AVE,29.6347921058046,-82.2808637010554,,0,,,
334,334,Southbound SE 35th Street @ SE 20th Avenue,Southbound SE 35th ST @ Nearside SE 20th AVE,29.6327596563188,-82.280880147964,,0,,,
335,335,Westbound SE 21st Avenue @ SE 32nd Terrace,Westbound SE 21st AVE @ Farside SE 32nd ST,29.6326644396157,-82.283655700234,,0,,,
336,336,Faith Missionary Church,Westbound SE 21st AVE @ Farside SE 30th Dr,29.6326584395949,-82.2856903664234,,0,,,
337,337,Lana's Place,Westbound SE 21st AVE @ Nearside SE 27th ST,29.6326974401421,-82.2890721978407,,0,,,
338,338,Durelle Heights Neighborhood,Northbound SE 27th ST @ Nearside SE 18th AVE,29.6348614392602,-82.2891821982908,,0,,,
339,339,Northbound SE 27th Street @ SE 15th Avenue,Northbound SE 27th ST @ Nearside SE 15th AVE,29.6370566056606,-82.2891298644154,,0,,,
341,341,Alachua County Sheriffs Department,Northbound SE 27th ST @ Nearside Hawthorne Rd,29.6419062709834,-82.2891680313131,,0,,,
342,342,Alachua County Sheriffs Department,Westbound Hawthorne RD @ Farside SE 25th TER,29.6440387250488,-82.2913752100449,,0,,,
343,343,Dollar General,Westbound Hawthorne RD @ Nearside SE 24th ST,29.6452309415465,-82.2936928028219,,0,,,
349,349,Westbound E University Avenue @ NE 16th Street,Westbound E University AVE @ Nearside NE 16th ST,29.6520240196592,-82.304292579536,,0,,,
111,111,Southbound SE 15th Street @ SE 4th Avenue,Southbound SE 15th ST @ Nearside SE 4th AVE,29.6483829370465,-82.3059430258952,,0,,,
113,113,Southbound SE 15th Street @ SE 7th Avenue,Southbound SE 15th ST @ Nearside SE 7th AVE,29.6459966035782,-82.3059610260266,,0,,,
115,115,Williams Elementary School,Westbound SE 7th AVE @ Nearside SE 12th TER,29.6458397878212,-82.3094919017233,,0,,,
116,116,Waldo Rd @ SE 7th Avenue,Westbound SE 7th AVE @ Farside SE 11th ST,29.6458416132846,-82.3110061841856,,0,,,
409,409,North Walmart Supercenter,Southbound NW 23rd ST @ Farside NW 62nd ST,29.70916300038,-82.3559850003618,,0,,,
1343,1343,Northside Park and Senior Recreational Center,Southbound NW 34th ST @ Farside NW 58th AVE,29.7079231238652,-82.3544542409594,,0,,,
414,414,Barnhill Clinic,Southbound NW 34th ST @ Nearside NW 29th ST,29.7025970886953,-82.3655929178425,,0,,,
416,416,Pizza Hut @ NW 34th Street,Southbound NW 34th ST @ Nearside NW 49th AVE,29.7003352592731,-82.3702596719247,,0,,,
417,417,Capri Neighborhood,Southbound NW 34th ST @ Farside NW 44th PL,29.6945817611452,-82.3723696720256,,0,,,
418,418,Southbound NW 34th Street @ NW 41st Avenue,Southbound NW 34th ST @ Farside NW 41st AVE,29.6909000955948,-82.3723833388612,,0,,,
419,419,NW 39th Avenue @ NW 34th Street,Eastbound NW 39th AVE @ Farside NW 34th ST,29.6885144294048,-82.3712751719962,,0,,,
420,420,First Assembly Church,Eastbound NW 39th AVE @ Nearside NW 29th TER,29.6884947621914,-82.3661511734237,,0,,,
421,421,Walnut Creek Neighborhood,Eastbound NW 39th AVE @ Nearside NW 25th TER,29.6884409286779,-82.3602170090736,,0,,,
422,422,Uptown Village Apartments,Eastbound NW 39th AVE @ Farside NW 24th BLVD,29.6884109288865,-82.3571403431025,,0,,,
423,423,Palmetto Woods Neighborhood,Eastbound NW 39th AVE @ Farside NW 22nd DR,29.6883830949448,-82.3539880103219,,0,,,
424,424,Girls Place of Alachua County,Eastbound NW 39th AVE @ Nearside NW 21st ST,29.6884077454278,-82.3515970301717,,0,,,
425,425,Eastbound NW 39th Ave at NW 19th St Green Tree Pk,Eastbound NW 39th AVE @ Nearside NW 19th ST,29.6884170228629,-82.347868044063,,0,,,
426,426,Ridgeview Baptist Church,Southbound NW 19th ST @ Nearside NW 36th AVE,29.6858879288847,-82.3474393463456,,0,,,
427,427,Altrusa House of Gainesville,Westbound NW 36th AVE @ Farside NW 20th ST,29.6857727628292,-82.3495366786842,,0,,,
428,428,Southbound NW 21st Street @ NW 36th Avenue,Southbound NW 21st ST @ Farside NW 36th AVE,29.6852400064355,-82.3515570237514,,0,,,
429,429,Glen Springs Apartments,Southbound NW 21st ST @ Farside NW 32nd PL,29.6828908380085,-82.3515728528756,,0,,,
430,430,Misty Oaks Apartments,Southbound NW 21st ST @ Nearside NW 31st AVE,29.6813869304011,-82.3515715117137,,0,,,
432,432,Cobblestone Apartments,Eastbound NW 23rd ST @ Farside NW 28th CIR,29.678118147703,-82.3492464562328,,0,,,
433,433,Brookwood Terrace,Eastbound NW 23rd BLVD @ Farside NW 16th TER,29.6764847641754,-82.3480491792142,,0,,,
252,252,Plaza Verde - NW 23rd Avenue,Eastbound NW 23rd AVE @ Farside NW 16th TER,29.6738825983512,-82.3417673478783,,0,,,
245,245,Plaza Verde @ NW 13th St Southbound,Southbound NW 13th ST @ Farside NW 23rd AVE,29.6727198857922,-82.3392491898098,,0,,,
247,247,Gainesville High School,Southbound NW 13th ST @ Nearside NW 19th LN,29.6705024328401,-82.339250516041,,0,,,
248,248,Gainesville High School,Southbound NW 13th ST @ Farside NW 18th AVE,29.6679534328025,-82.339253016218,,0,,,
434,434,Direct Auto Insurance,Southbound NW 13th ST @ Farside NW 14th AVE,29.6645394091138,-82.3392653748357,,0,,,
435,435,State Farm Insurance @ NW 13th Street,Southbound NW 13th ST @ Farside NW 12th AVE,29.6630136843993,-82.3392663607527,,0,,,
436,436,Applebee's @ NW 13th Street,Southbound NW 13th ST @ Nearside NW 10th AVE,29.6613313070308,-82.3392748156587,,0,,,
437,437,All Star Automotive,Southbound NW 13th ST @ Nearside NW 7th AVE,29.6577744609189,-82.3392904651598,,0,,,
438,438,The Gate Food Store @ NW 13th Street,Southbound NW 13th ST @ Nearside NW 5th AVE,29.6559366028347,-82.3393048499335,,0,,,
439,439,NW 13th St @ Nearside NW 3rd Pl Southbound,Southbound NW 13th ST @ Nearside NW 3rd PL,29.6544774357998,-82.3393593494496,,0,,,
440,440,The Standard,Southbound NW 13th ST @ Nearside NW 1st AVE,29.6529317619214,-82.3393649236415,,0,,,
441,441,Tigert Hall,Southbound SW 13th ST @ Farside SW 2nd AVE,29.6496298,-82.339521,,0,,,
1420,1420,Southbound SW 13th ST @ SW 13th AVE,Southbound SW 13 ST @ SW 13th AVE,29.6379805888247,-82.3394266273796,,0,,,
1550,1550,Hotel Eleo @ SW 16th Ave Westbound,Westbound SW 16th AVE @ Farside SW 14th ST,29.6364542764065,-82.3411052191063,,0,,,
1359,1359,Gainesville Healthcare Center,Northbound SW 16th ST @ Nearside Circle of Hope,29.637382406992,-82.3428748521414,,0,,,
659,659,Shands Hospital @ Parking Garage 9,Southbound Gale Lemerand DR @ Farside Archer RD,29.6359890949719,-82.3501354017376,,0,,,
660,660,Shands Hospital @ Helipad,Westbound Shealy DR @ Farside SW 16TH AVE,29.6355024405423,-82.3512441802962,,0,,,
363,363,Kangaroo @ SW 13th Street,Northbound SW 13th ST @ Nearside W University AVE,29.6514826034822,-82.3391986827711,,0,,,
364,364,McDonald's @ SW 13th Street,Northbound NW 13th ST @ Nearside W University AVE,29.6537487757119,-82.3390792411196,,0,,,
365,365,Mother Earth Market,Northbound NW 13th ST @ Farside NW 5th AVE,29.6562029355188,-82.3391128498877,,0,,,
366,366,University House Apartments,Northbound NW 13th ST @ Farside NW 7th AVE,29.6587239957995,-82.3390686897084,,0,,,
367,367,Xerographic Copy Center,Northbound NW 13th ST @ Nearside NW 10th AVE,29.6610406009261,-82.3390645165213,,0,,,
368,368,LifeSouth Community Blood Center @ NW 13th Street,Northbound NW 13th ST @ Nearside NW 14th AVE,29.664005074404,-82.3390534577213,,0,,,
369,369,CVS @ NW 13th Street,Northbound NW 13th ST @ Nearside NW 16th AVE,29.6664002665398,-82.3390445154285,,0,,,
370,370,Gainesville High School,Northbound NW 13th ST @ Farside NW 18th AVE,29.66848245304,-82.3390241826625,,0,,,
371,371,Gainesville High School,Northbound NW 13th ST @ Nearside NW 19th LN,29.6700849327499,-82.3390411829022,,0,,,
372,372,Lux 13 Apartments,Northbound NW 13th ST @ Farside NW 21st AVE,29.671598098826,-82.3390345156695,,0,,,
373,373,Furniture Kingdom,Westbound NW 23rd AVE @ Farside NW 13th ST,29.6740862653379,-82.3407743482453,,0,,,
374,374,UF Health Homecare,Westbound NW 23rd AVE @ Nearside NW 16th TER,29.6740737647782,-82.3427736907288,,0,,,
375,375,Brook Wood Terrace Neighborhood,Westbound NW 23rd AVE @ Farside NW 16th TER,29.6764567646828,-82.3478908460833,,0,,,
376,376,Cobblestone Apartments,Westbound NW 23rd AVE @ Nearside NW 28th CIR,29.6783969034294,-82.3492879037207,,0,,,
378,378,Misty Oaks Apartments,Northbound NW 21st ST @ Farside NW 31st ST,29.6816100794655,-82.351504092188,,0,,,
379,379,Northbound NW 21st Avenue @ NW 33rd Avenue,Northbound NW 21st ST @ Nearside NW 33rd AVE,29.6833219754381,-82.3514875831238,,0,,,
380,380,Kiwanis Park,Northbound NW 21st ST @ Nearside NW 36th AVE,29.6856245956001,-82.3514840121404,,0,,,
381,381,Altrusa House of Gainesville,Eastbound NW 36th AVE @ Nearside NE 20th ST,29.6857107620324,-82.3495140117068,,0,,,
382,382,Ridgeview Baptist Church,Eastbound NW 36th AVE @ Nearside NW 19th ST,29.6856622620424,-82.3474371796297,,0,,,
1374,1374,Westbound NW 39th AVE @ NW 19th TER,Westbound NW 39th AVE @ Nearside NW 19th TER,29.6886354138596,-82.3479671891387,,0,,,
384,384,Girls Place of Alachua County,Westbound NW 39th AVE @ Nearside NW 21st ST,29.6886304282081,-82.3513271787062,,0,,,
385,385,Equilease Square,Westbound NW 39th AVE @ Nearside NW 22nd DR,29.6886107765187,-82.3543339857146,,0,,,
386,386,Forest of the Unicorn Neighborhood,Westbound NW 39th AVE @ Nearside NW 24th BLVD,29.6886363413443,-82.3581684661733,,0,,,
387,387,Walnut Creek Neighborhood,Westbound NW 39th AVE @ Farside NW 25th TER,29.6886752623139,-82.3603165090462,,0,,,
388,388,Assembly of Gods Church,Westbound NW 39th AVE @ Farside NW 29th TER,29.6887240097811,-82.3665098371233,,0,,,
389,389,Westbound NW 39th Avenue @ NW 31st Street,Westbound NW 39th AVE @ Nearside NW 31st TER,29.6887296132286,-82.3686026439072,,0,,,
390,390,NW 39th Avenue @ NW 34th Street,Westbound NW 39th AVE @ Nearside NW 34th ST,29.6887597388866,-82.371579400922,,0,,,
391,391,Gethsemane Lutheran Church,Northbound NW 34th ST @ Nearside NW 41st AVE,29.6913532619098,-82.372204505463,,0,,,
393,393,Capri Neighborhood,Northbound NW 34th ST @ Nearside NW 45th AVE,29.6954905941486,-82.3722118388038,,0,,,
394,394,Family Dollar @ NW 34th Street,Northbound NW 34th ST @ Farside NW 51st PL,29.7007565928126,-82.3693900054619,,0,,,
395,395,YMCA @ NW 34th Street,Northbound NW 34th ST @ Farside NW 30th TER,29.7019069258319,-82.3668625068739,,0,,,
396,396,Barnhill Clinic,Northbound NW 34th ST @ Nearside NW 29th ST,29.7027364254642,-82.3649680075543,,0,,,
404,404,Pine Ridge Apartments,Northbound NW 23rd TER @ Nearside NW 57th PL,29.7077335904095,-82.3579048418458,,0,,,
405,405,Pine Ridge Apartments,Northbound NW 23rd TER @ Nearside NW 25th TER,29.7096790901709,-82.3596296750837,,0,,,
406,406,Northbound NW 23rd Terrace @ NW 62nd Avenue,Northbound NW 23rd TER @ Nearside NW 62nd AVE,29.7113357563248,-82.360174841749,,0,,,
407,407,Hampton Court Apartments,Northbound NW 23rd TER @ Nearside NW 65th PL,29.7143359223139,-82.3601386749738,,0,,,
408,408,Northbound NW 23rd Terrace @ US Hwy 441,Northbound NW 23rd TER @ Nearside NW 13th ST,29.7150360778361,-82.3587080840053,,0,,,
447,447,Hunters Run,Northbound SW 25th TER @ Farside Williston RD,29.6127886134058,-82.359331178518,,0,,,
448,448,Westbound SW 40th Place @ NW 26th Terrace,Westbound SW 40th PL @ Nearside SW 26th TER,29.6136511659197,-82.3601048010676,,0,,,
449,449,Campus Lodge Apartments,Westbound SW 40th TER @ Nearside SW 38th PL,29.6134972792985,-82.3620543445609,,0,,,
450,450,Lexington Crossing Apartments,Northbound SW 27th ST @ Nearside SW 38th PL,29.6151207796802,-82.3623098437475,,0,,,
451,451,Lexington Crossing Apartments,Northbound SW 27th ST @ Farside SW 38th PL,29.6162142494693,-82.3624438175325,,0,,,
453,453,Windsor Park Apartments,Northbound SW 27th ST @ Nearside SW 35th PL,29.6173826560988,-82.3625627884848,,0,,,
454,454,Northbound SW 27th Street @ SW 35th Place,Northbound SW 27th ST @ Nearside SW 35th PL,29.6196261113799,-82.3627590105016,,0,,,
455,455,Casablanca East Apartments,Eastbound SW 35th PL @ Farside SW 27th TER,29.6197711419914,-82.3615143764073,,0,,,
456,456,Arbor Park Apartments,Eastbound SW 35th PL @ Nearside SW 27th TER,29.619965778144,-82.3588180115947,,0,,,
457,457,Hickory Place Apartments,Eastbound SW 35th PL @ Nearside SW 23rd TER,29.6201276732802,-82.356812199308,,0,,,
459,459,SW 23rd Terrace @ SW 35th Place,Northbound SW 23rd TER @ Farside SW 32nd PL,29.621813110874,-82.3558313458595,,0,,,
460,460,Towne Parc Apartments,Northbound SW 23rd TER @ Farside SW 31st PL,29.6239372770473,-82.3560273459815,,0,,,
461,461,University Club Apartments,Northbound SW 23rd TER @ Farside SW 28th PL,29.6258307768937,-82.3563325127546,,0,,,
462,462,University of Florida Energy Research,Northbound SW 23rd TER @ Nearside SW Archer RD,29.6280616099628,-82.3593503449062,,0,,,
463,463,University Commons,Northbound SW 23rd TER @ Nearside Archer RD,29.6307304760827,-82.3614410235708,,0,,,
464,464,Mt Vernon Apartments @ SW 23rd Drive,Northbound SW 23rd DR @ Farside Archer RD,29.6357726076886,-82.3587915116432,,0,,,
465,465,Campus Edge Condominiums,Northbound SW 23rd DR @ Nearside Hull RD,29.6371010121556,-82.3588010188194,,0,,,
466,466,Forestry Field Lab/Plant Growth,Eastbound Mowry RD @ Farside Hull RD,29.638176440846,-82.3566960120527,,0,,,
1481,1481,Cancer/Genetics Research Complex,Eastbound Mowry Rd @ Farside SW 23 Dr,29.63835378564,-82.3535723217963,,0,,,
467,467,Cancer and Genetics Research,Eastbound Mowry RD @ Nearside Gale Lemerand DR,29.6387691065742,-82.3514108465227,,0,,,
468,468,Parking & Transportation Services,Northbound Gale Lemerand DR @ Farside Mowry RD,29.6397911064839,-82.3503873473241,,0,,,
469,469,Commuter Lot Parking Garage @ Gale Lemerand,Northbound Gale Lemerand DR @ Farside Mowry RD,29.6423410375624,-82.3503460052164,,0,,,
1253,1253,Graham Hall,Northbound Gale Lemerand DR @ Farside Museum RD,29.6458102719951,-82.3502568462326,,0,,,
1254,1254,Gator Corner Dining Facility @ Gale Lemerand,Northbound Gale Lemerand DR @ Nearside Stadium RD,29.6481672712703,-82.349617846461,,0,,,
966,966,Weimer Hall,Eastbound Stadium RD @ Farside Gale Lemerand DR,29.6485696047005,-82.3473338469671,,0,,,
925,925,The HUB,Eastbound Stadium RD @ Nearside Buckman DR,29.6485296042589,-82.3449598477693,,0,,,
1192,1192,Turlington Hall,Southbound Newell DR @ Farside Union RD,29.6483947656868,-82.343558453426,,0,,,
1193,1193,Rawlings Hall,Southbound Newell DR @ Nearside McCarty DR,29.6466076494776,-82.3435721230852,,0,,,
473,473,Reitz Union,Southbound McCarty DR @ Nearside Museum RD,29.6451402719844,-82.3469826810094,,0,,,
16,16,UF Health,Southbound Center DR @ Nearside Mowry RD,29.6402016066949,-82.3462881815547,,0,,,
1135,1135,Shands Visitor Parking,Westbound Mowry RD @ Farside Center DR,29.6396367287758,-82.3472877962326,,0,,,
1136,1136,Wilmot Gardens,Westbound Mowry RD @ Nearside Gale Lemerand DR,29.639537897602,-82.3495264361228,,0,,,
477,477,Cancer & Genetics Research Center,Westbound Mowry RD @ Farside Gale Lemerand DR,29.6389145667801,-82.3514133115408,,0,,,
1482,1482,Lake Alice Conservation Area,Westbound Mowry Rd @ Nearside SW 23 Dr,29.6384736186006,-82.353602232895,,0,,,
478,478,IFAS Lab,Westbound Mowry RD @ Farside Hull RD,29.6382795251648,-82.3569703390287,,0,,,
479,479,Campus Edge Condominiums,Southbound SW 23rd DR @ Farside Hull RD,29.6370495120901,-82.358916816062,,0,,,
480,480,Mt Vernon Apartments,Southbound SW 23rd DR @ Nearside Archer RD,29.6357137145948,-82.3589065707967,,0,,,
481,481,University Commons,Southbound SW 23rd TER @ Farside Archer RD,29.6302677757458,-82.3615863441794,,0,,,
482,482,University of Florida Energy Research,Southbound SW 23rd TER @ Farside Archer RD,29.6278949425923,-82.3593091777872,,0,,,
483,483,University Club Apartments,Southbound SW 23rd TER @ Nearside SW 31 PL,29.625365776727,-82.3563421786,,0,,,
484,484,Towne Parc Apartments,Southbound SW 23rd TER @ Nearside SW 31 PL,29.6236844971923,-82.3561609439716,,0,,,
485,485,Southwood Apartments,Southbound SW 23rd TER @ Farside SW 34 PL,29.6207861664866,-82.3559368260497,,0,,,
486,486,Gator Place Condominiums,Southbound SW 23rd TER @ Farside SW 35th PL,29.6190531111831,-82.3557430122318,,0,,,
488,488,Countryside at the University Apartments,Southbound SW 23rd TER @ Nearside Williston RD,29.6159813585361,-82.3554136485936,,0,,,
489,489,Southbound SW 23rd Street @ Williston Road,Southbound SW 23rd ST @ Nearside Williston RD,29.6138057798608,-82.355183012773,,0,,,
490,490,The Polos Apartments,Westbound Williston RD @ Farside SW 23rd ST,29.613174014992,-82.3568278617863,,0,,,
249,249,NW 16th Ave NW 13th St,Westbound NW 16th AVE @ Farside NW 13th ST,29.666800600321,-82.3405211819089,,0,,,
250,250,Gainesville High School Tennis Courts,Westbound NW 16th AVE @ Nearside NW 16th TER,29.6668220996957,-82.3430630149686,,0,,,
494,494,Westbound NW 16th Avenue @ NW 18th Street,Westbound NW 16th AVE @ Farside NW 18th ST,29.6668150324647,-82.3468232148466,,0,,,
495,495,Westbound NW 16th Avenue @ NW 20th Way,Westbound NW 16th AVE @ Nearside NW 20th WAY,29.6668168428901,-82.3497843126875,,0,,,
496,496,Forest Ridge Neighborhood,Westbound NW 16th AVE @ Nearside NW 22nd ST,29.6668224334399,-82.3525635115639,,0,,,
498,498,NW 24th St @ NW 16th Avenue,Westbound NW 16th AVE @ Nearside NW 24th ST,29.6668360556492,-82.3580269470076,,0,,,
500,500,NW 27th Terrace @ NW 16th Avenue,Westbound NW 16th AVE @ Nearside NW 27th TER,29.6668535348381,-82.3632221913409,,0,,,
501,501,NW 30th Terrace @ NW 16th Avenue,Westbound NW 16th AVE @ Farside NW 30th TER,29.6668616503853,-82.3676746250577,,0,,,
502,502,Zion Evangelical Lutheran Church,Westbound NW 16th BLVD @ Farside NW 34th ST,29.6670924264331,-82.3733573716882,,0,,,
503,503,Willowcroft Neighborhood,Westbound NW 16th BLVD @ Farside NW 34th ST,29.6680689989588,-82.3754525879606,,0,,,
504,504,NW 16th Boulevard @ NW 37th Boulevard,Westbound NW 16th BLVD @ Farside NW 37th BLVD,29.6701917217724,-82.3799801075521,,0,,,
505,505,B'Nai Israel School & Day Care,Westbound NW 16th BLVD @ Farside NW 38th TER,29.6709672847343,-82.3817465983725,,0,,,
506,506,Westbound NW 16th Boulevard @ NW 39th Street,Westbound NW 16th BLVD @ Nearside NW 39th ST,29.6717947752274,-82.3836967719356,,0,,,
507,507,Capital City Bank @ NW 16th Boulevard,Westbound NW 16th BLVD @ Nearside NW 41st ST,29.6728905246416,-82.3861221668033,,0,,,
508,508,NW 23rd Ave NW 43rd St,Westbound NW 16th BLVD @ Nearside NW 43rd ST,29.6736214327573,-82.387664334643,,0,,,
509,509,Floral Expressions,Westbound NW 23rd AVE @ Farside NW 43rd ST,29.6742118735019,-82.3900188343403,,0,,,
510,510,Westbound NW 23rd Avenue @ NW 46th Terrace,Westbound NW 23rd AVE @ Nearside NW 46th TER,29.6742024331547,-82.3929201667083,,0,,,
511,511,First Church of the Nazarene,Westbound NW 23rd AVE @ Nearside NW 51st ST,29.674215433239,-82.3969154984654,,0,,,
512,512,Northwest Baptist Church,Westbound NW 23rd AVE @ Nearside NW 55th ST,29.6741996844261,-82.4022829927097,,0,,,
514,514,Westbound NW 23rd Avenue @ NW 63rd Terrace,Westbound NW 23rd AVE @ Farside NW 63rd TER,29.6742404332735,-82.4105958285635,,0,,,
515,515,Hickory Woods Neighborhood,Westbound NW 23rd AVE @ Nearside NW 68th TER,29.674289769663,-82.4151598042843,,0,,,
516,516,Quail Ridge Neighborhood,Westbound NW 23rd AVE @ Nearside NW 71st ST,29.6743027662171,-82.4179784927494,,0,,,
517,517,Shenandoah Neighborhood,Westbound NW 23rd AVE @ Nearside NW 77th TER,29.6742112822655,-82.4250485740664,,0,,,
518,518,Santa Fe College @ NW 83rd Street,Northbound NW 83rd ST @ Farside NW 23rd AVE,29.6752429335763,-82.4301084889323,,0,,,
520,520,Santa Fe,Westbound Santa Fe College @ Farside Santa Fe Col*,29.6796279628576,-82.4318757176889,,0,,,
521,521,Santa Fe College,Eastbound NW South RD @ Nearside NW 83rd ST,29.6777797662333,-82.4305334892407,,0,,,
522,522,The Pentecostals of Gainesville,Eastbound NW 23rd AVE @ Farside NW 83rd ST,29.6742232674441,-82.4284131560757,,0,,,
523,523,Shenandoah Neighborhood,Eastbound NW 23rd AVE @ Farside NW 77th TER,29.6740746005252,-82.4251828235456,,0,,,
524,524,Quail Ridge Neighborhood,Eastbound NW 23rd AVE @ Nearside NW 71st ST,29.6741895001828,-82.4182605912734,,0,,,
525,525,Hickory Woods Neighborhood,Eastbound NW 23rd AVE @ Farside NW 68th TER,29.6741989332675,-82.4151813268549,,0,,,
526,526,Eastbound NW 23rd Avenue @ NW 63rd Terrace,Eastbound NW 23rd AVE @ Nearside NW 63rd TER,29.6741220754986,-82.4104529171468,,0,,,
528,528,Northwest Baptist Church,Eastbound NW 23rd AVE @ Nearside NW 55th ST,29.6740061001361,-82.4018448304965,,0,,,
529,529,First Church of the Nazarene,Eastbound NW 23rd AVE @ Nearside NW 51st ST,29.6739931557724,-82.3969315777882,,0,,,
531,531,Eastbound NW 23rd Avenue @ NW 46th Street,Eastbound NW 23rd AVE @ Nearside NW 46th ST,29.6740282660152,-82.3924491669568,,0,,,
532,532,Floral Expressions,Eastbound NW 23rd AVE @ Nearside NW 43rd ST,29.6739750995465,-82.3901770006691,,0,,,
533,533,NW 23rd Ave NW 43rd St,Eastbound NW 16th BLVD @ Nearside NW 43rd ST,29.6729474331507,-82.3867296684129,,0,,,
534,534,Eastbound NW 16th Boulevard @ NW 39th Drive,Eastbound NW 16th BLVD @ Nearside NW 39th DR,29.6716934334528,-82.3839703361017,,0,,,
535,535,B'Nai Israel School & Day Care,Eastbound NW 16th BLVD @ Nearside NW 38th TER,29.6707266004189,-82.3817206700689,,0,,,
537,537,Willowcroft Neighborhood,Eastbound NW 16th BLVD @ Farside NW 35th WAY,29.6676716007014,-82.3751066717961,,0,,,
538,538,Covenant Church,Eastbound NW 16th AVE @ Nearside NW 31st TER,29.6666605930598,-82.3689101129681,,0,,,
539,539,Brywood Neighborhood,Eastbound NW 16th AVE @ Farside NW 27th TER,29.6666642673365,-82.3633566754617,,0,,,
541,541,Raintree Neighborhood,Eastbound NW 16th AVE @ Nearside NW 23rd TER,29.6666500830764,-82.3579351981817,,0,,,
543,543,Forest Ridge Neighborhood,Eastbound NW 16th AVE @ Nearside NW 22nd ST,29.6666323329031,-82.353083586548,,0,,,
544,544,Eastbound NW 16th Avenue @ NW 20th Way,Eastbound NW 16th AVE @ Nearside NW 20th WAY,29.6666069458513,-82.349900681204,,0,,,
545,545,Colony Park Apartments,Eastbound NW 16th AVE @ Nearside NW 18th ST,29.66659613428,-82.3468213467941,,0,,,
546,546,NW 16th Ave NW 13th St,Eastbound NW 16th AVE @ Nearside NW 13th ST,29.6665696000371,-82.3403953492129,,0,,,
1560,1560,Eastwood Meadows,Northbound SE 44th ST @ Farside SE 10th PL,29.642433,-82.271533,,0,,,
595,595,Lake Forest Trails Neighborhood,Northbound SE 43rd ST @ Farside SE 6th AVE,29.6461714360479,-82.2723908697421,,0,,,
596,596,Lake Forest Elementary School,Northbound SE 43rd ST @ Nearside SE 4th AVE,29.648533,-82.272339,,0,,,
597,597,Sunrise Store @ SE 43rd Street,Northbound SE 43rd ST @ Nearside E University AVE,29.6509702685739,-82.2723612029097,,0,,,
1259,1259,Exxon Gas Station @ E University Avenue,Westbound E University AVE @ Farside SE 43rd ST,29.6519609349718,-82.2729344511845,,0,,,
598,598,Eastside Plaza,Westbound E University AVE @ Farside SE 39th ST,29.651970768388,-82.2769844129996,,0,,,
599,599,Morningside Nature Center,Westbound E University AVE @ Nearside SE 38th ST,29.6519829195851,-82.2799589434757,,0,,,
601,601,Fred Cone Park,Westbound E University AVE @ Nearside SE 27th ST,29.6519919349337,-82.2870708647701,,0,,,
602,602,Pine Meadows Apartments,Westbound E University AVE @ Nearside NE 26th TER,29.6519906020468,-82.2898778638978,,0,,,
1239,1239,Caroline Manor Affordable Housing,Westbound E University AVE @ Nearside NE 25th ST,29.6520029352474,-82.2919186965329,,0,,,
1240,1240,Northbound NE 25th Street @ NE 3rd Place,Northbound NE 25th ST @ Nearside NE 3rd PL,29.6541169354481,-82.2922693633893,,0,,,
608,608,Northbound NE 25th Street @ NE 6th Avenue,Northbound NE 25th ST @ Farside NE 6th AVE,29.6571332677003,-82.2922730300164,,0,,,
609,609,Mt Carmel Baptist Church,Northbound NE 25th ST @ Nearside NE 8th AVE,29.6591447668313,-82.2922916963637,,0,,,
611,611,Northbound NE 25th Street @ NE 11th Place,Northbound NE 25th ST @ Nearside NE 11th PL,29.6630120995335,-82.2919445302014,,0,,,
612,612,Westbound NE 12th Avenue @ NE 24th Terrace,Westbound NE 12th AVE @ Nearside NE 24th TER,29.6637857868819,-82.292552629152,,0,,,
614,614,Southbound NE 24th Street @ NE 8th Avenue,Southbound NE 24th ST @ Nearside NE 8th AVE,29.6624557664864,-82.2936968625032,,0,,,
617,617,Westbound NE 8th Avenue @ NE 23nd Street,Westbound NE 8th AVE @ Farside NE 23nd ST,29.6592876603023,-82.2946655631907,,0,,,
618,618,Duval Elementary School,Westbound NE 8th AVE @ Nearside NE 21st ST,29.6592966005954,-82.2971403613674,,0,,,
623,623,Westbound NE 13th Street @ NE 8th Avenue,Westbound NE 8th AVE @ Nearside NE 13th ST,29.6593761031241,-82.3080361076889,,0,,,
624,624,Sunny Food Mart,Westbound NE 8th AVE @ Farside NE 12th ST,29.6593825419282,-82.3101982214771,,0,,,
627,627,Southbound NE 9th Street @ NE 7th Avenue,Southbound NE 9th ST @ Nearside NE 7th AVE,29.6586307676088,-82.3148476895396,,0,,,
629,629,Southbound NE 9th Street @ NE 5th Avenue,Southbound NE 9th ST @ Nearside NE 5th AVE,29.6557811016006,-82.3148356897879,,0,,,
630,630,Southbound NE 9th Street @ NE 3rd Avenue,Southbound NE 9th ST @ Nearside NE 3rd AVE,29.6540904566198,-82.3148133292502,,0,,,
632,632,Florida School of Traditional Midwifery,Westbound E University AVE @ Farside NE 8th ST,29.6520462825434,-82.3165465058525,,0,,,
634,634,Alachua County School Board Administration,Westbound E University AVE @ Nearside NE BLVD,29.6520236636483,-82.3196402590712,,0,,,
553,553,Downtown Library,Northbound SE 3rd ST @ Nearside E University AVE,29.6517657697248,-82.3223176879062,,0,,,
554,554,Salvation Army Thrift Store,Eastbound E University AVE @ Nearside E 7th ST,29.651848102631,-82.3182511893829,,0,,,
555,555,Eastbound E University Avenue @ SE 8th Street,Eastbound E University AVE @ Nearside SE 8th ST,29.6518487699178,-82.3163181894883,,0,,,
556,556,Northbound NE 9th Street @ E University Avenue,Northbound NE 9th ST @ Farside E University AVE,29.6524017696815,-82.3146578567529,,0,,,
557,557,Northbound NE 9th Street @ NE 3rd Avenue,Northbound NE 9th ST @ Farside NE 3rd AVE,29.6542045860788,-82.3146840365832,,0,,,
558,558,Northbound NE 9th Street @ NE 5th Avenue,Northbound NE 9th ST @ Nearside NE 5th AVE,29.6556038480375,-82.314702073763,,0,,,
560,560,Northbound NE 9th Street @ NE 8th Avenue,Northbound NE 9th ST @ Nearside NE 8th AVE,29.6589866234085,-82.3147045998678,,0,,,
561,561,Eastbound NE 8th Avenue @ NE 11th Street,Eastbound NE 8th AVE @ Farside NE 11th ST,29.659280504105,-82.3115236810793,,0,,,
562,562,Sunny Food Mart,Eastbound NE 8th AVE @ Nearside NE 12th ST,29.6592710495963,-82.3102907720454,,0,,,
563,563,Jones Edmunds,Eastbound NE 8th AVE @ Farside NE 13th ST,29.6592614619996,-82.308213327287,,0,,,
569,569,Duval Elementary School,Eastbound NE 8th AVE @ Farside NE 20th ST,29.6591796009736,-82.2982166943706,,0,,,
570,570,Eastbound NE 8th Avenue @ NE 22nd Street,Eastbound NE 8th AVE @ Nearside NE 22nd ST,29.659181767143,-82.2960228624182,,0,,,
571,571,Northbound NE 24th Street @ NE 8th Avenue,Eastbound NE 8th AVE @ Nearside NE 24th ST,29.659160933431,-82.2937953627962,,0,,,
573,573,Northbound NE 24th Street @ NE 10th Avenue,Northbound NE 24th ST @ Nearside NE 10th AVE,29.662270100088,-82.2936095289962,,0,,,
575,575,Eastbound NE 12th Avenue @ NE 24th Terrace,Eastbound NE 12th AVE @ Farside NE 24th TER,29.6636924329956,-82.2924431962459,,0,,,
576,576,Southbound NE 25th Street @ NE 11th Place,Southbound NE 25th ST @ Farside NE 11th PL,29.6630650993282,-82.2920460295301,,0,,,
578,578,Southbound NE 25th Street @ NE 8th Avenue,Southbound NE 25th ST @ Nearside NE 8th AVE,29.6588414095892,-82.292389308206,,0,,,
579,579,Southbound NE 25th Street @ NE 6th Avenue,Southbound NE 25th ST @ Nearside NE 6th AVE,29.6567046009371,-82.2924233627707,,0,,,
581,581,Southbound NE 25th Street @ NE 3rd Place,Southbound NE 25th ST @ Nearside NE 3rd PL,29.6543946013505,-82.2924075300339,,0,,,
585,585,Eastbound SE 25th Terrace @ E University Avenue,Eastbound E University AVE @ Farside SE 25th TER,29.6517861957498,-82.2912556017504,,0,,,
586,586,Pine Meadows Apartments,Eastbound E University AVE @ Farside SE 26th TER,29.6517497688329,-82.2894313646326,,0,,,
587,587,Fred Cone Park,Eastbound E University AVE @ Farside SE 27th ST,29.6517682684465,-82.2876695315898,,0,,,
588,588,Morningside Nature Center,Eastbound E University AVE @ Nearside SE SE 38th *,29.6517731014485,-82.2801198672095,,0,,,
589,589,Eastside Plaza,Eastbound E University AVE @ Nearside SE 39th ST,29.6517471018797,-82.276767868222,,0,,,
590,590,Southbound SE 43rd Street @ E University Avenue,Southbound SE 43rd ST @ Farside E University AVE,29.6509184670539,-82.2724932869418,,0,,,
591,591,Compassionate Outreach,Southbound SE 43rd ST @ Nearside SE 4th AVE,29.6483266868112,-82.2724980844661,,0,,,
592,592,Lake Forest Trails Neighborhood,Southbound SE 43rd ST @ Nearside SE 6th AVE,29.6460662848768,-82.2725101913715,,0,,,
1027,1027,Best Buy @ Butler Plaza,Southbound SW 37th BLVD @ Nearside Archer RD,29.6213282785117,-82.3809188388181,,0,,,
661,661,Regions Bank @ SW 37th Boulevard,Southbound SW 37th BLVD @ Nearside SW 38th ST,29.6199226894976,-82.379797489075,,0,,,
635,635,Gateway at Gainesville Apartments,Southbound SW 37th BLVD @ Farside SW 38th ST,29.6175916274599,-82.377741212733,,0,,,
636,636,Greenwich Green Apartments,Eastbound SW 37th BLVD @ Nearside SW 34th ST,29.6175687793354,-82.3746343407579,,0,,,
637,637,Aspen Ridge Apartments,Northbound SW 34th ST @ Farside SW 37th BLVD,29.6183929948741,-82.3723382725604,,0,,,
643,643,Ridgemar Apartments,Northbound SW 34th ST @ Nearside SW 35th AVE,29.6204931120522,-82.3725211741291,,0,,,
644,644,Kangaroo @ SW 34th Street,Northbound SW 34th ST @ Farside SW 35th AVE,29.6224429787748,-82.3725811985286,,0,,,
645,645,University Town Center,Northbound SW 34th ST @ Nearside Archer RD,29.6240159440085,-82.3722706749081,,0,,,
652,652,Shands Hospital @ Helipad,Eastbound Shealy DR @ Farside Archer RD,29.6355226078469,-82.3510021806772,,0,,,
653,653,Shands Hospital @ Parking Garage 9,Northbound Gale Lemerand DR @ Nearside Archer RD,29.6363226073522,-82.3500743467209,,0,,,
654,654,Shands Hospital @ Davis Cancer Pavilion,Northbound Gale Lemerand DR @ Farside Archer RD,29.6377545326987,-82.3502427933613,,0,,,
658,658,Shands Hospital @ Davis Cancer Pavilion,Southbound Gale Lemerand DR @ Nearside Archer RD,29.6376879399586,-82.3504231802343,,0,,,
1299,1299,Kohl's Department Store @ SW 34th ST,Southbound SW 34th ST @ Nearside SW 35th PL,29.6234912492602,-82.3727522072068,,0,,,
1300,1300,HH Gregg @ SW 34th ST,Southbound SW 34th ST @ Farside SW 35th PL,29.6205089454744,-82.372890173944,,0,,,
1301,1301,Stoneridge Apartments,Southbound SW 34th ST @ Nearside SW 39th BLVD,29.6185194450925,-82.3726973409882,,0,,,
1302,1302,Greenwich Green Apartments,Westbound SW 39th BLVD @ Nearside SW 34th ST,29.6177016122105,-82.3747005073742,,0,,,
1303,1303,O2B Kids @ SW 37th BLVD,Northbound SW 39th BLVD @ Nearside Archer RD,29.6177908025505,-82.3777784498089,,0,,,
1304,1304,Regions Bank @ Archer Road,Northbound SW 39th BLVD @ Nearside Archer RD,29.6197629907355,-82.3794474145279,,0,,,
1305,1305,Best Buy @ Butler Plaza,Northbound SW 37th BLVD @ Nearside Windmeadows BL*,29.6215185485074,-82.3807522674057,,0,,,
681,681,US 441 South,Southbound SW 13th ST @ Farside Williston RD,29.6075557257658,-82.3421446651471,,0,,,
682,682,Budget Inn,Northbound SW 13th ST @ Nearside Williston RD,29.6118677883762,-82.3411090663515,,0,,,
683,683,Meridian Behavioral Healthcare,Northbound SW 13th ST @ Nearside Williston RD,29.6131068190437,-82.3409036161186,,0,,,
684,684,Residence Inn,Northbound SW 13th ST @ Farside Williston RD,29.6157146122674,-82.3404790171233,,0,,,
685,685,The Landings Apartments,Northbound SW 13th ST @ Farside SW 36th PL,29.618672784672,-82.3400779326651,,0,,,
686,686,CDS Family and Behavioral Services,Northbound SW 13th ST @ Nearside SW 36th PL,29.6203777775326,-82.3397988508507,,0,,,
687,687,Bivens Cove Apartments,Northbound SW 13th ST @ Nearside SW 36th PL,29.6220492773177,-82.3395571836029,,0,,,
688,688,Tanglewood Apartments,Northbound SW 13th ST @ Nearside SW 14th DR,29.6233034433826,-82.3393446839614,,0,,,
689,689,Boardwalk Apartments,Northbound SW 13th ST @ Farside SW 14th DR,29.626535109586,-82.3391995167864,,0,,,
690,690,Comfort Suites Hotel,Northbound SW 13th ST @ Farside SW 23rd PL,29.628293000553,-82.3391916528033,,0,,,
692,692,Village Square,Northbound SW 13th ST @ Farside SW 25th PL,29.6302852748556,-82.3391783507794,,0,,,
693,693,home2 Hotel,Northbound SW 13th ST @ Nearside SW 21st AVE,29.6319912141171,-82.3391686410157,,0,,,
1373,1373,CVS @ SW 13th ST,Northbound SW 13th ST @ Nearside SW 16th AVE,29.6360402554566,-82.3391985578144,,0,,,
695,695,Oakbrook Walk Condominiums,Northbound SW 13th ST @ Nearside SW 14th AVE,29.6382086063074,-82.339241683666,,0,,,
1358,1358,SW 16th Avenue Building A,Eastbound SW 16th AVE @ Nearside SW  16th ST,29.6350502738065,-82.3450723483206,,0,,,
667,667,Summit House Condominiums,Eastbound SW 16th AVE @ Farside SW 16th ST,29.6357472740407,-82.3424818488415,,0,,,
668,668,Ronald McDonald House of Gainesville,Eastbound SW 16th AVE @ Nearside SW 14th ST,29.6362882738404,-82.3403463494486,,0,,,
669,669,Liv+ Apartments 13th St,Southbound SW 13th ST @ Farside SW 18th PL,29.6344143554288,-82.3395079854936,,0,,,
670,670,Dollar General,Southbound SW 13th ST @ Nearside SW18th PL,29.6321259415783,-82.3395240168409,,0,,,
671,671,Lakeshore Towers Apartments,Southbound SW 13th ST @ Nearside SW 25th PL,29.6303242747729,-82.3395200167983,,0,,,
672,672,City College Gainesville,Southbound SW 13th ST @ Nearside SW 25th PL,29.6289263802941,-82.3395012744689,,0,,,
673,673,Wyndham Garden Hotel,Southbound SW 13th ST @ Nearside SW 14th DR,29.624405609643,-82.3395550171425,,0,,,
676,676,Chop Stix Cafe,Southbound SW 13th ST @ Farside SW 14th DR,29.6209131111356,-82.3400231836743,,0,,,
677,677,The Landings Apartments,Southbound SW 13th ST @ Nearside SW 36th PL,29.6185679951305,-82.3403710011048,,0,,,
678,678,Residence Inn,Southbound SW 13th ST @ Nearside Williston RD,29.6158427786219,-82.3407855175561,,0,,,
679,679,Meridian Behavioral Healthcare,Southbound SW 13th ST @ Farside Williston RD,29.6133989755198,-82.3411482715534,,0,,,
680,680,Bridge House,Southbound SW 13th ST @ Nearside SW 45th LN,29.6114187799141,-82.3414850168848,,0,,,
1264,1264,Cottage Grove Apartments at Gainesville,Southbound SW 13th ST @ Farside SW Williston RD,29.6095017805196,-82.3418565172175,,0,,,
738,738,Palms at Brook Valley Apartments,Eastbound NW 39th AVE @ Farside NW 12th ST,29.6884194283508,-82.3367498490263,,0,,,
739,739,Eastbound NW 39th Avenue @ NW 10th Street,Eastbound NW 39th AVE @ Farside NW 10th ST,29.6884206313708,-82.3344623389329,,0,,,
740,740,Stephen Foster Elementary School @ 39th Ave,Eastbound NW 39th AVE @ Nearside NW 7th ST,29.6884275947194,-82.3317846836511,,0,,,
741,741,Gainesville Public Works,Eastbound NW 39th AVE @ Farside NW 6th ST,29.6883623352773,-82.3278297007528,,0,,,
742,742,Bella Vista Village Eastbound,Eastbound NW 39th AVE @ Farside NW 1st TER,29.6883351879947,-82.32524606335,,0,,,
743,743,Pine Forest Homes,Eastbound NW 39th AVE @ Nearside NE 2nd ST,29.6883166209979,-82.3226395273205,,0,,,
744,744,Wade Raulerson Honda Dealership,Eastbound NE 39th AVE @ Farside N Main ST,29.6883065945588,-82.3185210207242,,0,,,
745,745,Highland Court Manor,Eastbound NE 39th AVE @ Nearside NE 12th ST,29.6882554004815,-82.310560873812,,0,,,
746,746,Eden Park Apartments,Eastbound NE 39th AVE @ Nearside NE 14th ST,29.6882488482873,-82.3077844226932,,0,,,
748,748,Fearnside Family Services Center,Southbound NE 15th ST @ Farside NE 39th AVE,29.6865747778109,-82.3058495781793,,0,,,
749,749,Village Green Apartments,Southbound NE 15th ST @ Farside NE 31st AVE,29.6835112347073,-82.3058747681125,,0,,,
750,750,Southbound NE 15th Street @ NE 31 Avenue,Southbound NE 15th ST @ Nearside NE 31st AVE,29.6816131085976,-82.3058681833941,,0,,,
752,752,NE 15th Street @ NE 26th Avenue,Southbound NE 15th ST @ Nearside NE 26th AVE,29.6766475690623,-82.3058768460304,,0,,,
753,753,Smokey Bear Park,Southbound NE 15th ST @ Nearside NE 23rd AVE,29.6744328972767,-82.3059186826155,,0,,,
754,754,NE 23rd Ave Farside NE 14th St Westbound,Westbound NE 23rd AVE @ Farside NE 14th ST,29.6738939306908,-82.3080666911054,,0,,,
755,755,Highland Court Manor Neighborhood @ NE 23rd Avenue,Westbound NE 23rd AVE @ Nearside NE 11th TER,29.6739169700789,-82.3111548789813,,0,,,
756,756,Westbound NE 23rd Avenue @ NE 9th Street,Westbound NE 23rd AVE @ Nearside NE 9th ST,29.673932349791,-82.3146188377614,,0,,,
757,757,Pointe 23 Apartments,Westbound NE 23rd AVE @ Farside NE 7th TER,29.6739491905181,-82.3169073495991,,0,,,
758,758,David's BBQ,Southbound NE 2nd ST @ Farside NE 23rd AVE,29.6728513766282,-82.3198413539456,,0,,,
759,759,Pine Grove Apartments,Southbound NE 2nd ST @ Farside NE 21st LN,29.6700977656887,-82.3213813539243,,0,,,
760,760,Laundry Mart,Southbound NE 2nd ST @ Nearside NE 16th AVE,29.6673397659882,-82.3218976873738,,0,,,
763,763,Publix @ N Main Street,Southbound N Main ST @ Farside NE 14th AVE,29.6637642943965,-82.3245861754665,,0,,,
764,764,Gainesville Shopping Center South,Southbound N Main ST @ Nearside NE 10th AVE,29.6615847770941,-82.3245943820163,,0,,,
766,766,Fire Stone @ N Main Street,Southbound N Main ST @ Nearside NE 7th AV,29.65817013746,-82.3251132229205,,0,,,
768,768,Friends of the Library Alachua County,Southbound N Main ST @ Farside NE 6th AVE,29.6560477689509,-82.3250880199658,,0,,,
769,769,The Collier Companies,Southbound N Main ST @ Nearside NW 2nd AVE,29.6537636288193,-82.3251261899272,,0,,,
697,697,Masonic Temple,Northbound N Main ST @ Farside NE 2nd AVE,29.6536970966229,-82.324895879445,,0,,,
699,699,Partnership for Strong Families,Northbound N Main ST @ Farside NE 6th AVE,29.6563399538297,-82.3249207217253,,0,,,
700,700,Fire Stone @ N Main Street,Northbound N Main ST @ Nearside NE 8th AVE,29.6584631014311,-82.3249130206274,,0,,,
701,701,CVS Pharmacy @ N Main Street,Northbound N Main ST @ Nearside NE 10th AVE,29.6604984345286,-82.3244493534826,,0,,,
703,703,US Post Office @ Main St,Northbound N Main ST @ Nearside NE 14th AVE,29.6638734505978,-82.3244558879431,,0,,,
704,704,Kangaroo @ N Main St,Northbound N Main ST @ Nearside NE 16th AVE,29.6663981599875,-82.3243937909636,,0,,,
706,706,Laundry Mart,Northbound NE 2nd ST @ Farside NE 16th AVE,29.6671909327126,-82.3217441877725,,0,,,
707,707,Pine Grove Apartments,Northbound NE 2nd ST @ Nearside NE 21st LN,29.6702142655369,-82.3211018547017,,0,,,
709,709,McCoy Court Apartments,Northbound NE 2nd ST @ Nearside NE 23rd AVE,29.6728358173641,-82.3196841582877,,0,,,
710,710,Pointe 23 Apartments,Eastbound NE 23rd AVE @ Nearside NE 7th ST,29.6737852444956,-82.3175857384764,,0,,,
711,711,Chelsea Apartments Eastbound,Eastbound NE 23rd AVE @ Nearside NE 9th ST,29.6737524312503,-82.3150071897128,,0,,,
713,713,NE 23rd Avenue @ NE 11th Terrace,Eastbound NE 23rd AVE @ Farside NE 11th TER,29.6737582850369,-82.3111334311707,,0,,,
714,714,Boulware Charter School,Eastbound NE 23rd AVE @ Nearside NE 14th ST,29.6737352455168,-82.3083306950541,,0,,,
715,715,Smokey Bear Park,Northbound NE 15th ST @ Farside NE 23rd AVE,29.6744986966667,-82.3057632123873,,0,,,
716,716,NE 28th Avenue @ NE 15th Street,Northbound NE 15th ST @ Nearside NE 28th AVE,29.6769504296805,-82.3057308581275,,0,,,
718,718,Northbound NE 15th Street @ NE 31st Avenue,Northbound NE 15th ST @ Farside NE 31st AVE,29.6817692619645,-82.3057268583428,,0,,,
719,719,Village Green Apartments,Northbound NE 15th ST @ Farside NE 31st AVE,29.6834439287217,-82.3057303585435,,0,,,
720,720,Fearnside Family Services Center Northbound,Northbound NE 15th ST @ Nearside NE 39th AVE,29.6861764346559,-82.3057167459214,,0,,,
721,721,NE 39th Ave WB Farside NE 15th St,Westbound NE 39th AVE @ Farside NE 15th ST,29.6884979273352,-82.3065363582835,,0,,,
722,722,Eden Park at Ironwood,Westbound NE 39th AVE @ Farside NE 14th ST,29.6885094270829,-82.3088270242372,,0,,,
723,723,Highland Court,Westbound NE 39th AVE @ Nearside NE 11th TER,29.6885016153642,-82.3109045441557,,0,,,
724,724,Westbound NE 39th Ave at Main St - Gsville Nissan,Westbound NE 39th AVE @ Nearside N Main ST,29.6885311939249,-82.3190974031813,,0,,,
725,725,Southeast Car Agency,Westbound NE 39th AVE @ Nearside NE 2nd WAY,29.6885449278019,-82.3221980202258,,0,,,
726,726,Bella Vista Village,Westbound NW 39th AVE @ Nearside NW 1st TER,29.6885892980614,-82.3254180620196,,0,,,
727,727,Oasis Carwash,Westbound NW 39th AVE @ Nearside NW 6th ST,29.6886062439839,-82.3278494084393,,0,,,
728,728,Stephen Foster Elementary School,Southbound NW 6th ST @ Farside NW 39th Ave,29.6876047611274,-82.3308450175475,,0,,,
729,729,Southbound SW 6th Street @ NW 36th Avenue,Southbound NW 6th ST @ Nearside NW 35th AVE,29.6852229810945,-82.3308343023947,,0,,,
730,730,Southbound NW 6th Street @ NW 32nd Place,Southbound NW 6th ST @ Nearside NW 32nd PL,29.6826802017539,-82.3308330977175,,0,,,
732,732,Oak Gate Condominiums,Southbound NW 6th ST @ Nearside NW 29th AVE,29.6790414040205,-82.3308398578972,,0,,,
733,733,IBEW Local 1205,Southbound NW 6th ST @ Farside NW 26th AVE,29.6763699309735,-82.3308298514225,,0,,,
782,782,Sugar Hill,Northbound SE 20th PL @ Nearside SE 4th ST,29.6326716070626,-82.3159345233639,,0,,,
783,783,Chevron Gas Station @ Williston Road,Southbound Williston RD @ Farside SE 4th ST,29.6350721495424,-82.3177864070149,,0,,,
784,784,Southbound Williston Road @ SE 1st Terrace,Southbound Williston RD @ Nearside SE 1st TER,29.6341457735023,-82.3191233566149,,0,,,
785,785,Springhill Baptist Church,Southbound Williston RD @ Nearside SE 1st ST,29.6325455919198,-82.3207197412562,,0,,,
786,786,Sweetwater on 16th Apartments Westbound,Westbound SE 16th AVE @ Farside SE Williston RD,29.6304336499608,-82.3241281162806,,0,,,
787,787,Treehouse Village Apartments,Westbound SE 16th AVE @ Nearside S Main ST,29.6328812738318,-82.3259465210449,,0,,,
788,788,Winn Dixie @ SW 16th Avenue,Westbound SW 16th AVE @ Nearside SW 6th ST,29.6362906064694,-82.3285948537507,,0,,,
789,789,Sun Bay Apartments,Westbound SW 16th AVE @ Farside SW 6th ST,29.6366079398991,-82.3324691857918,,0,,,
790,790,Parklands Rehab & Nursing Center,Westbound SW 16th AVE @ Farside SW 10th TER,29.6366884405634,-82.3357663513664,,0,,,
791,791,Oakbrook Walk Condominiums @ SW 16th Avenue,Westbound SW 16th AVE @ Nearside SW 13th ST,29.6365639401221,-82.3382896837619,,0,,,
794,794,Sai Quick Stop,Eastbound SW 16th AVE @ Farside SW 13th ST,29.6363786068084,-82.3380660170216,,0,,,
795,795,The Retreat Apartments,Eastbound SW 16th AVE @ Farside SW 10th TER,29.6364846848236,-82.3355704376363,,0,,,
796,796,Sun Bay Apartments,Eastbound SW 16th AVE @ Nearside SW 6th ST,29.6363939170775,-82.3325411950839,,0,,,
773,773,Arbor Park Apartments,Eastbound SW 16th AVE @ Farside SW 6th ST,29.636142971843,-82.3291234444641,,0,,,
774,774,Treehouse Village Apartments,Eastbound SE 16th AVE @ Farside S Main ST,29.6327271072526,-82.3260771879942,,0,,,
775,775,Sweetwater on 16th Apartments,Eastbound SE 16th AVE @ Nearside Williston RD,29.6310214414497,-82.3252783872151,,0,,,
776,776,Spring Hill Church,Northbound Williston RD @ Farside SE 1st ST,29.6323567746297,-82.3204861888653,,0,,,
1487,1487,New RTS Maintenance Facility North,Northbound SE 1st St @ SE 13th AVE,29.6381126491411,-82.3256906749076,,0,,,
1488,1488,New RTS Maintenance Facility South,Southbound SE 1st St @ SE 13th AVE,29.6384148401621,-82.3257616619052,,0,,,
171,171,Oaks Mall @ NW 62nd Blvd,Southbound NW 62nd ST @ Nearside NW 4th PL,29.6567924186307,-82.4089879928788,,0,,,
172,172,Oaks Mall SW 62nd Blvd,Southbound NW 62nd ST @ Farside NW 1st PL,29.6543891937133,-82.4089731711648,,0,,,
824,824,Hampton Oaks Apartments,Southbound SW 62nd BLVD @ Farside NW 1st PL,29.6516584386007,-82.4089708293245,,0,,,
825,825,Fairmont Oaks Apartments,Southbound SW 62nd BLVD @ Farside NW 4th PL,29.6500558724131,-82.4077913851403,,0,,,
827,827,Lakewood Villas Apartments,Southbound SW 62nd BLVD @ Farside SW 52nd St,29.6463263914913,-82.4006551930118,,0,,,
828,828,Rockwood Villas Apartments,Southbound SW 62nd BLVD @ Nearside SW 9th PL,29.6444167735885,-82.3991059995796,,0,,,
829,829,The District Apartments,Southbound SW 62nd BLVD @ Nearside SW 20th AVE,29.6415529138233,-82.39837926026,,0,,,
830,830,Cabana Beach Apartments,Eastbound SW 20th AVE @ Farside SW 52nd ST,29.6395171080753,-82.3952695001074,,0,,,
832,832,Liv Apartments,Eastbound SW 20th AVE @ Farside SW 42nd DR,29.6354386082542,-82.3880876688831,,0,,,
833,833,Addison Lane,Eastbound SW 20th AVE @ Nearside SW 40th TER,29.6342959417534,-82.3848395039306,,0,,,
835,835,Kensington Apartments South,Eastbound SW 20th AVE @ Nearside SW 38th TER,29.6339582752918,-82.3818920049734,,0,,,
837,837,Southwest Villas Apartments,Eastbound SW 20th AVE @ Nearside SW 37th WAY,29.6339509418547,-82.377716172736,,0,,,
838,838,34th St Plaza,Eastbound SW 20th AVE @ Nearside SW 34th ST,29.6340393316169,-82.3751577761286,,0,,,
839,839,Florida Department Of Agriculture,Northbound SW 34th ST @ Farside SW 20th AVE,29.6354461085666,-82.3723756736885,,0,,,
840,840,Hilton University of Florida Conference Center,Northbound SW 34th ST @ Nearside Hull RD,29.6373609414406,-82.3723553402031,,0,,,
841,841,Harn Museum,Eastbound Hull RD @ Farside Bledsoe DR,29.6375544405697,-82.3700773408856,,0,,,
842,842,Southwest Recreation Center,Northbound Bledsoe DR @ Farside Hull RD,29.6381706070332,-82.3692468413954,,0,,,
844,844,Maguire Field,Northbound Bledsoe DR @ Nearside Radio RD,29.6409678033836,-82.3692475863852,,0,,,
1326,1326,UF Counseling and Wellness Center,Eastbound Radio RD @ Farside Bledsoe DR,29.6421479396991,-82.3688341745576,,0,,,
845,845,Lakeside,Eastbound Radio RD @ Nearside Museum RD,29.6421991060851,-82.3660991759949,,0,,,
846,846,Lakeside Residential Complex,Eastbound Radio RD @ Nearside Museum RD,29.6422407733981,-82.3642810095563,,0,,,
847,847,Corry Village,Northbound Museum RD @ Nearside Village DR,29.6447743787883,-82.3608748817207,,0,,,
848,848,Lake Alice Field,Eastbound Museum RD @ Farside Fraternity DR,29.6448746673839,-82.3567176748054,,0,,,
849,849,Hume Hall,Eastbound Museum RD @ Nearside Gale Lemerand DR,29.6448366052482,-82.3519883465721,,0,,,
797,797,Hume Hall,Westbound Museum RD @ Farside Gale Lemerand DR,29.6449506662639,-82.352202322235,,0,,,
798,798,Sigma Alpha Epsilon,Westbound Museum RD @ Nearside Woodlawn DR,29.644974112289,-82.3552952571384,,0,,,
800,800,Corry Village,Southbound Museum RD @ Farside Village DR,29.6449416096643,-82.3607126558809,,0,,,
801,801,UF Bat Houses,Southbound Museum RD @ Nearside Radio RD,29.6432219150176,-82.3636189026219,,0,,,
802,802,Lakeside Apartments,Westbound Radio RD @ Farside Museum RD,29.6423182954296,-82.3664519202125,,0,,,
803,803,UF Counseling and Wellness Center,Westbound Radio RD @ Nearside Bledsoe DR,29.6423064110109,-82.3689536030947,,0,,,
804,804,Family Housing,Southbound Bledsoe DR @ Farside Radio RD,29.6411060281033,-82.3693609864592,,0,,,
806,806,Southwest Recreation Center,Southbound Bledsoe DR @ Nearside Hull RD,29.6381128027045,-82.3693637679491,,0,,,
807,807,University Village South Apartments,Westbound Hull RD @ Nearside SW 34th ST,29.6377477974621,-82.3703728379456,,0,,,
808,808,Hilton University of Florida Conference Center,Southbound SW 34th ST @ Nearside SW 19th AVE,29.63589332883,-82.3726796113723,,0,,,
810,810,Campus USA,Westbound SW 20th AVE @ Farside SW 34th ST,29.6342225191004,-82.374906684691,,0,,,
811,811,Pinnacle Point Apartments,Westbound SW 20th AVE @ Farside SW 38th ST,29.6341136085532,-82.3776850057648,,0,,,
813,813,Kensington Apartments North,Westbound SW 20th AVE @ Farside SW 38th TER,29.6341227754942,-82.3827975041422,,0,,,
814,814,Pinetree Gardens,Westbound SW 20th AVE @ Farside SW 40th TER,29.6345049489214,-82.3852018132968,,0,,,
815,815,Circle K SW 20th Ave Westbound,Westbound SW 20th AVE @ Farside SW 42nd DR,29.6357311425532,-82.3882097758654,,0,,,
816,816,Canopy Apartments,Westbound SW 20th AVE @ Farside SW 43rd ST,29.6369589412984,-82.390185835604,,0,,,
818,818,The Woodlands Apartments,Northbound SW 62nd BLVD @ Farside SW 20th AVE,29.6411677745044,-82.3981401666845,,0,,,
819,819,Rockwood Villas Apartments,Northbound SW 62nd BLVD @ Farside SW 9th PL,29.6448257723008,-82.3992475933676,,0,,,
820,820,Spyglass Apartments,Northbound SW 62nd BLVD @ Nearside SW 4th PL,29.6467954688528,-82.4008431304879,,0,,,
822,822,Palm Garden of Gainesville,Northbound SW 62nd BLVD @ Nearside SW 4th PL,29.6499798906256,-82.4071174223158,,0,,,
823,823,Hampton Oaks Apartments,Northbound SW 62nd BLVD @ Nearside NW 1st PL,29.6524157721131,-82.4087956629977,,0,,,
174,174,Terwilliger Elementary School,Northbound NW 62nd ST @ Nearside NW 4th PL,29.6558784373652,-82.4087658292784,,0,,,
859,859,Cabana Beach Apartments,Westbound SW 52nd BLVD @ Nearside SW 20th AVE,29.6380782751813,-82.3979876665688,,0,,,
1236,1236,Cabana Beach,Northbound SW 52nd BLVD @ Farside SW 20th AVE,29.6359131085102,-82.3978836666524,,0,,,
1271,1271,Marchwood Townhomes,Southbound SW 43rd ST @ Farside SW 20th LN,29.633436942481,-82.3893851687808,,0,,,
1272,1272,Eastbound SW 24th Avenue @ SW 43rd Street,Southbound SW 43rd St @ Nearside SW 24th AVE,29.631250109744,-82.3893463359918,,0,,,
1557,1557,The Ridge @ SW 38th TER northbound,Northbound SW 38th TER @ Farside SW 24th AVE,29.6316261422176,-82.3808748625011,,0,,,
1273,1273,SW 38th Terr nearside SW 20th Ave,Northbound SW 38th Terrace @ SW 20th Avenue,29.633805558075,-82.3808255288791,,0,,,
1459,1459,Kensington Apartments Eastside,Southbound SW 38th TER @ Farside SW 20th AVE,29.6336059766362,-82.3809997925316,,0,,,
1556,1556,The Ridge @ SW 38th TER southbound,Southbound SW 38th TER @ Nearside SW 24th AVE,29.6315486604585,-82.3809919296848,,0,,,
1351,1351,Hailey Gardens,Northbound SW 43rd ST @ Nearside SW 22nd LN,29.6313950120359,-82.3892134568799,,0,,,
1352,1352,Forest Park,Northbound SW 43rd ST @ Nearside SW 21st PL,29.6329738014694,-82.3891192877077,,0,,,
817,817,Cabana Beach Apartments,Eastbound SW 52 BLVD @ Nearside SW 20th AVE,29.6378736085848,-82.3976123331417,,0,,,
1098,1098,North Florida Regional Medical Center,Westbound Newberry RD @ Nearside NW 66th ST,29.6597500932419,-82.4120095525009,,0,,,
1099,1099,SUBWAY@ Newberry RD,Westbound Newberry RD @ Nearside Oaks Mall,29.6597739373139,-82.4134796609776,,0,,,
1100,1100,West Newberry Rd Nearside NW 69th Ter,Westbound Newberry RD @ Nearside NW 69th TER,29.6597679371571,-82.4159869942273,,0,,,
1372,1372,Newberry Rd @ NW 75th,Westbound Newberry RD @ Nearside Tower RD,29.6598182699762,-82.4212794918697,,0,,,
1274,1274,Krystal @ Newberry Road,Westbound Newberry RD @ Farside NW 76th ST,29.659836121655,-82.4247093050765,,0,,,
1275,1275,Westbound Newberry Road @ Fort Clarke Boulevard,Westbound Newberry RD @ Nearside Fort Clarke BLVD,29.6604592708102,-82.432630155983,,0,,,
1276,1276,Paddock Club Apartments,Northbound Fort Clarke BLVD @ Farside NW 8th AVE,29.6634967694793,-82.4335083222624,,0,,,
1277,1277,Legacy @ Fort Clarke Apartments,Northbound Fort Clarke BLVD @ Farside NW 15th PL,29.6674659356653,-82.4351141542123,,0,,,
1278,1278,Northbound Fort Clarke Boulevard @ Eagle Point,Northbound Fort Clarke BLVD @ Nearside NW 17th PL,29.6688598323212,-82.436904929182,,0,,,
1279,1279,Hidden Oak Elementary School,Northbound Fort Clarke BLVD @ Farside NW 89th DR,29.6708879427428,-82.4389999305707,,0,,,
1283,1283,Ft Clarke Middle School,Northbound Fort Clarke BLVD @ Nearside NW 23rd AVE,29.6741724343143,-82.4391334869702,,0,,,
1284,1284,Ft Clarke Middle School,Southbound Fort Clarke BLVD @ Farside NW 23rd AVE,29.6735086007738,-82.4393339859886,,0,,,
1280,1280,Hidden Oak Elementary School,Southbound Fort Clarke BLVD @ Nearside NW 23rd AVE,29.6708114347616,-82.4391026530378,,0,,,
1285,1285,Southbound Fort Clarke Boulevard @ Eagle Point,Southbound Fort Clarke BLVD @ Nearside NW 17th PL,29.6689126156629,-82.4371395511916,,0,,,
1286,1286,Legacy @ Fort Clarke Apartments,Southbound Fort Clarke BLVD @ Nearside NW 15th PL,29.6671982689456,-82.4350873217643,,0,,,
1287,1287,Paddock Club Apartments,Southbound Fort Clarke BLVD @ Nearside NW 8th AVE,29.6633858001027,-82.4336595265662,,0,,,
1288,1288,Eastbound Newberry Road @ Fort Clarke Boulevard,Eastbound Newberry RD @ Farside Fort Clarke BLVD,29.6602352702542,-82.4322038226621,,0,,,
1289,1289,Pepboys Auto @ Newberry RD,Eastbound Newberry RD @ Nearside NW 76th BLVD,29.6595969367912,-82.4249713240386,,0,,,
1552,1552,Kangaroo Express @ Newberry/Tower Road,Eastbound Newberry RD @ Nearside NW 75th ST,29.6595852076472,-82.4225718181918,,0,,,
1096,1096,Oaks Square Complex,Eastbound Newberry RD @ Farside NW 69th TER,29.6594667700746,-82.4160291604826,,0,,,
1097,1097,Oaks Mall,Eastbound Newberry RD @ Nearside Oaks Mall,29.659513603988,-82.4138753276309,,0,,,
850,850,GRU Administration Building,Eastbound SE 4th AVE @ Farside SE 4th ST,29.6483169372821,-82.3213690219233,,0,,,
851,851,Eastbound SE 4th Avenue @ SE 8th Street,Eastbound SE 4th AVE @ Nearside SE 8th ST,29.6481367706065,-82.3165590232091,,0,,,
852,852,Triangle Club,Eastbound SE 4th AVE @ Nearside 11th ST,29.6481831862954,-82.3126795667654,,0,,,
853,853,Northbound SE 11th Street @ SE 2nd Avenue,Northbound SE 11th ST @ Nearside SE 2nd AVE,29.6498852694901,-82.3113133577744,,0,,,
855,855,Walgreens @ NE 3rd Avenue,Northbound Waldo RD @ Nearside NE 3rd AVE,29.6534051021749,-82.3103896916603,,0,,,
856,856,UF Health Family Medicine Eastside Northbound,Northbound Waldo RD @ Farside NE 5th AVE,29.6550153687899,-82.3092757510743,,0,,,
857,857,Episcopal Children's Services Northbound,Northbound Waldo RD @ Nearside NE 8th AVE,29.6565391645007,-82.3082534587212,,0,,,
863,863,Northbound NE 9th Street @ NE 10th Place,Northbound NE 9th ST @ Nearside NE 10th PL,29.6613728640399,-82.3147137892029,,0,,,
864,864,Northbound NE 9th Street @ NE 14th Avenue,Northbound NE 9th ST @ Farside NE 14th AVE,29.664887933041,-82.3146975231213,,0,,,
870,870,Tacachale Center,Northbound Waldo RD @ Farside NE 16th AVE,29.6668367655452,-82.3013911930972,,0,,,
871,871,Family Worship Center,Northbound Waldo RD @ Farside NE 21st PL,29.670190318514,-82.2991037786515,,0,,,
872,872,University of Florida Eastside Campus @ Waldo Road,Northbound Waldo RD @ Nearside NE 23rd AVE,29.671875001777,-82.2979993475719,,0,,,
873,873,BP Gas Station @ NE 23rd Avenue,Westbound NE 23rd AVE @ Farside Waldo RD,29.6738709303748,-82.2979515274614,,0,,,
875,875,Bertie Heating & Air,Westbound NE 23rd AVE @ Nearside NE 17th TER,29.6738799307583,-82.3029470261163,,0,,,
877,877,Quick Mart @ NE 15th Street,Northbound NE 15th ST @ Nearside NE 39th AVE,29.6881549268627,-82.3056786916272,,0,,,
1441,1441,Lewis Place @ Ironwood Apartments,Northbound NE 15th ST @ Farside NE 13th AVE,29.6913846972783,-82.3057158422012,,0,,,
1442,1442,North Point @ Ironwood,Northbound NE 15th ST @ Nearside NE 47th PL,29.6978670720331,-82.3056837236469,,0,,,
887,887,BP Gas Station @ Waldo Road,Southbound Waldo RD @ Nearside NE 53rd AVE,29.70216089766,-82.2778552396954,,0,,,
881,881,NE 49th AVE - Brittany Estates Neighborhood,Eastbound NE 49th AVE @ Farside Waldo RD,29.6994910898479,-82.2783435535273,,0,,,
882,882,NE49th AVE - PFG Foods,Eastbound NE 49th AVE @ Nearside NE 40th TER,29.6993119236259,-82.2752903668815,,0,,,
885,885,Nordstrom Distribution Center,Northbound NE 49th TER @ Nearside NE 54th PL,29.7047140891863,-82.2650928699339,,0,,,
886,886,Job Corps,Westbound NE 54th PL @ Nearside NE 54th AVE,29.7044230889061,-82.2740628671441,,0,,,
1456,1456,NE 49th AVE,Westbound NE 49th AVE @ Farside Waldo RD,29.6996441917436,-82.2782648047924,,0,,,
888,888,Invivo Imaging,Westbound NE 53rd AVE @ Farside Waldo RD,29.7030665898346,-82.279110698455,,0,,,
1443,1443,North Point @ Ironwood,Southbound NE 15th ST @ Nearside NE 47th PL,29.6981001222402,-82.305863094754,,0,,,
891,891,Lewis Place @ Ironwood Apartments,Southbound NE 15th Street @ Nearside NE 39th AVE,29.691382820929,-82.3059418698652,,0,,,
892,892,One Room School,Southbound NE 15th ST @ Nearside NE 39th AVE,29.6898884273041,-82.3058380250001,,0,,,
893,893,Bertie Heating & Air,Eastbound NE 23rd AVE @ Nearside NE 17th TER,29.6737275601343,-82.3032392234842,,0,,,
895,895,BP Gas Station @ NE 23rd Avenue,Eastbound NE 23rd AVE @ Nearside Waldo RD,29.6737290868484,-82.2980126381236,,0,,,
896,896,University of Florida Eastside Campus @ Waldo Road,Southbound Waldo RD @ Farside NE 21st PL,29.6717673570044,-82.2983388411433,,0,,,
897,897,Crab House,Southbound Waldo RD @ Farside Ne 18th PL,29.6680350813766,-82.3008474484559,,0,,,
903,903,Southbound NE 9th Street @ NE 14th Avenue,Southbound NE 9th ST @ Nearside NE 14th AVE,29.6649657659208,-82.3148281894749,,0,,,
904,904,Southbound NE 9th Street @ Ne 10th Place,Southbound NE 9th ST @ Nearside NE 10th PL,29.6615773903166,-82.3148468733381,,0,,,
909,909,Episcopal Children's Services,Southbound Waldo RD @ Farside NE 8th AVE,29.6565439348111,-82.308494025671,,0,,,
910,910,UF Health Family Medicine Eastside,Southbound Waldo RD @ Farside NE 5th AVE,29.6550291121403,-82.3094948864149,,0,,,
912,912,Kangaroo @ Waldo Road,Southbound Waldo RD @ Nearside E University AVE,29.6527209481876,-82.3110917034541,,0,,,
913,913,Southbound SE 11th Street @ SE 2nd Avenue,Southbound SE 11th ST @ Nearside SE 2nd AVE,29.650310181284,-82.3116128718644,,0,,,
915,915,Triangle Club,Westbound SE 4th AVE @ Farside SE 11th ST,29.648287149315,-82.3126003146806,,0,,,
917,917,Westbound SE 4th Avenue @ SE 8th Street,Westbound SE 4th AVE @ Nearside SE 8th ST,29.6482798833196,-82.3163595108756,,0,,,
920,920,GRU Administration Building,Westbound SE 4th AVE @ Nearside SE 4th ST,29.6484135665094,-82.3214605065445,,0,,,
1313,1313,Bed and Breakfast District,Eastbound SE 2nd AVE @ Nearside SE 7th ST,29.6500886895715,-82.3184369741035,,0,,,
1367,1367,Eastbound SE 2nd AVE @ SE 10th ST,Eastbound SE 2nd AVE @ Farside SE 10th ST,29.6500076240901,-82.3131960101373,,0,,,
1315,1315,Super Wal-Mart @ Waldo Road,Northbound Waldo RD @ Farside NE 12th AVE,29.6640362661521,-82.303333860099,,0,,,
1163,1163,Sonny's Barbecue @ Waldo Road,Northbound Waldo RD @ Nearside NE 27th AVE,29.675954649347,-82.2952228097104,,0,,,
1164,1164,Merita Bread Box,Northbound Waldo RD @ Farside NE 31st AVE,29.6814673605358,-82.2914761053542,,0,,,
1317,1317,GRACE Marketplace,Eastbound NE 39th AVE @ Farside Waldo RD,29.683304452411,-82.2861905087737,,0,,,
1329,1329,Alachua County Juvenile Detention,Eastbound NE 39th AVE @ Farside Waldo RD,29.6801555946249,-82.2802060329789,,0,,,
1320,1320,Airport,Westbound Airport Access RD @ Farside NE 39th AVE,29.6860839269799,-82.2763203671753,,0,,,
1319,1319,Gainesville Regional Airport Outbound,Westbound Airport Access RD @ Nearside NE 39th AVE,29.6789667619265,-82.2766162002018,,0,,,
1330,1330,Alachua County Juvenile Detention,Westbound NE 39th AVE @ Farside Waldo RD,29.6801856773096,-82.2796300988387,,0,,,
1318,1318,GRACE Marketplace,Westbound NE 39th AVE @ Nearside Waldo RD,29.6835708544825,-82.2861722354584,,0,,,
1339,1339,Merita Bread Box,Southbound Waldo RD @ Nearside NE 31st AVE,29.6810239233713,-82.2920598152807,,0,,,
1338,1338,Sonny's Barbecue @ Waldo Road,Southbound Waldo RD @ Farside NE 27th AVE,29.6763008349619,-82.2952720625496,,0,,,
1316,1316,Super Wal-Mart @ Waldo Road,Southbound Waldo RD @ Nearside NE 12th AVE,29.6637769333838,-82.3037518591865,,0,,,
1368,1368,Westbound SE 2nd AVE @ SE 10th ST,Westbound SE 2nd AVE @ Nearside SE 10th Street,29.6502153993028,-82.3132216857087,,0,,,
1314,1314,Bed and Breakfast District,Westbound SE 2nd AVE @ Farside SE 7th ST,29.6503269362413,-82.3187103558604,,0,,,
927,927,Ben Hill Griffin Stadium North End Zone,Southbound Gale Lemerand DR @ Farside W Universit*,29.6510556037796,-82.3497430135138,,0,,,
1165,1165,Hills Mini Storage,Westbound NE 39th Ave @ Farside Waldo Rd,29.6857274649848,-82.2903636212882,,0,,,
1166,1166,Ironwood Golf Course,Westbound NE 39th AVE @ Nearside Waldo RD,29.6881330213859,-82.2969862147934,,0,,,
1495,1495,Passage Family Church,Southbound NE 15th St @ Nearside NE 20th Pl,29.6716293039381,-82.3059087089959,,0,,,
1503,1503,Southbound Metcalfe Elementary School,Southbound NE 15th ST @ Nearside NE 18th AVE,29.6684566858148,-82.3058837986355,,0,,,
1447,1447,Gardenia Gardens,Eastbound NE 8th AVE @ Farside NE 17th ST,29.6591348582701,-82.3026740845024,,0,,,
1502,1502,Northbound Metcalfe Elementary School,Northbound NE 15th ST @ Nearside NE 18th AVE,29.6682846478106,-82.3057473521603,,0,,,
1494,1494,NE 15th St @ NE 20th Pl,Northbound NE 15th St @ Farside NE 20th Pl,29.6717895120332,-82.3057616760007,,0,,,
878,878,Ironwood Golf Course,Eastbound NE 39th AVE @ Farside Waldo RD,29.6877910934457,-82.2966096943559,,0,,,
1430,1430,NE 39th Ave @ Waldo Rd,Eastbound NW 39th AVE @ Nearside Waldo RD,29.6851820938859,-82.2898255296852,,0,,,
1428,1428,FDOT Operations Center,Eastbound NW 39th AVE @ Nearside NE 52 ST,29.6734375960161,-82.2639662041154,,0,,,
214,214,Santa Fe College Charles L. Blount Center,Northbound NW 6th ST @ Nearside NW 4th AVE,29.6555636024481,-82.3301890186271,,0,,,
1448,1448,Northwest 8 Avenue @ farside NW 4th St,Northwest 8 Avenue @ farside NW 4th St Eastbound,29.6593160324474,-82.3281795643055,,0,,,
1362,1362,UF & Shands Family Medicine Main Street,Northbound N Main ST @ Farside NW 16th AVE,29.6677327662345,-82.3243370202765,,0,,,
1545,1545,Fresenius Medical Care,Northbound N Main ST @ Nearside NE 1st Blvd,29.6710396461891,-82.3229994559783,,0,,,
1201,1201,Greyhound Station,Westbound NW 23rd AVE @ Nearside N Main ST,29.673957319025,-82.3234415953513,,0,,,
1450,1450,Northside Shopping Center West,Northbound NE 1 BLVD @ Farside NW 23 AVE,29.6755333194415,-82.3236250466056,,0,,,
1451,1451,Northside Shopping Center East,Southbound Main ST @ Nearside NW 23rd AVE,29.6755107144454,-82.3207506578801,,0,,,
1415,1415,Family Dollar @ NE 23rd AVE,Westbound NE 23rd AVE @  N Main ST,29.6739764560057,-82.3205081609503,,0,,,
1546,1546,The Clock Restaurant,Southbound N Main ST @ Nearside NE 1st Blvd,29.6714818703435,-82.3229950988645,,0,,,
1449,1449,Gator City Motors SB N Main St,Southbound Main ST @ Nearside NW 16th AVE,29.6690444504767,-82.324282071497,,0,,,
1366,1366,Westbound NW 8th AVE @ NW 4th ST,Westbound NW 8th AVE @ Nearside NW 4th ST,29.6595109783537,-82.3282101082853,,0,,,
284,284,Santa Fe College Charles L. Blount Center,Eastbound NW 6th ST @ Nearside NW 3rd AVE,29.6539943053212,-82.3303144207715,,0,,,
959,959,Family Housing @ SW 34th Street,Northbound SW 34th ST @ Nearside Radio RD,29.6420704400931,-82.3723266739433,,0,,,
1458,1458,Northside Family Housing,Eastbound Radio RD @ Nearside SW 34 ST,29.6421510518119,-82.3707279656152,,0,,,
1214,1214,Corry Village,Northbound Village DR @ Nearside W Fraternity Row,29.6476104383492,-82.3600503438217,,0,,,
1145,1145,Fraternity Row II across Springs,Eastbound Fraternity Row @ Farside W Fraternity R*,29.6483147717497,-82.3575968440716,,0,,,
1146,1146,Beta Theta Pi across Springs,Eastbound Fraternity Row @ Nearside Woodlawn DR,29.6485434381564,-82.3564381782741,,0,,,
926,926,Leigh Hall,Northbound Buckman DR @ Nearside W University AVE,29.650637777994,-82.3446731272627,,0,,,
1161,1161,Springs Residence Building,Westbound Fraternity Row @ Farside Woodlawn DR,29.6486142710216,-82.356567344518,,0,,,
1133,1133,Fraternity Row at West Fraternity Drive,Westbound Fraternity Row @ Nearside W Fraternity *,29.6478672713528,-82.3579961780747,,0,,,
1189,1189,Corry Village,Westbound West Fraternity DR @ Nearside Village DR,29.6477722715338,-82.3600500105226,,0,,,
1457,1457,Physical Plant Radio Road,Westbound Radio RD @ Nearside SW 34 ST,29.6423128550195,-82.3707327240465,,0,,,
939,939,Orthopaedics and Sports Medicine Institute,Southbound SW 34th ST @ Nearside Hull RD,29.637884607255,-82.3726676706593,,0,,,
1559,1559,Clark Butler BLVD @ Plaza southbound,Southbound Clark Butler BLVD @ Nearside Plaza BLVD,29.626896,-82.384952,,0,,,
1580,1580,Celebration Pointe At Regal Cinema 10,SW 45th Street Farside SW 32nd Road,29.623121,-82.395109,,0,,,
1578,1578,Celebration Pointe PNR,SW 32nd Rd And SW 50th Terrace Parking Lot,29.6238213441304,-82.3967793740156,,0,,,
1579,1579,Outside of Butler Plaza TS,SW 35th Blvd And SW 42nd Street,29.6249475758236,-82.3870076806225,,0,,,
1555,1555,Pod @ Plaza Blvd Eastbound,Eastbound Plaza Blvd @ Farside SW 62nd Blvd,29.6276603140624,-82.3831239516489,,0,,,
1484,1484,Varsity House Apartments @ SW 38th Ter,Northbound SW 38th TER @ Nearside Hull RD,29.6365677303959,-82.3808336669292,,0,,,
1483,1483,aloft Hotel @ Hull Rd Eastbound,Eastbound Hull Rd Farside SW 37th St,29.6372762030908,-82.3778947139491,,0,,,
1237,1237,Museum Walk Apartments,Eastbound Hull RD @ Nearside SW 34th ST,29.6376615664375,-82.3747981866049,,0,,,
1173,1173,Cultural Plaza,Eastbound Hull RD @ Farside Bledsoe DR,29.6375726074079,-82.3685860079469,,0,,,
1174,1174,Lacrosse Field,Eastbound Hull RD @ Nearside Natural Area DR,29.6375870750755,-82.3651744229854,,0,,,
1176,1176,Fifield Hall,Eastbound Hull RD @ Nearside Mowry RD,29.6375765946684,-82.3621816964634,,0,,,
951,951,Southbound SW 26th Drive @ SW 40th Place,Southbound SW 26th DR @ Nearside SW 40th PL,29.6141318210357,-82.3612116858504,,0,,,
452,452,Gainesville Place Apartments @ SW 35th Place,Westbound SW 35th PL @ Nearside SW 28th TER,29.6197992562813,-82.3647410144934,,0,,,
952,952,Gainesville Place Apartments,Northbound Gainesville Place Apartments @ Farside*,29.6219204443609,-82.3651598427932,,0,,,
953,953,Gainesville Place Apartments,Northbound Gainesville Place Apartments @ Farside*,29.6234752779144,-82.3655008434095,,0,,,
954,954,Enclave Apartments,Westbound SW 28th PL @ Farside SW 28th PL,29.6255810012415,-82.3663573313532,,0,,,
955,955,Gainesville Place Apartments,Northbound Old Archer RD @ Nearside SW 31st TER,29.627328276258,-82.3707288409683,,0,,,
956,956,Old Archer Road @ SW 34th Street,Westbound Old Archer RD @ Nearside SW 34th ST,29.6261062772955,-82.3721743410877,,0,,,
957,957,Regency Oaks Apartments,Northbound SW 34th ST @ Farside Windmeadows BLVD,29.6293415048534,-82.3724126240711,,0,,,
958,958,34th Street Plaza,Northbound SW 34th ST @ Nearside SW 20th AVE,29.6315586095546,-82.3724093411901,,0,,,
960,960,34th Street Wall,Northbound SW 34th ST @ Nearside SW 2nd Ave,29.6462576179465,-82.3723072683841,,0,,,
937,937,Point West Apartments,Southbound SW 34th ST @ Farside SW 2nd Ave,29.64799127176,-82.372524840184,,0,,,
938,938,Maguire Village @ SW 34th Street,Southbound SW 34th ST @ Nearside Radio RD,29.6424321065618,-82.3726488403669,,0,,,
942,942,34th Street Plaza,Southbound SW 34th ST @ Farside SW 20th AVE,29.6326901434329,-82.3726997570819,,0,,,
943,943,Kelly's Kwik Stop,Southbound SW 34th ST @ Farside SW 24th AVE,29.6297454431211,-82.3727320073824,,0,,,
945,945,Ridgemar Commons,Eastbound SW 35th PL @ Farside SW 32nd TER,29.6215657779188,-82.3704156747883,,0,,,
946,946,Victoria Station Apartments,Eastbound SW 35th PL @ Farside SW 32nd TER,29.6208484451481,-82.3684236760442,,0,,,
947,947,Gainesville Place Apartments @ SW 35th Place,Eastbound SW 35th PL @ Farside SW 28th TER,29.6196825073779,-82.3650794057831,,0,,,
1140,1140,Southbound SW 27th Street @ SW 35th Place,Southbound SW 27th ST @ Farside SW 35th PL,29.619302315103,-82.3628901084914,,0,,,
949,949,Lexington Crossing Apartments,Southbound SW 27th ST @ Farside SW 35th PL,29.6169827785469,-82.3626341774644,,0,,,
950,950,Lexington Crossing Apartments,Southbound SW 27 PL @ Nearside SW 38th PL,29.6153676122491,-82.3624453439062,,0,,,
1137,1137,Savannah Place Apartments,Westbound SW 35th PL @ Farside SW 23rd TER,29.6202492782232,-82.3566950123217,,0,,,
1138,1138,Arbor Apartments,Westbound SW 35th PL @ Farside SW 23rd TER,29.6201009281498,-82.3585287141738,,0,,,
1139,1139,Casablanca Apartments,Westbound SW 35th PL @ Nearside SW 27th ST,29.6199123064735,-82.3612633383655,,0,,,
1213,1213,Lexington Crossing Apartments,Southbound SW 27th ST @ Nearside SW 40th PL,29.613534946227,-82.362271177742,,0,,,
1542,1542,The Polos Southwest Entrance,Eastbound SW 40th Pl. @ Nearside SW 25th Ter,29.6135775677493,-82.3599394495537,,0,,,
967,967,Hunters Run Apartments,Westbound Williston RD @ Farside SW 25th TER,29.6120404020003,-82.3593790983851,,0,,,
968,968,Campus Lodge Apartments,Westbound Williston RD @ Nearside SW 29Th Dr,29.608900114459,-82.3640136774158,,0,,,
969,969,Nationwide Insurance @ Williston Road,Westbound Williston RD @ Farside SW 29Th Dr,29.6061826954868,-82.3677509357105,,0,,,
970,970,Williston Plaza,Northbound SW 34th ST @ Farside Williston RD,29.605936281853,-82.3710545090859,,0,,,
971,971,US Post Office @ SW 34th Street,Northbound SW 34th ST @ Nearside SW 47th AVE,29.6089909475078,-82.3713138418298,,0,,,
972,972,Laurels Apartments,Northbound SW 34th ST @ Farside SW 47th AVE,29.6115039468657,-82.3715633412403,,0,,,
974,974,Dollar General,Northbound SW 34th ST @ Farside SW 42 PL,29.6148184462124,-82.3719233412309,,0,,,
642,642,University Terrace Condominiums,Northbound SW 34th ST @ Nearside SW 39th BLVD,29.6170056124788,-82.3721533409017,,0,,,
1310,1310,Williston Plaza,Northbound SW 47th AVE @ Nearside SW 34th ST,29.6088296147496,-82.3734941747557,,0,,,
31,31,Regal  Cinema 14 @ Butler Plaza,Northbound Windmeadows BLVD @ Farside SW 35th BLVD,29.6277401098129,-82.3776740057579,,0,,,
33,33,Spanish Trace Apartments,Eastbound Windmeadows BLVD @ Nearside SW 34th ST,29.6281672765594,-82.3742906732014,,0,,,
1177,1177,Fifield Hall,Westbound Hull RD @ Farside Mowry RD,29.6377207101588,-82.3623187435269,,0,,,
1179,1179,Pressly Softball Stadium,Westbound Hull RD @ Farside Natural Area DR,29.6376938698898,-82.3652434435676,,0,,,
1180,1180,Southwest Recreation Center,Westbound Hull RD @ Nearside Bledsoe DR,29.6377864412399,-82.3683455079799,,0,,,
1155,1155,Spanish Trace Apartments,Westbound Windmeadows BLVD @ Farside SW 34th ST,29.6283567587333,-82.3744597073977,,0,,,
1156,1156,Windmeadows Apartments,Westbound Windmeadows BLVD @ Nearside SW 35th ST,29.6274583035147,-82.3781670733928,,0,,,
1307,1307,Alarion Bank @ 34th ST,Southbound SW 34th ST @ Farside SW 42nd PL,29.6139082016888,-82.3721723865648,,0,,,
1308,1308,US Post Office @ SW 34th Street,Southbound SW 34th ST @ Nearside SW 47th AVE,29.610995392251,-82.3718525037,,0,,,
1309,1309,Williston Plaza,Westbound SW 48th LN @ Nearside SW 34th ST,29.6063846154946,-82.3726140082512,,0,,,
1321,1321,The Enclave Apartments,Westbound SW 35th PL @ Nearside SW 34th ST,29.6211607778494,-82.3688266755213,,0,,,
1322,1322,Rocky Point Apartments,Westbound SW 35th PL @ Nearside SW 34th ST,29.6216517776018,-82.3703036749515,,0,,,
1337,1337,Gainesville Place,Southbound Gainesville Place Apartments @ Nearsid*,29.621831944441,-82.3654795102916,,0,,,
1267,1267,University Commons Apartments,Westbound Old Archer RD @ Farside SW 23rd TER,29.6311939395906,-82.3632431039354,,0,,,
1268,1268,Brandywine Apartments,Westbound Old Archer RD @ Farside SW 28th PL,29.6301990002971,-82.3653719995485,,0,,,
1269,1269,Archer Court Apartments,Westbound Old Archer RD @ Nearside SW 28th Pl,29.629410276065,-82.3671001756452,,0,,,
1270,1270,Gainesville Place Apartments,Southbound Gainesville Place Ent @ Old Archer RD,29.6271880942916,-82.3707816976575,,0,,,
1333,1333,Enclave 1,Eastbound SW 32nd Terrace @ E of Main Bldg,29.6254103264082,-82.3677926203049,,0,,,
1460,1460,Enclave 3,Eastbound SW 32nd Terrace @ Traffic Circle,29.6235224012777,-82.3657632385286,,0,,,
1341,1341,Enclave 4,Eastbound Enclave Apartments @ Nearside Enclave A*,29.6227826112741,-82.36676567587,,0,,,
1539,1539,Possum Creek Park,Northbound NW 41st Ter @ Nearside NW 53rd Ave,29.7029604307567,-82.3866661827874,,0,,,
1538,1538,Hunter's Crossing,Southbound NW 43rd St. @ Farside NW 52nd Pl,29.7019725025122,-82.3890144717923,,0,,,
1534,1534,Southbound NW 43rd St. @ NW 48th Pl,Southbound NW 43rd St. @ Nearside NW 48th Pl,29.6996291448771,-82.3890306192294,,0,,,
1532,1532,Southbound NW 43rd St. @ NW 46th Ave,Southbound NW 43rd St. @ Nearside NW 46th Ave,29.6967747964251,-82.3890317256943,,0,,,
1530,1530,Southbound NW 43rd St. @ NW 44th Ave,Southbound NW 43rd St. @ Farside NW 44th Ave,29.6940834979438,-82.3890356472708,,0,,,
1528,1528,Southbound NW 43rd St. @ NW 41st Pl,Southbound NW 43rd St. @ Farside NW 41st Pl,29.6904488337017,-82.3891412739661,,0,,,
1391,1391,Metrocorp Center,Eastbound NW 39th AVE @ Nearside NW 40th TER,29.6885407471286,-82.3868846497029,,0,,,
1389,1389,Eastbound NW 39th AVE @ NW 37th ST,Eastbound NW 39th AVE @ Farside NW 37th ST,29.6885249855579,-82.3776986343426,,0,,,
1388,1388,Sable Chase Neighborhood,Eastbound NW 39th AVE @ Farside NW 35th ST,29.6885384218494,-82.3745387623724,,0,,,
1526,1526,Southbound NW 34th St. @ NW 37th Ave,Northbound NW 34th St. @ Nearside NW 37th Ave,29.6872453924269,-82.3724106509354,,0,,,
1524,1524,Southbound NW 34th St. @ NW 33rd Ln,Southbound NW 34th St. @ Nearside NW 33rd Ln,29.6837650061388,-82.3724246489616,,0,,,
1536,1536,Southbound NW 34th St @ NW 30th Pl,Southbound NW 34th St. @ Farside NW 30th Blvd,29.6807053440134,-82.3724453442375,,0,,,
1522,1522,Southbound NW 34th St @ NW 26th Pl,Southbound NW 34th St. @ Nearside NW 34th Ter,29.6764040688271,-82.3723851220539,,0,,,
1520,1520,Southbound NW 34th St. @ NW 21st Pl,Southbound NW 34th St. @ Nearside NW 21st Pl,29.6725684477693,-82.3723888525791,,0,,,
1518,1518,Greenbriar Terrace Community,Southbound NW 34th St. @ Farside NW 19th Pl,29.6687188434474,-82.3724323838715,,0,,,
1516,1516,Southbound Westwood Middle School,Southbound NW 34th St. @ Farside NW 15th Pl,29.6657026076422,-82.3724476380485,,0,,,
1514,1514,Littlewood Elementary School,Southbound NW 34th St. @ Nearside NW 8th Ave,29.6604433144588,-82.3724675126795,,0,,,
1512,1512,Southbound NW 34th St. @ NW 7th Ave,Southbound NW 34th St. @ Nearside NW 7th Ave,29.6581101515976,-82.372478923927,,0,,,
1510,1510,Southbound Loblolly Woods South Entrance,Southbound NW 34th St @ Nearside NW 5th Ave,29.6553031830973,-82.372485849522,,0,,,
1509,1509,Northbound Loblolly Woods South Entrance,Northbound NW 34th Street @ Nearside NW 5th Ave,29.6551659332319,-82.372351195385,,0,,,
1511,1511,Northbound NW 34th St. @ NW 8th Ave,Northbound NW 34th St. @ Nearside NW 8th Ave,29.6575161382947,-82.3723500900843,,0,,,
1513,1513,Westside Recreation Center,Northbound NW 34th St. @ Farside NW 8th Ave,29.6605955581213,-82.3723484734795,,0,,,
1515,1515,Northbound Westwood Middle School,Northbound NW 34th St. @ Nearside NW 15th Ave,29.6650225761494,-82.3723352633298,,0,,,
1517,1517,Northbound NW 34th St @ NW 16th Ave,Northbound NW 34th St @ Farside NW 16th Ave,29.6684915179702,-82.3723111444775,,0,,,
1519,1519,Northbound NW 34th St @ NW 21st Pl,Northbound NW 34th St. @ Nearside NW 24th Ave,29.6720286602033,-82.3722790630315,,0,,,
1521,1521,Northbound NW 34th St. @ NW 26th Ave,Northbound NW 34th St. @ Nearside NW 26th Ave,29.6762061009037,-82.3722499248756,,0,,,
1535,1535,Northbound NW 34th St. @ NW 31st Ave,Northbound NW 34th St. @ Nearside NW 31st Ave,29.6812773802423,-82.3723147354479,,0,,,
1523,1523,Northbound NW 34th St @ NW 33rd Ln,Northbound NW 34th St. @ Nearside NW 31st Blvd,29.6836004047481,-82.3722859953131,,0,,,
1525,1525,Northbound NW 34th St. @ NW 31st Blvd,Northbound NW 34th St. @ Nearside NW 31st Blvd,29.6865837732656,-82.37226229886,,0,,,
1387,1387,Sable Chase Neighborhood,Westbound NW 39th AVE @ Nearside NW 35th ST,29.6887733631709,-82.3745509705478,,0,,,
1386,1386,Breckenridge Neighborhood,Westbound NW 39th AVE @ Farside NW 37th TER,29.6887917623214,-82.3786140034906,,0,,,
1384,1384,Metrocorp Center,Westbound NW 39th AVE @ Nearside NW 43rd ST,29.6888219294487,-82.3860741676178,,0,,,
1527,1527,Northbound NW 43rd St. @ NW 39th Ave,Northbound NW 34th St. @ Farside NW 39th Ave,29.6902106206563,-82.388878368651,,0,,,
1529,1529,Pinewood Terrace Community,Northbound NW 43rd St. @ Nearside NW 44th Ave,29.6935710008714,-82.388813932661,,0,,,
1531,1531,Northbound NW 43rd St. @ NW 46th Ave,Northbound NW 43rd St. @ Nearside NW 46th Ave,29.6965203633291,-82.3887992264715,,0,,,
1533,1533,Northbound NW 43rd St. @ NW 48th Pl,Northbound NW 43rd St. @ Nearside NW 48th Pl,29.6990925832891,-82.3887884172449,,0,,,
1537,1537,Walgreens on NW 43rd Street,Northbound NW 43rd St. @ Nearside NW 52nd Pl,29.7019765603753,-82.3887844220926,,0,,,
1002,1002,Santa Fe College @ NW 83rd Street,Northbound NW 83rd ST @ Nearside NW 31st AVE,29.6806099326802,-82.4302699890501,,0,,,
1003,1003,The Arc,Northbound NW 83rd ST @ Farside North RD,29.6838959313271,-82.4302164890575,,0,,,
1004,1004,Windsor Assisted Living,Northbound NW 83rd ST @ Farside NW 36th AVE,29.6857926657494,-82.4302252089929,,0,,,
1005,1005,Springhill Professional Center,Northbound NW 83rd ST @ Nearside NW 39th AVE,29.6886544304468,-82.4302066554726,,0,,,
1006,1006,Robin Lane Neighborhood,Eastbound NW 39th AVE @ Farside NW 75th ST,29.6887017636013,-82.4221086579646,,0,,,
1007,1007,Unicorn Hill Farm,Eastbound NW 39th AVE @ Nearside NW 69th ST,29.6886787632778,-82.4161571597221,,0,,,
1008,1008,Greystone Community,Eastbound NW 39th AVE @ Nearside NW 63rd ST,29.6886817629613,-82.4099804943,,0,,,
1009,1009,Faith Presbyterian Church,Eastbound NW 39th AVE @ Farside NW 63rd ST,29.6886539302187,-82.4059228285981,,0,,,
1010,1010,Huntington Lakes Apartments,Eastbound NW 39th AVE @ Nearside NW 53rd ST,29.6885944297629,-82.400464830603,,0,,,
1011,1011,NW Grille Seafood,Eastbound NW 39th AVE @ Nearside NW 51st ST,29.6885284300862,-82.397710998467,,0,,,
1012,1012,Autumn Woods Neighborhood,Eastbound NW 39th AVE @ Nearside NW 48th TER,29.6885737632867,-82.3948833320322,,0,,,
1013,1013,Pine Woods Apartments,Eastbound NW 39th AVE @ Nearside NW 45th ST,29.6885476768081,-82.3912628637273,,0,,,
1014,1014,Allstate Insurance,Southbound NW 43rd ST @ Nearside NW 37th PL,29.6877314299805,-82.3890708342998,,0,,,
1325,1325,Division of Blind Services,Southbound NW 43rd ST @ Nearside NW 36th AVE,29.6865037629979,-82.389063167827,,0,,,
1015,1015,Southbound NW 43rd Street @ NW 33rd Court,Southbound NW 43rd ST @ Nearside NW 33rd CT,29.6840330011324,-82.3890733309669,,0,,,
1016,1016,Millhopper Branch Library,Southbound NW 43rd ST @ Nearside NW 31st AVE,29.6815991856891,-82.3890628194325,,0,,,
1017,1017,Sunstate Insurance,Southbound NW 43rd ST @ Nearside NW 27th AVE,29.6764493357252,-82.3890934503652,,0,,,
1018,1018,CVS @ Millhopper,Southbound NW 43rd ST @ Nearside NW 23rd AVE,29.6749124141465,-82.3890989835568,,0,,,
1019,1019,Millhopper Plaza,Southbound NW 43rd ST @ Farside NW 23rd AVE,29.6721211306386,-82.3891080136069,,0,,,
1020,1020,Southbound NW 43rd Street @ NW 19th Avenue,Southbound NW 43rd ST @ Nearside NW 19th AVE,29.6700589191213,-82.3891283019389,,0,,,
1022,1022,Southbound NW 43rd Street @ NW 15th Place,Southbound NW 43rd ST @ Nearside NW 15th PL,29.6667894342894,-82.3891125014154,,0,,,
1023,1023,Suburban Heights Neighborhood,Southbound NW 43rd ST @ Nearside NW 13th AVE,29.6648798235185,-82.3891437147434,,0,,,
1024,1024,Landmark Woods Neighborhood,Southbound NW 43rd ST @ Farside NW 12th AVE,29.6632242688558,-82.3891783349149,,0,,,
1025,1025,Landmark Woods Neighborhood,Southbound NW 43rd ST @ Nearside NW 9th PL,29.6613980591986,-82.3891762573615,,0,,,
1026,1026,Holy Faith Catholic Church,Southbound NW 43rd ST @ Farside NW 8th AVE,29.6583814366644,-82.3894386682629,,0,,,
1472,1472,Kauffman Tires,Eastbound W University Ave @ Farside SW 36th St,29.6517875392118,-82.3761707729507,,0,,,
1471,1471,Westgate Plaza,Eastbound University Ave @ Nearside Nw 33rd Ct,29.6521310542899,-82.371218797628,,0,,,
1470,1470,Women's Club,Eastbound University Ave @ Farside NW 28th St,29.6520372807992,-82.3647124616036,,0,,,
1469,1469,Eastbound University Avenue @ SW 23rd DR,Eastbound W University AVE @ Nearside SW 23rd Dr,29.6521684511497,-82.358601254179,,0,,,
152,152,Hillel at the University of Florida,Westbound W University AVE @ Farside NW 20th DR,29.6521776035456,-82.3502078461693,,0,,,
153,153,Westbound University Avenue @ NW 22nd Street,Westbound W University AVE @ Nearside NW 22nd ST,29.6521304367078,-82.3552901781371,,0,,,
154,154,Westbound University Avenue @ NW 23rd Drive,Westbound W University AVE @ Nearside NW 23rd DR,29.6522752794909,-82.3587808492264,,0,,,
156,156,Women Center,Westbound W University AVE @ Nearside NW 28th ST,29.6520951037431,-82.3643956755587,,0,,,
157,157,West Gate Shopping Center,Westbound W University AVE @ Nearside NW 32nd ST,29.6522934375716,-82.3696280074576,,0,,,
158,158,Westgate Plaza,Westbound W University AVE @ Farside SW 34th ST,29.6521652708096,-82.3729486733676,,0,,,
159,159,Fire Station @ W University Ave,Westbound W University AVE @ Nearside NW 36th ST,29.6519823841903,-82.3763184478543,,0,,,
977,977,Millennium Center,Northbound NW 43rd ST @ Farside Newberry RD,29.6564402700111,-82.3899298348907,,0,,,
1427,1427,Holy Faith Catholic Church,Northbound NW 43rd ST @ Nearside NW 8th AVE,29.6584080748748,-82.3891774814735,,0,,,
978,978,Lenox Place Apartments,Northbound NW 43rd ST @ Nearside NW 9th Pl,29.6609349358547,-82.3888498351002,,0,,,
979,979,Landmark Woods Neighborhood,Northbound NW 43rd ST @ Nearside NW 12th AVE,29.6632813295978,-82.3889173447064,,0,,,
980,980,NW 14th Place @ NW 43rd Street,Northbound NW 43rd ST @ Nearside NW 14th PL,29.6653878437822,-82.3889207683158,,0,,,
981,981,Northbound NW 43rd Street @ NW 16th Place,Northbound NW 43rd ST @ Nearside NW 16th PL,29.6669586014533,-82.3888570016325,,0,,,
983,983,Millhopper Pines Apartments,Northbound NW 43rd ST @ Farside NW 18th PL,29.6706189485355,-82.3888504343113,,0,,,
984,984,Millhopper Plaza,Northbound NW 43rd ST @ Nearside NW 16th BLVD,29.6724600044408,-82.3888639184604,,0,,,
985,985,Thorn Brook Shops,Northbound NW 43rd ST @ Farside NW 16th BLVD,29.6750620093631,-82.3888548542735,,0,,,
986,986,Bank of America @ NW 43rd Street,Northbound NW 43rd ST @ Nearside NW 27th LN,29.677744598778,-82.3888580011532,,0,,,
987,987,Millhopper Branch Library,Northbound NW 43rd ST @ Farside NW 31st AVE,29.6820293095522,-82.3888434237898,,0,,,
988,988,Monterey Apartments,Northbound NW 43rd ST @ Farside NW 34th AVE,29.685111930326,-82.3888160005698,,0,,,
989,989,Pinewood Apartments,Westbound NW 39th AVE @ Farside NW 43rd ST,29.6887855396541,-82.3903470416003,,0,,,
990,990,Magnolia Park Neighborhood,Westbound NW 39th AVE @ Nearside NW 46th TER,29.688786261562,-82.3928999145884,,0,,,
992,992,Tire Plus @ NW 39th Avenue,Westbound NW 39th AVE @ Nearside NW 51st ST,29.6887860966904,-82.3970963313326,,0,,,
993,993,Huntington Lakes Apartments,Westbound NW 39th AVE @ Farside NW 53rd ST,29.6888296043569,-82.3998464969328,,0,,,
994,994,Faith Presbyterian Church,Westbound NW 39th AVE @ Farside NW 53rd ST,29.6889051897979,-82.4058530998686,,0,,,
995,995,Summer Creek Neighborhood,Westbound NW 39th AVE @ Nearside NW 64th ST,29.6889021265613,-82.4107682602865,,0,,,
996,996,Emerald Woods Neighborhood,Westbound NW 39th AVE @ Nearside NW 59th ST,29.6889035923827,-82.4159686774038,,0,,,
997,997,Robin Lane Neighborhood,Westbound NW 39th AVE @ Nearside NW 75th ST,29.688894429916,-82.4221219910099,,0,,,
998,998,Springhill Professional Center,Southbound NW 83rd ST @ Farside NW 39th AVE,29.6879551816698,-82.4303726958135,,0,,,
999,999,Northridge Neighborhood,Southbound NW 83rd ST @ Nearside NW 36th AVE,29.686069000723,-82.4303692137757,,0,,,
1000,1000,The Arc,Southbound NW 83rd ST @ Farside North RD,29.6838312198865,-82.430379686266,,0,,,
1001,1001,Santa Fe College @ NW 83rd Street,Southbound NW 83rd ST @ Nearside Administration RD,29.6807088762761,-82.4303919800024,,0,,,
1028,1028,Pollo Tropical @ Butler Plaza West,Westbound Archer RD @ Farside SW 37th BLVD,29.620157040578,-82.3811027530309,,0,,,
1249,1249,Gainesville Ale House,Westbound Archer RD @ Nearside SW 40th BLVD,29.6194501019912,-82.3824163301084,,0,,,
1250,1250,Celebration Pointe at Archer Rd,Westbound Archer Rd Nearside SW 43rd St,29.616000244148,-82.388973,,0,,,
1252,1252,Gainesville Council on Aging,Westbound Archer RD @ Farside SW 47th ST,29.6132871407757,-82.3941754315509,,0,,,
1033,1033,Westbound Archer Road @ SW 50th Street,Westbound Archer RD @ Nearside SW 50th ST,29.6121366209689,-82.3963515613315,,0,,,
1034,1034,Madison Cove Apartments,Westbound Archer RD @ Nearside SW 56th TER,29.6094766979602,-82.4014521343091,,0,,,
1035,1035,Kanapaha Botanical Gardens,Westbound Archer RD @ Nearside SW 56th TER,29.6086808853877,-82.402953120264,,0,,,
1036,1036,Westgate Mobile Manor Park,Westbound Archer RD @ Farside SW 58th DR,29.6073078062745,-82.4055609270594,,0,,,
1038,1038,A Child's Place,Westbound Archer RD @ Nearside SW 63rd BLVD,29.6055272679816,-82.4089654595218,,0,,,
1039,1039,Kanapaha Station Plaza,Westbound Archer RD @ Nearside SW 66th ST,29.6034367539834,-82.4129536515248,,0,,,
1040,1040,Town & Country Veterinarians,Westbound Archer RD @ Nearside SW 69th TER,29.6021072945228,-82.4154758399986,,0,,,
1041,1041,Bank of America @ Tower Square on Archer Road,Westbound Archer RD @ Farside SW 75th ST,29.6004540916715,-82.4186258851974,,0,,,
1042,1042,Publix @ Tower Square on SW 75th Street,Northbound SW 75th ST @ Farside Archer RD,29.6001677847958,-82.4205146614599,,0,,,
1043,1043,Asbury Park Apartments,Northbound SW 75th ST @ Nearside SW 53rd PL,29.6036877839325,-82.4225748271951,,0,,,
1044,1044,Kanapaha Middle School,Northbound SW 75th ST @ Farside SW 51st BLVD,29.607025783015,-82.4225403270455,,0,,,
1046,1046,Tower Village Apartments,Northbound SW 75th ST @ Nearside SW 45th PL,29.6123976146989,-82.4224999938324,,0,,,
1047,1047,Vet Mem PK,Northbound SW 75th ST @ Nearside SW 42nd PL,29.614909880784,-82.4224953249813,,0,,,
1048,1048,Kanapaha Park,Northbound SW 75th ST @ Nearside SW 36th AVE,29.6195261685453,-82.4224490828263,,0,,,
1049,1049,Tower Road Branch Library,Northbound SW 75th ST @ Farside SW 24th AVE,29.6261033230427,-82.4224586925424,,0,,,
1050,1050,Bellamy Grand,Northbound SW 75th ST @ Nearside SW 24th AVE,29.6283966112107,-82.4223709930593,,0,,,
1051,1051,Walgreens @ SW 24th Avenue,Eastbound SW 24th AVE @ Farside SW 75th ST,29.6304592776132,-82.42134132639,,0,,,
1053,1053,Infinite Energy,Eastbound SW 24th AVE @ Farside SW 70th TER,29.6309009433809,-82.4180436608293,,0,,,
1054,1054,Tower Oaks Glenn Apartments,Eastbound SW 24th AVE @ Farside SW 19th CT,29.634887276484,-82.4141951623218,,0,,,
1055,1055,Split Rock Conservation Area,Eastbound SW 24th AVE @ Farside SW 61st ST,29.6392127746164,-82.410516996381,,0,,,
1056,1056,Linton Oaks Neighborhood,Northbound SW 61st ST @ Farside SW 20th AVE,29.6405711077295,-82.4071444972693,,0,,,
1057,1057,Linton Oaks Neighborhood @ SW 61st Street,Northbound SW 61st ST @ Farside SW 10th PL,29.6431867365738,-82.4081900273514,,0,,,
1058,1058,Linton Oaks,Northbound SW 61st ST @ Nearside SW 8th PL,29.6445830693543,-82.4091667081964,,0,,,
1059,1059,Linton Oaks Neighborhood @ SW 64th Terrace,Southbound SW 64th TER @ Farside SW 8th AVE,29.6447246066135,-82.4115491623644,,0,,,
1061,1061,Linton Oaks Neighborhood @ SW 63rd Terrace,Northbound SW 63rd TER @ Nearside SW 8th AVE,29.6447176073184,-82.4105599956353,,0,,,
1062,1062,Linton Oaks Neighborhood @ SW 61st Street,Southbound SW 61st ST @ Nearside SW 10th PL,29.6430249982116,-82.408221368358,,0,,,
1063,1063,Linton Oaks Neighborhood,Southbound SW 61st ST @ Nearside SW 20th AVE,29.6404578175993,-82.4072690885072,,0,,,
1064,1064,Treebecka Park Apts,Westbound SW 20th AVE @ Farside SW 61st ST,29.6393599418737,-82.4105496631019,,0,,,
1065,1065,Tower Oaks Glenn Apartments,Westbound SW 24th AVE @ Farside SW 19th CT,29.634809518003,-82.414381108081,,0,,,
1066,1066,KISS 105.3 FM Station,Westbound SW 24th AVE @ Farside SW 70th TER,29.6310283621611,-82.4180713864171,,0,,,
1067,1067,Carriage House Lane,Westbound SW 24th AVE @ Nearside SW 73rd TER,29.6305869440323,-82.4204229932534,,0,,,
1068,1068,CVS Pharmacy @ SW 75th Street,Northbound SW 75th ST @ Farside SW 24th AVE,29.6311999436858,-82.4223768260402,,0,,,
1069,1069,Sunrise Apartments,Northbound SW 75th ST @ Farside SW 19th PL,29.6354947759682,-82.4224091596862,,0,,,
1071,1071,Woodlands Neighborhood,Northbound SW 75th ST @ Nearside SW 10th PL,29.6426051077352,-82.422383158903,,0,,,
1072,1072,Sparrow Apartments,Eastbound SW 8th AVE @ Farside SW 75th ST,29.6450646075898,-82.4213383256046,,0,,,
1074,1074,Holly Heights,Northbound SW 70th TER @ Nearside SW 6th PL,29.6461394399974,-82.4176888269296,,0,,,
1077,1077,Eastbound SW 6th Place @ SW 67th Terrace,Eastbound SW 6th PL @ Nearside SW 67th TER,29.6466062737675,-82.4145784945634,,0,,,
1078,1078,Gordon Manor Neighborhood,Eastbound SW 67th TER @ Nearside SW 8th AVE,29.6452387703353,-82.4150314869195,,0,,,
1079,1079,Westbound SW 8th Avenue @ SW 70th Terrace,Westbound SW 8th AVE @ Farside SW 70th TER,29.6451905638059,-82.4168668650635,,0,,,
1081,1081,Sparrow Apartments,Westbound SW 8th AVE @ Farside SW 75th ST,29.6452353339459,-82.4207873867152,,0,,,
1082,1082,Sparrow Apartments,Northbound SW 75th ST @ Farside SW 8th AVE,29.6459447737332,-82.4223256591263,,0,,,
1083,1083,Cricket Club Apartments,Northbound SW 75th ST @ Farside SW 8th AVE,29.6479352728847,-82.4222971594457,,0,,,
1084,1084,Reflections Apartments,Northbound SW 75th ST @ Nearside SW 1st PL,29.6507111601941,-82.4222673305537,,0,,,
1085,1085,The Gardens Apartments,Northbound SW 75th ST @ Nearside W University AVE,29.6530697720693,-82.4222471592677,,0,,,
1087,1087,Pine Meadow Apartments,Eastbound W University AVE @ Farside SW 75th ST,29.653263439003,-82.4186229932329,,0,,,
1089,1089,Harbor Cove Apartments,Eastbound W University AVE @ Nearside NW 4th BLVD,29.653187272205,-82.4149914943619,,0,,,
1091,1091,Home Depot @ NW 4th Boulevard,Westbound NW 4th BLVD @ Nearside NW 75th ST,29.6561823545032,-82.4184985414986,,0,,,
1093,1093,Park Place Car Wash,Westbound NW 4th BLVD @ Nearside SW 75th ST,29.6562952710057,-82.4213763258569,,0,,,
1094,1094,Clarion Inn,Northbound SW 75th ST @ Nearside Newberry RD,29.659342270316,-82.4222413251812,,0,,,
1101,1101,Tower Plaza,Southbound NW 75th ST @ Farside Newberry RD,29.6581618451128,-82.422503560111,,0,,,
1102,1102,Advance Auto Parts,Southbound NW 75th ST @ Farside NW 4th BLVD,29.6554177198353,-82.422513829547,,0,,,
1103,1103,Tower Hill,Southbound NW 75th ST @ Nearside W University AVE,29.6535476053215,-82.422531824962,,0,,,
1104,1104,The Gardens Apartments,Southbound SW 75th ST @ Nearside SW 1st PL,29.6518692724239,-82.4225343253443,,0,,,
1105,1105,Cricket Club Apartments,Southbound SW 75th ST @ Nearside SW 8th AVE,29.6481132541744,-82.4225380142472,,0,,,
1106,1106,The Woodlands Neighborhood,Southbound SW 75th ST @ Farside SW 10th PL,29.6426862745075,-82.4225576588265,,0,,,
1108,1108,Sunrise Apartments,Southbound SW 75th ST @ Farside SW 19th PL,29.6350122762994,-82.4224896592882,,0,,,
1109,1109,Tower 24 Shopping Center,Southbound SW 75th ST @ Nearside SW 26th AVE,29.6289172779972,-82.422593159568,,0,,,
1110,1110,Tower Road Library,Southbound SW 75th ST @ Farside SW 26th AVE,29.6260915733831,-82.4225711992644,,0,,,
1111,1111,Kenwood Neighborhood,Southbound SW 75th ST @ Farside SW 36th AVE,29.6209217797907,-82.4226094933604,,0,,,
1112,1112,Vet Mem PK,Southbound SW 75th ST @ Farside SW 42nd AVE,29.6155394924256,-82.4226219513093,,0,,,
1113,1113,Tower Village,Southbound SW 75th ST @ Farside SW 45th PL,29.6123930544687,-82.4226356544608,,0,,,
1114,1114,Haile Plantation Neighborhood,Southbound SW 75th ST @ Farside SW 46th BLVD,29.6094716818027,-82.4226873749626,,0,,,
1115,1115,Stillwind Neighborhood,Southbound SW 75th ST @ Farside SW 51st BLVD,29.6062197829091,-82.4227296608119,,0,,,
1116,1116,Valwood Neighborhood,Southbound SW 75th ST @ Nearside SW 53rd PL,29.6043193854236,-82.4227469148983,,0,,,
1117,1117,Tower Square @ SW 75th Street,Southbound SW 75th ST @ Farside SW 58th PL,29.6006403109039,-82.4214812420011,,0,,,
1118,1118,Arredondo Farms,Eastbound Archer RD @ Farside SW 75th ST,29.6002821359063,-82.4183953183052,,0,,,
1119,1119,CROM Equipment Rentals,Eastbound Archer RD @ Farside SW 69th TER,29.601706638365,-82.4156764941987,,0,,,
1120,1120,Business Park Self Storage,Eastbound Archer RD @ Nearside SW  66th ST,29.6030822046904,-82.4130691196518,,0,,,
1121,1121,SunState,Eastbound Archer RD @ Nearside SW 63rd BLVD,29.60508743776,-82.4092459567618,,0,,,
1122,1122,Westgate Manor Park,Eastbound Archer RD @ Farside SW 51st LN,29.6070177827316,-82.4056128315225,,0,,,
1123,1123,Broken Arrow Bluff Community,Eastbound Archer RD @ Nearside SW 56th TER,29.6081517816837,-82.403389332578,,0,,,
1124,1124,Dogwood Dog Park,Eastbound Archer RD @ Nearside SW 52nd TER,29.6092762814284,-82.4012803329255,,0,,,
1125,1125,Hailey Forest Condominiums,Eastbound Archer RD @ Farside SW 50th ST,29.6119731145848,-82.3961685009076,,0,,,
1126,1126,Haystacks Housing Complex,Eastbound Archer RD @ Nearside SW 47th TER,29.6131213399528,-82.3939458964616,,0,,,
1127,1127,The Reserve at Kanapaha,Eastbound Archer RD @ Nearside SW 44th ST,29.6147360170886,-82.390680143911,,0,,,
1183,1183,Cultural Plaza,Eastbound Hull RD @ Farside Bledsoe DR,29.6367362748202,-82.3679535085752,,0,,,
1184,1184,Weed Science Building,Northbound Museum RD @ Farside Hull RD,29.638796607586,-82.3641028427529,,0,,,
1185,1185,Microbiology/Cell Science Building,Northbound Museum RD @ Farside Radio Rd,29.6402616339418,-82.3641001720668,,0,,,
858,858,Lakeside Housing Complex,Northbound Museum RD @ Nearside Radio RD,29.6412312729613,-82.3641003430354,,0,,,
1153,1153,Tolbert Residence Hall,Southbound Gale Lemerand DR @ Farside Stadium RD,29.6477457716459,-82.3498043468061,,0,,,
1154,1154,Graham Hall,Southbound Gale Lemerand DR @ Nearside Museum RD,29.6459419384821,-82.350430513827,,0,,,
1186,1186,Lakeside Residential Building,Southbound Museum RD @ Farside Radio RD,29.6412527792074,-82.3642234812848,,0,,,
1187,1187,Microbiology/Cell Science Building,Southbound Museum RD @ Nearside Radio RD,29.6403556728191,-82.3642278818137,,0,,,
1191,1191,Family Housing,Southbound Family Housing @ Farside Hull RD,29.6394166075884,-82.3706523407965,,0,,,
1190,1190,Family Housing,Southbound Family Housing @ Farside Bledsoe DR,29.6409151396577,-82.3695934518395,,0,,,
1197,1197,Webb Livestock Pavilion,Southbound Shealy DR @ Farside SW 16th AVE,29.633968107962,-82.3512230137301,,0,,,
1196,1196,Animal Science,Southbound Shealy DR @ Farside SW 16th AVE,29.6315894419125,-82.3514300138766,,0,,,
1219,1219,Webb Livestock Pavilion,Northbound Shealy DR @ Nearside SW 16th AVE,29.633988608279,-82.351105347113,,0,,,
1353,1353,College Park @ NW 17th ST,Northbound NW 17th ST @ Nearside NW 3rd AVE,29.6542591330282,-82.3446358555131,,0,,,
1414,1414,Northbound NW 17th ST @ NW 5th AVE,Northbound NW 17th ST @ Farside NW 5th AVE,29.6559819602279,-82.3445918874906,,0,,,
1409,1409,Northbound NW 17th ST @ NW 7th AVE,Northbound NW 17th ST @ Nearside NW 7th AVE,29.6574934780931,-82.344556131766,,0,,,
1444,1444,Alight Gainesville Apts,Soundbound NW 12th ST @ Nearside NW 7th AVE,29.6579776313476,-82.3371494707795,,0,,,
1506,1506,The Trophy Shop,Westbound NW 7th Ave @ Nearside NW 13th St,29.6575973710073,-82.3388922375456,,0,,,
1412,1412,College Park @ NW 5th AVE,Westbound NW 5th AVE @ Nearside NW 15th ST,29.6558088808589,-82.3416481855912,,0,,,
1408,1408,Eastbound NW 5th AVE @ NW 17th ST,Westbound NW 5th AVE @ Nearside NW 17th ST,29.6558473898479,-82.3445408360558,,0,,,
1413,1413,College Park @ NW 17th ST,Southbound NW 17th ST @ Nearside NW 3rd AVE,29.6537012499553,-82.344800718716,,0,,,
1356,1356,Dauer Hall,Southbound Buckman DR @ Nearside Union DR,29.6503529372643,-82.3447785152934,,0,,,
1241,1241,Newell Hall across Hub,Westbound Stadium RD @ Farside Buckman DR,29.6486636043791,-82.3453063477162,,0,,,
1152,1152,Florida Gym,Westbound Stadium RD @ Nearside Gale Lemerand DR,29.6486886048296,-82.3474361812215,,0,,,
474,474,Commuter Lot Parking Garage,Southbound Gale Lemerand DR @ Farside Museum RD,29.6429309450736,-82.3505404243082,,0,,,
1141,1141,Wilmot Gardens,Eastbound Mowry RD @ Farside Gale Lemerand DR,29.6393877948955,-82.3497148468356,,0,,,
666,666,Health Science Center Administration,Southbound SW 16th ST @ Nearside SW 16th AVE,29.6373903911689,-82.3430338962225,,0,,,
1217,1217,Schiebler Childrens Medical Facility,Westbound SW 16th AVE @ Nearside Shealy DR,29.6351739409351,-82.3456505155202,,0,,,
1144,1144,Fraternity Row,Northbound Fraternity Row @ Farside Museum RD,29.6464467715481,-82.357970177615,,0,,,
1238,1238,Sorority Row,Northbound SW 11th ST @ Nearside E Panhellenic DR,29.6440714381032,-82.3356888512292,,0,,,
1324,1324,Sorority Row,Northbound SW 11th ST @ Nearside SW 8th AVE,29.6448214063941,-82.3357046912184,,0,,,
12,12,Norman Field @ SW 8th Avenue,Westbound SW 8th AVE @ Farside SW 12th ST,29.6449562721296,-82.3380946832681,,0,,,
1294,1294,Southbound SW 10th ST at SW 4th Ave (Deco 39),Southbound SW 10th ST @ Nearside SW 4th AVE,29.6485434549752,-82.3350969429053,,0,,,
1295,1295,Stratford Court Apartments,Southbound SW 10th ST @ Nearside SW 6th AVE,29.6467865902402,-82.3350690604382,,0,,,
1296,1296,Ivy House Apartment,Southbound SW 10th ST @ Nearside SW 8th AVE,29.6450317838279,-82.3350416754771,,0,,,
1209,1209,Oxford Terrace Apartments,Southbound SW 9th ST @ Nearside SW Depot AVE,29.6432257199656,-82.3337332987395,,0,,,
1248,1248,Parkside II Apartments,Westbound Depot AVE @ Nearside SW 11th ST,29.6428126209362,-82.3355799949568,,0,,,
8,8,Courtyard Apartments,Southbound SW 12th ST @ Farside SW 2nd AVE,29.6495742705125,-82.3371788503207,,0,,,
9,9,Campus USA Bank,Southbound SW 12th ST @ Farside SW 4th AVE,29.6480332705219,-82.3371506842349,,0,,,
10,10,Norman Hall,Southbound SW 12th ST @ Farside SW 6th AVE,29.6467442842678,-82.3371788287086,,0,,,
1327,1327,Eastbound SW 7th AVE @ SW 12th ST,Eastbound SW 7th AVE @ Farside SW 12th ST,29.6457039370851,-82.3365568093124,,0,,,
1328,1328,Eastbound SW 7th AVE @ SW 10th ST,Eastbound SW 7th AVE @ Nearside SW 10th ST,29.6456843760573,-82.3351010557848,,0,,,
1452,1452,Campus Walk @ SW 9th St,Southbound SW 9th ST @ Nearside SW 8th AV,29.6451033286346,-82.3337017731627,,0,,,
1477,1477,Kangaroo Station,Eastbound NW 39th Ave @ Nearside NW 92nd Ct,29.6888036148495,-82.4422097140819,,0,,,
1432,1432,Unity of Gainesville,Eastbound NW 39th Ave Farside NW 89th Blvd,29.688769,-82.43641,,0,,,
1507,1507,UF & Shands at Springhill,Westbound NW 39th Ave Farside NW 83rd St,29.688986,-82.434475,,0,,,
1476,1476,McDonalds,Westbound NW 39th Ave @ Nearside NW 92nd Ct,29.6890478664222,-82.4415927202409,,0,,,
1582,1582,Fifield PNR,Memorial Rd @ PNR Lot,29.64058,-82.36155,,0,,,
472,472,Rawlings Hall,Northbound Newell DR @ Nearside McCarty DR,29.6463077716885,-82.3433893488624,,0,,,
1181,1181,UF Orthopaedics Institute,Westbound Hull RD @ Farside SW 34th ST,29.6378266079991,-82.3740118403907,,0,,,
1489,1489,Village Point 4,Westbound Hull RD @ Nearside SW 38th TER,29.6374219210196,-82.3788541715153,,0,,,
1486,1486,Village Point 3,Southbound SW 38th TER @ Farside Hull RD,29.6367943106521,-82.380965540174,,0,,,
1554,1554,Pod @ Plaza Blvd Westbound,Westbound Plaza Blvd @ Nearside SW 62nd Blvd,29.6279099872618,-82.383359981397,,0,,,
1563,1563,Haile Plantation I,SW 91st Terrace Farside SW 51st Rd,29.607195853333,-82.4387988107615,,0,,,
1394,1394,Southbound NW 55th ST @ NW 14th AVE,Southbound NW 55th ST @ Farside NW 14th AVE,29.66490778,-82.4015907579098,,0,,,
1395,1395,Southbound NW 55th ST @ NW 9th LN,Southbound NW 55th ST @ Farside NW 9th LN,29.66083227,-82.4016000938063,,0,,,
1398,1398,Westbound SW 24th AVE @ SW 75th ST,Westbound SW 24th AVE @ Farside SW 75th ST,29.63061711,-82.42378699,,0,,,
1402,1402,Westbound SW 87th Dr @ SW 91st St,Westbound SW 87th DR @ Nearside SW 91st ST,29.6283902045074,-82.4363982027613,,0,,,
1407,1407,Eastbound SW 24th AVE @ SW 76th ST,Eastbound SW 24th AVE @ Farside SW 76th ST,29.6304178756257,-82.423629417791,,0,,,
1392,1392,Northbound NW 55th St @ NW 9th Ln,Northbound NW 55th ST @ Nearside NW 9th LN,29.6609257038118,-82.401482635582,,0,,,
1393,1393,Northbound NW 55th ST @ NW 14th AVE,Northbound NW 55th ST @ Nearside NW 14th AVE,29.6652366159883,-82.4014460471793,,0,,,
