stop_id,stop_name,stop_desc,route_id
1493,Butler Plaza Transfer Station,Westbound SW 30th Place @ Farside SW 42nd Street,1
1349,Hilton Garden Inn,Eastbound SW 33rd PL @ Farside SW 42nd ST,1
1548,Sam's Club,Eastbound SW 33rd PL @ Nearside SW 37th Blvd,1
1491,Lowe's @ Butler Plaza Eastbound,Eastbound Windmeadows Blvd @ Farside SW 62nd Blvd,1
1306,Publix at Butler Plaza,Southbound SW 35th Blvd @ Farside Windmeadows Blvd,1
1592,Pizza Hut Archer Rd Eastbound,Eastbound SW Archer Rd @ Farside SW 35th Blvd,1
34,Radio Shack @ Archer Road,Eastbound Archer RD @ Farside SW 34th ST,1
35,Silver Creek Apartments,Eastbound Archer RD @ Farside SW 34th ST,1
36,Capstone Quarters Apartments,Eastbound Archer RD @ Farside Surge Area DR,1
37,Brandywine Apartments,Eastbound Archer RD @ Farside Surge Area DR,1
38,University Commons,Eastbound Archer RD @ Nearside SW 23rd TER,1
39,The Bartram Apartments,Eastbound Archer RD @ Farside SW 23rd DR,1
40,Shands Care Helicopter Pad,Eastbound Archer RD @ Nearside Gale Lemerand DR,1
1199,VA Hospital @ Archer Rd,Eastbound Archer RD @ Farside Center DR,1
118,Shands Cancer Hospital,Eastbound SW Archer Rd Farside SW 16th St,1
360,Norman Field,Northbound SW 13th ST @ Farside SW 8th AVE,1
361,Norman Hall,Northbound SW 13th ST @ Nearside SW 5th AVE,1
362,Social 28 Apartments,Northbound SW 13th ST @ Nearside SW 3rd AVE,1
1159,Phi Kappa Tau,Eastbound SW 2nd AVE @ Farside SW 13th ST,1
52,Eastbound SW 2nd Avenue @ SW 10th Street,Eastbound SW 2nd AVE @ Nearside SW 10th ST,1
53,Innovation Square East,Eastbound SW 2nd AVE @ Farside SW 7th TER,1
55,Second Avenue Center Apartments,Eastbound SW 2nd AVE @ Farside SW 6th ST,1
56,Eastbound SW 2nd Ave @ SW 2nd St,Eastbound SW 2nd AVE @ Nearside SW 2nd ST,1
1290,Alachua County Courthouse,Eastbound SW 2nd AVE @ Nearside S Main ST,1
57,Hippodrome Theatre,Eastbound SE 2nd AVE @ Nearside SE 1st ST,1
1216,Arlington Square Apartments,Southbound SE 3rd ST @ Nearside SE 2nd PL,1
1,Rosa Parks RTS Downtown Station,Northbound SE 3rd ST @ Nearside SE 3rd ST,1
18,Shands Hospital @ Davis Cancer Pavilion,Westbound Archer RD @ Nearside Gale Lemerand DR,1
27,Chili's Grill and Bar @ Butler Plaza,Westbound Archer RD @ Nearside SW 35th BLVD,1
23,UF Surge Area Drive,Westbound Archer RD @ Nearside Surge Area DR,1
444,University Housing Office,Southbound SW 13th ST @ Nearside Diamond RD,1
442,Southbound SW 13th Street @ Inner Road,Southbound SW 13th ST @ Nearside Inner RD,1
2,Hampton Inn Hotel,Westbound SE 2nd AVE @ Nearside SE 1st ST,1
6,720 SW 2nd Ave,Westbound SW 2nd AVE @ Nearside SW 8th ST,1
7,Innovation Square West,Westbound SW 2nd AVE @ Nearside SW 10th ST,1
1323,College Manor Apartments,Westbound SW 2nd AVE @ Nearside SW 13th ST,1
4,The Continuum,Westbound SW 2nd AVE @ Nearside SW 6th ST,1
26,Whole Foods @ Butler Town Center,Westbound Archer RD @ Farside SW 34th ST,1
1549,Hilton Garden Inn,Westbound SW 33rd PL @ Nearside SW 42nd ST,1
1547,Sam's Club,Westbound SW 33rd PL @ Farside SW 37th Blvd,1
1206,Arlington Square Apartments,Northbound SE 3rd ST @ Nearside SE 2nd PL,1
25,Westbound Archer Road @ SW 34th Street,Westbound Archer RD @ Nearside SW 34th ST,1
28,Bonefish Grill Seafood Restaurant @ Butler Plaza,Westbound SW 35th BLVD @ Farside Archer RD,1
22,Country Village,Westbound Archer RD @ Farside SW 23rd TER,1
443,Southbound SW 13th Street @ Museum Road,Southbound SW 13th ST @ Nearside Museum RD,1
24,Tropic Carwash,Westbound Archer RD @ Farside Surge Area DR,1
446,UF Health Archer Road,Westbound Archer RD @ Farside SW 16th ST,1
1440,Mt. Olive Primitive Baptist Church,Southbound NE 15th ST @ Farside NE 5th PL,2
99,SE Hawthorne Rd @ SE 21 St Eastbound,Eastbound Hawthorne RD @ Nearside SE 21st ST,2
100,GTEC,Eastbound Hawthorne RD @ Nearside SE 24th ST,2
132,Westbound SE 22nd Avenue @ SE 12th Street,Westbound SE 22nd AVE @ Farside SE 12th ST,2
350,Fast Eddie's Restaurant,Southbound SE 15th ST @ Farside SE 2nd AVE,2
1498,NE 15th St @ NE 3rd Ave Farside,Southbound NE 15th St @ Farside NE 3rd Ave,2
133,Gainesville Housing Authority,Northbound SE 4th ST @ Farside SE 19th PL,2
124,Lincoln Estates Neighborhood,Southbound SE 19th TER @ Nearside SE 10th PL,2
1364,Southbound SE 19th TER @ SE 12th AVE,Southbound SE 19th TER @ Nearside SE 12th AVE,2
359,Westbound SE 7th Avenue @ SE 8th Street,Westbound SE 7th AVE @ Farside SE 8th ST,2
1234,NE Walmart Supercenter,Eastbound NE 12th AVE @ Farside Waldo RD,2
358,The Cotton Club,Westbound SE 7th AVE @ Nearside SE 9th ST,2
128,Southbound SE 15th Street @ SE 14th Avenue,Southbound SE 15th ST @ Nearside SE 14th AVE,2
69,Showers of Blessing,Southbound SE 15th ST @ Farside SE 25th AVE,2
1497,Alachua School Bus Parking Lot,Westbound SE Hawthorne Rd @ Farside SE 20th St,2
90,Lincoln Estate Neighborhood,Northbound SE 19th TER @ Nearside SE 10th PL,2
110,Veteran's Honor Center,Westbound SE 3rd AVE @ Farside SE 17th ST,2
72,Boulware Springs Nature Park,Southbound SE 15th ST @ Farside SE 35th AVE,2
66,Eastbound SE 22nd Avenue @ SE 12th Street,Eastbound SE 22nd AVE @ Nearside SE 12th ST,2
92,Lincoln Estates,Northbound SE 19th TER @ Nearside SE 8th AVE,2
293,Mt Moriah Baptist Church,Eastbound SE 7th AVE @ Nearside SE 10th TER,2
292,The Cotton Club,Eastbound SE 7th AVE @ Nearside SE 9th ST,2
84,Northbound SE 15th Street @ SE 13th Place,Northbound SE 15th ST @ Farside SE 13th PL,2
87,Lincoln Estate Neighborhood,Eastbound SE 12th AVE @ Farside SE 17th TER,3
761,Sandwich Inn @ NE 16th Ave,Westbound NE 16th AVE @ Nearside NE 2nd ST,3
1454,Northeast Park,Eastbound NE 16th AVE @ Farside NE 2 ST,3
181,Millpond Apartments,Eastbound Newberry RD @ Farside NW 50th BLVD,5
206,AT&T Building,Eastbound W University AVE @ Nearside W 3rd ST,5
198,St. Augustine Catholic Church,Eastbound W University AVE @ Nearside Fletcher DR,5
201,Leonardo's Pizza By The Slice,Eastbound W University AVE @ Farside SW 13th ST,5
187,Florida Citizens Bank,Eastbound Newberry RD @ Nearside NW 39th RD,5
203,University of Florida Human Resources,Eastbound W University AVE @ Nearside W 8th ST,5
184,Alarion Bank,Eastbound Newberry RD @ Nearside NW 43rd ST,5
208,Bo Diddley Community Plaza,Eastbound E University AVE @ Nearside E 3st ST,5
185,Urgent Care Center,Eastbound Newberry RD @ Farside NW 43rd ST,5
186,Life South Blood Center,Eastbound Newberry RD @ Nearside NW 39th ST,5
204,Innovation Square North,Eastbound W University AVE @ Nearside SW 7th ST,5
190,Hawaiian Village,Eastbound SW 2nd AVE @ Nearside SW 34th ST,5
192,UF Golf Course,Eastbound SW 2nd AVE @ Farside SW 30th ST,5
197,Ben Hill Griffin Stadium,Eastbound W University AVE @ Farside Gale Lemeran*,5
205,The Continuum,Eastbound W University AVE @ Farside W 6th ST,5
176,Panera Bread @ Newberry Road,Eastbound Newberry RD @ Farside NW 62nd ST,5
1216,Arlington Square Apartments,Southbound SE 3rd ST @ Nearside SE 2nd PL,5
179,Eastbound W Newberry Rd @ NW 53rd Terrace,Eastbound Newberry RD @ Nearside NW 53rd TER,5
177,Durant Estate,Eastbound Newberry RD @ Farside NW 57th ST,5
188,Regal Royal Park Stadium 16,Eastbound Newberry RD @ Farside SW 38th ST,5
194,Eastbound SW 2nd Avenue @ SW 26th Street,Eastbound SW 2nd AVE @ Nearside SW 26th ST,5
195,University of Florida Law School,Eastbound SW 2nd AVE @ Farside SW 23rd ST,5
191,Westgate Plaza,Eastbound SW 2nd AVE @ Farside SW 34th ST,5
139,City Hall,Westbound E University AVE @ Nearside NE 1st ST,5
146,Holiday Inn @ W University Avenue,Westbound W University AVE @ Nearside SW 13th ST,5
149,Swamp Restaurant,Westbound W University AVE @ Nearside NW 17th ST,5
175,Oaks Mall SW 62nd Blvd,Northbound NW 62nd ST @ Nearside Newberry RD,5
150,University Lutheran Church,Westbound W University AVE @ Nearside NW 19th ST,5
144,Leonardo's 706,Westbound W University AVE @ Nearside NW 8th ST,5
161,Plaza Royale,Westbound Newberry RD @ Farside NW 36th DR,5
145,Westbound W University Ave @ NW 10th St,Westbound W University AVE @ Nearside NW 10th ST,5
143,Santa Fe College Charles L. Blount Center,Westbound W University AVE @ Nearside NW 6th ST,5
165,Orthopedic Institute,Westbound Newberry RD @ Farside NW 43rd ST,5
1474,Renaissance Jewelers,Westbound SW 2nd Ave @ Farrside SW 34th St,5
1206,Arlington Square Apartments,Northbound SE 3rd ST @ Nearside SE 2nd PL,5
162,Tire Kingdom @ Newberry Road,Westbound Newberry RD @ Farside NW 39th RD,5
166,Gainesville Health & Fitness,Westbound Newberry RD @ Nearside NW 48th BLVD,5
934,Campus Church of Christ,Westbound SW 2nd AVE @ Farside SW 26th ST,5
147,Target Copy @ W University Avenue,Westbound W University AVE @ Nearside SW 14th ST,5
164,Millennium Center,Westbound Newberry RD @ Nearside NW 43rd ST,5
1594,AT&T Store @ NW 4th Place,NW 4th Pl Nearside NW 62nd Street,5
140,Alachua County Office of the State Attorney,Westbound W University AVE @ Nearside NW 2nd ST,5
163,Allstate Insurance @ Newberry Road,Westbound Newberry RD @ Nearside NW 39th ST,5
148,Smathers Library,Westbound W University AVE @ Nearside NW 16th ST,5
168,Capital City Bank @ Newberry Road,Westbound Newberry RD @ Nearside N 8th AVE,5
935,Westbound SW 2nd Avenue @ SW 30th Street,Westbound SW 2nd AVE @ Nearside SW 30th ST,5
735,Rena's Ballroom,Westbound NW 23rd AVE @ Farside NW 6th ST,6
262,Westgate Mobile Manor Park,Northbound NW 13th ST @ Nearside NW 45th AVE,6
255,NW 13th Street,Northbound NW 13th ST @ Farside NW 26th PL,6
258,Johnson & Fletcher Insurance,Northbound NW 13th ST @ Nearside NW 33rd AVE,6
256,Mount Pleasant Cemetary,Northbound NW 13th ST @ Farside NW 29th RD,6
1478,Great Lakes Carpet @ NW 53rd Avenue,Westbound NW 53rd AVE @ Nearside NW 19th ST,6
222,Hand & Hand Day Care,Northbound NW 6th ST @ Farside NW 19th LN,6
1455,North Walmart Supercenter,Northbound NW 23rd ST @ Nearside NW 62nd AVE,6
3,Westbound SW 2nd Avenue @ SW 2nd Street,Westbound SW 2nd AVE @ Nearside SW 2nd ST,6
243,Verizon Shop,Southbound NW 13th ST @ Nearside NW 26th PL,6
1,Rosa Parks RTS Downtown Station,Northbound SE 3rd ST @ Nearside SE 3rd ST,6
1551,Social Security Administration,Southbound NW 13th ST @ Nearside NW 45th AVE,6
1290,Alachua County Courthouse,Eastbound SW 2nd AVE @ Nearside S Main ST,6
279,Granny D's,Southbound NW 6th ST @ Nearside NW 13th AVE,6
1221,Eastbound NW 23rd Avenue @ NW 13th Street,Eastbound NW 23rd AVE @ Farside NW 13th ST,6
320,Kangaroo @ SE 35th Street,Northbound SE 35th ST @ Nearside Hawthorne RD,7
307,Southeast Gator Liquor @ Hawthorne Road,Eastbound Hawthorne RD @ Farside SE 24th ST,7
314,Faith Missionary Church,Eastbound SE 21st AVE @ Nearside SE 30th Dr,7
312,Durelle Heights Neighborhood,Southbound SE 27th ST @ Farside SE 18th AVE,7
322,E Hawthorne Road @ SE 39th Terrace,Eastbound Hawthorne RD @ Farside SE 39th TER,7
1553,Health Department,Southbound SE 24th ST @ Farside SE 2nd AVE,7
347,SE 18th St @ E University Avenue,Westbound E University AVE @ Nearside SE 18th ST,7
326,Eastwood Meadows,Northbound SE 44th ST @ Farside SE 10th PL,7
107,Health Department,Southbound Alachua County Health Department @ Far*,7
341,Alachua County Sheriffs Department,Northbound SE 27th ST @ Nearside Hawthorne Rd,7
336,Faith Missionary Church,Westbound SE 21st AVE @ Farside SE 30th Dr,7
103,Northbound SE 24th Street @ E University Avenue,Northbound SE 24th ST @ Nearside E University AVE,7
111,Southbound SE 15th Street @ SE 4th Avenue,Southbound SE 15th ST @ Nearside SE 4th AVE,7
345,Harper's Pointe,Westbound E University AVE @Nearside 22nd ST,7
115,Williams Elementary School,Westbound SE 7th AVE @ Nearside SE 12th TER,7
437,All Star Automotive,Southbound NW 13th ST @ Nearside NW 7th AVE,8
1420,Southbound SW 13th ST @ SW 13th AVE,Southbound SW 13 ST @ SW 13th AVE,8
424,Girls Place of Alachua County,Eastbound NW 39th AVE @ Nearside NW 21st ST,8
414,Barnhill Clinic,Southbound NW 34th ST @ Nearside NW 29th ST,8
427,Altrusa House of Gainesville,Westbound NW 36th AVE @ Farside NW 20th ST,8
443,Southbound SW 13th Street @ Museum Road,Southbound SW 13th ST @ Nearside Museum RD,8
412,Northwood Pines Neighborhood,Southbound NW 34th ST @ Nearside NW 23rd TER,8
429,Glen Springs Apartments,Southbound NW 21st ST @ Farside NW 32nd PL,8
1343,Northside Park and Senior Recreational Center,Southbound NW 34th ST @ Farside NW 58th AVE,8
433,Brookwood Terrace,Eastbound NW 23rd BLVD @ Farside NW 16th TER,8
446,UF Health Archer Road,Westbound Archer RD @ Farside SW 16th ST,8
1550,Hotel Eleo @ SW 16th Ave Westbound,Westbound SW 16th AVE @ Farside SW 14th ST,8
441,Tigert Hall,Southbound SW 13th ST @ Farside SW 2nd AVE,8
419,NW 39th Avenue @ NW 34th Street,Eastbound NW 39th AVE @ Farside NW 34th ST,8
245,Plaza Verde @ NW 13th St Southbound,Southbound NW 13th ST @ Farside NW 23rd AVE,8
416,Pizza Hut @ NW 34th Street,Southbound NW 34th ST @ Nearside NW 49th AVE,8
252,Plaza Verde - NW 23rd Avenue,Eastbound NW 23rd AVE @ Farside NW 16th TER,8
403,Kangaroo Gas @ NW 34th Street,Southbound NW 34th ST @ Nearside NW 23rd TER,8
442,Southbound SW 13th Street @ Inner Road,Southbound SW 13th ST @ Nearside Inner RD,8
421,Walnut Creek Neighborhood,Eastbound NW 39th AVE @ Nearside NW 25th TER,8
440,The Standard,Southbound NW 13th ST @ Nearside NW 1st AVE,8
436,Applebee's @ NW 13th Street,Southbound NW 13th ST @ Nearside NW 10th AVE,8
248,Gainesville High School,Southbound NW 13th ST @ Farside NW 18th AVE,8
418,Southbound NW 34th Street @ NW 41st Avenue,Southbound NW 34th ST @ Farside NW 41st AVE,8
426,Ridgeview Baptist Church,Southbound NW 19th ST @ Nearside NW 36th AVE,8
444,University Housing Office,Southbound SW 13th ST @ Nearside Diamond RD,8
409,North Walmart Supercenter,Southbound NW 23rd ST @ Farside NW 62nd ST,8
413,Northwood Oaks Neighborhood,Southbound NW 34th ST @ Nearside NW 54th AVE,8
438,The Gate Food Store @ NW 13th Street,Southbound NW 13th ST @ Nearside NW 5th AVE,8
430,Misty Oaks Apartments,Southbound NW 21st ST @ Nearside NW 31st AVE,8
371,Gainesville High School,Northbound NW 13th ST @ Nearside NW 19th LN,8
404,Pine Ridge Apartments,Northbound NW 23rd TER @ Nearside NW 57th PL,8
1199,VA Hospital @ Archer Rd,Eastbound Archer RD @ Farside Center DR,8
386,Forest of the Unicorn Neighborhood,Westbound NW 39th AVE @ Nearside NW 24th BLVD,8
361,Norman Hall,Northbound SW 13th ST @ Nearside SW 5th AVE,8
370,Gainesville High School,Northbound NW 13th ST @ Farside NW 18th AVE,8
388,Assembly of Gods Church,Westbound NW 39th AVE @ Farside NW 29th TER,8
390,NW 39th Avenue @ NW 34th Street,Westbound NW 39th AVE @ Nearside NW 34th ST,8
391,Gethsemane Lutheran Church,Northbound NW 34th ST @ Nearside NW 41st AVE,8
382,Ridgeview Baptist Church,Eastbound NW 36th AVE @ Nearside NW 19th ST,8
408,Northbound NW 23rd Terrace @ US Hwy 441,Northbound NW 23rd TER @ Nearside NW 13th ST,8
360,Norman Field,Northbound SW 13th ST @ Farside SW 8th AVE,8
389,Westbound NW 39th Avenue @ NW 31st Street,Westbound NW 39th AVE @ Nearside NW 31st TER,8
384,Girls Place of Alachua County,Westbound NW 39th AVE @ Nearside NW 21st ST,8
1169,Northwood Pines Neighborhood,Northbound NW 34th ST @ Nearside NW 25th TER,8
406,Northbound NW 23rd Terrace @ NW 62nd Avenue,Northbound NW 23rd TER @ Nearside NW 62nd AVE,8
367,Xerographic Copy Center,Northbound NW 13th ST @ Nearside NW 10th AVE,8
394,Family Dollar @ NW 34th Street,Northbound NW 34th ST @ Farside NW 51st PL,8
375,Brook Wood Terrace Neighborhood,Westbound NW 23rd AVE @ Farside NW 16th TER,8
368,LifeSouth Community Blood Center @ NW 13th Street,Northbound NW 13th ST @ Nearside NW 14th AVE,8
372,Lux 13 Apartments,Northbound NW 13th ST @ Farside NW 21st AVE,8
660,Shands Hospital @ Helipad,Westbound Shealy DR @ Farside SW 16TH AVE,8
366,University House Apartments,Northbound NW 13th ST @ Farside NW 7th AVE,8
659,Shands Hospital @ Parking Garage 9,Southbound Gale Lemerand DR @ Farside Archer RD,8
1374,Westbound NW 39th AVE @ NW 19th TER,Westbound NW 39th AVE @ Nearside NW 19th TER,8
365,Mother Earth Market,Northbound NW 13th ST @ Farside NW 5th AVE,8
380,Kiwanis Park,Northbound NW 21st ST @ Nearside NW 36th AVE,8
393,Capri Neighborhood,Northbound NW 34th ST @ Nearside NW 45th AVE,8
1170,Pine Ridge Apartments,Northbound NW 34th ST @ Nearside NW 23rd TER,8
364,McDonald's @ SW 13th Street,Northbound NW 13th ST @ Nearside W University AVE,8
456,Arbor Park Apartments,Eastbound SW 35th PL @ Nearside SW 27th TER,9
459,SW 23rd Terrace @ SW 35th Place,Northbound SW 23rd TER @ Farside SW 32nd PL,9
966,Weimer Hall,Eastbound Stadium RD @ Farside Gale Lemerand DR,9
1193,Rawlings Hall,Southbound Newell DR @ Nearside McCarty DR,9
448,Westbound SW 40th Place @ NW 26th Terrace,Westbound SW 40th PL @ Nearside SW 26th TER,9
449,Campus Lodge Apartments,Westbound SW 40th TER @ Nearside SW 38th PL,9
1254,Gator Corner Dining Facility @ Gale Lemerand,Northbound Gale Lemerand DR @ Nearside Stadium RD,9
447,Hunters Run,Northbound SW 25th TER @ Farside Williston RD,9
467,Cancer and Genetics Research,Eastbound Mowry RD @ Nearside Gale Lemerand DR,9
462,University of Florida Energy Research,Northbound SW 23rd TER @ Nearside SW Archer RD,9
451,Lexington Crossing Apartments,Northbound SW 27th ST @ Farside SW 38th PL,9
468,Parking & Transportation Services,Northbound Gale Lemerand DR @ Farside Mowry RD,9
455,Casablanca East Apartments,Eastbound SW 35th PL @ Farside SW 27th TER,9
450,Lexington Crossing Apartments,Northbound SW 27th ST @ Nearside SW 38th PL,9
457,Hickory Place Apartments,Eastbound SW 35th PL @ Nearside SW 23rd TER,9
453,Windsor Park Apartments,Northbound SW 27th ST @ Nearside SW 35th PL,9
1253,Graham Hall,Northbound Gale Lemerand DR @ Farside Museum RD,9
488,Countryside at the University Apartments,Southbound SW 23rd TER @ Nearside Williston RD,9
1136,Wilmot Gardens,Westbound Mowry RD @ Nearside Gale Lemerand DR,9
486,Gator Place Condominiums,Southbound SW 23rd TER @ Farside SW 35th PL,9
484,Towne Parc Apartments,Southbound SW 23rd TER @ Nearside SW 31 PL,9
481,University Commons,Southbound SW 23rd TER @ Farside Archer RD,9
489,Southbound SW 23rd Street @ Williston Road,Southbound SW 23rd ST @ Nearside Williston RD,9
1135,Shands Visitor Parking,Westbound Mowry RD @ Farside Center DR,9
480,Mt Vernon Apartments,Southbound SW 23rd DR @ Nearside Archer RD,9
479,Campus Edge Condominiums,Southbound SW 23rd DR @ Farside Hull RD,9
485,Southwood Apartments,Southbound SW 23rd TER @ Farside SW 34 PL,9
477,Cancer & Genetics Research Center,Westbound Mowry RD @ Farside Gale Lemerand DR,9
509,Floral Expressions,Westbound NW 23rd AVE @ Farside NW 43rd ST,10
142,Seagle Building,Westbound W University AVE @ Farside W 3rd ST,10
145,Westbound W University Ave @ NW 10th St,Westbound W University AVE @ Nearside NW 10th ST,10
144,Leonardo's 706,Westbound W University AVE @ Nearside NW 8th ST,10
495,Westbound NW 16th Avenue @ NW 20th Way,Westbound NW 16th AVE @ Nearside NW 20th WAY,10
143,Santa Fe College Charles L. Blount Center,Westbound W University AVE @ Nearside NW 6th ST,10
1,Rosa Parks RTS Downtown Station,Northbound SE 3rd ST @ Nearside SE 3rd ST,10
501,NW 30th Terrace @ NW 16th Avenue,Westbound NW 16th AVE @ Farside NW 30th TER,10
502,Zion Evangelical Lutheran Church,Westbound NW 16th BLVD @ Farside NW 34th ST,10
503,Willowcroft Neighborhood,Westbound NW 16th BLVD @ Farside NW 34th ST,10
506,Westbound NW 16th Boulevard @ NW 39th Street,Westbound NW 16th BLVD @ Nearside NW 39th ST,10
510,Westbound NW 23rd Avenue @ NW 46th Terrace,Westbound NW 23rd AVE @ Nearside NW 46th TER,10
541,Raintree Neighborhood,Eastbound NW 16th AVE @ Nearside NW 23rd TER,10
520,Santa Fe,Westbound Santa Fe College @ Farside Santa Fe Col*,10
528,Northwest Baptist Church,Eastbound NW 23rd AVE @ Nearside NW 55th ST,10
439,NW 13th St @ Nearside NW 3rd Pl Southbound,Southbound NW 13th ST @ Nearside NW 3rd PL,10
437,All Star Automotive,Southbound NW 13th ST @ Nearside NW 7th AVE,10
526,Eastbound NW 23rd Avenue @ NW 63rd Terrace,Eastbound NW 23rd AVE @ Nearside NW 63rd TER,10
203,University of Florida Human Resources,Eastbound W University AVE @ Nearside W 8th ST,10
436,Applebee's @ NW 13th Street,Southbound NW 13th ST @ Nearside NW 10th AVE,10
206,AT&T Building,Eastbound W University AVE @ Nearside W 3rd ST,10
529,First Church of the Nazarene,Eastbound NW 23rd AVE @ Nearside NW 51st ST,10
208,Bo Diddley Community Plaza,Eastbound E University AVE @ Nearside E 3st ST,10
599,Morningside Nature Center,Westbound E University AVE @ Nearside SE 38th ST,11
634,Alachua County School Board Administration,Westbound E University AVE @ Nearside NE BLVD,11
629,Southbound NE 9th Street @ NE 5th Avenue,Southbound NE 9th ST @ Nearside NE 5th AVE,11
601,Fred Cone Park,Westbound E University AVE @ Nearside SE 27th ST,11
1259,Exxon Gas Station @ E University Avenue,Westbound E University AVE @ Farside SE 43rd ST,11
623,Westbound NE 13th Street @ NE 8th Avenue,Westbound NE 8th AVE @ Nearside NE 13th ST,11
608,Northbound NE 25th Street @ NE 6th Avenue,Northbound NE 25th ST @ Farside NE 6th AVE,11
597,Sunrise Store @ SE 43rd Street,Northbound SE 43rd ST @ Nearside E University AVE,11
1216,Arlington Square Apartments,Southbound SE 3rd ST @ Nearside SE 2nd PL,11
1206,Arlington Square Apartments,Northbound SE 3rd ST @ Nearside SE 2nd PL,11
554,Salvation Army Thrift Store,Eastbound E University AVE @ Nearside E 7th ST,11
562,Sunny Food Mart,Eastbound NE 8th AVE @ Nearside NE 12th ST,11
587,Fred Cone Park,Eastbound E University AVE @ Farside SE 27th ST,11
570,Eastbound NE 8th Avenue @ NE 22nd Street,Eastbound NE 8th AVE @ Nearside NE 22nd ST,11
589,Eastside Plaza,Eastbound E University AVE @ Nearside SE 39th ST,11
1,Rosa Parks RTS Downtown Station,Northbound SE 3rd ST @ Nearside SE 3rd ST,11
588,Morningside Nature Center,Eastbound E University AVE @ Nearside SE SE 38th *,11
1240,Northbound NE 25th Street @ NE 3rd Place,Northbound NE 25th ST @ Nearside NE 3rd PL,11
1553,Health Department,Southbound SE 24th ST @ Farside SE 2nd AVE,11
1192,Turlington Hall,Southbound Newell DR @ Farside Union RD,12
1027,Best Buy @ Butler Plaza,Southbound SW 37th BLVD @ Nearside Archer RD,12
636,Greenwich Green Apartments,Eastbound SW 37th BLVD @ Nearside SW 34th ST,12
1253,Graham Hall,Northbound Gale Lemerand DR @ Farside Museum RD,12
38,University Commons,Eastbound Archer RD @ Nearside SW 23rd TER,12
37,Brandywine Apartments,Eastbound Archer RD @ Farside Surge Area DR,12
469,Commuter Lot Parking Garage @ Gale Lemerand,Northbound Gale Lemerand DR @ Farside Mowry RD,12
635,Gateway at Gainesville Apartments,Southbound SW 37th BLVD @ Farside SW 38th ST,12
637,Aspen Ridge Apartments,Northbound SW 34th ST @ Farside SW 37th BLVD,12
652,Shands Hospital @ Helipad,Eastbound Shealy DR @ Farside Archer RD,12
35,Silver Creek Apartments,Eastbound Archer RD @ Farside SW 34th ST,12
34,Radio Shack @ Archer Road,Eastbound Archer RD @ Farside SW 34th ST,12
39,The Bartram Apartments,Eastbound Archer RD @ Farside SW 23rd DR,12
473,Reitz Union,Southbound McCarty DR @ Nearside Museum RD,12
1349,Hilton Garden Inn,Eastbound SW 33rd PL @ Farside SW 42nd ST,12
654,Shands Hospital @ Davis Cancer Pavilion,Northbound Gale Lemerand DR @ Farside Archer RD,12
653,Shands Hospital @ Parking Garage 9,Northbound Gale Lemerand DR @ Nearside Archer RD,12
36,Capstone Quarters Apartments,Eastbound Archer RD @ Farside Surge Area DR,12
645,University Town Center,Northbound SW 34th ST @ Nearside Archer RD,12
20,Mt Vernon Apartments,Westbound Archer RD @ Nearside SW 23rd DR,12
1303,O2B Kids @ SW 37th BLVD,Northbound SW 39th BLVD @ Nearside Archer RD,12
1549,Hilton Garden Inn,Westbound SW 33rd PL @ Nearside SW 42nd ST,12
1302,Greenwich Green Apartments,Westbound SW 39th BLVD @ Nearside SW 34th ST,12
1135,Shands Visitor Parking,Westbound Mowry RD @ Farside Center DR,12
1493,Butler Plaza Transfer Station,Westbound SW 30th Place @ Farside SW 42nd Street,12
22,Country Village,Westbound Archer RD @ Farside SW 23rd TER,12
1300,HH Gregg @ SW 34th ST,Southbound SW 34th ST @ Farside SW 35th PL,12
1547,Sam's Club,Westbound SW 33rd PL @ Farside SW 37th Blvd,12
16,UF Health,Southbound Center DR @ Nearside Mowry RD,12
1304,Regions Bank @ Archer Road,Northbound SW 39th BLVD @ Nearside Archer RD,12
24,Tropic Carwash,Westbound Archer RD @ Farside Surge Area DR,12
1299,Kohl's Department Store @ SW 34th ST,Southbound SW 34th ST @ Nearside SW 35th PL,12
658,Shands Hospital @ Davis Cancer Pavilion,Southbound Gale Lemerand DR @ Nearside Archer RD,12
688,Tanglewood Apartments,Northbound SW 13th ST @ Nearside SW 14th DR,13
683,Meridian Behavioral Healthcare,Northbound SW 13th ST @ Nearside Williston RD,13
687,Bivens Cove Apartments,Northbound SW 13th ST @ Nearside SW 36th PL,13
686,CDS Family and Behavioral Services,Northbound SW 13th ST @ Nearside SW 36th PL,13
682,Budget Inn,Northbound SW 13th ST @ Nearside Williston RD,13
693,home2 Hotel,Northbound SW 13th ST @ Nearside SW 21st AVE,13
446,UF Health Archer Road,Westbound Archer RD @ Farside SW 16th ST,13
681,US 441 South,Southbound SW 13th ST @ Farside Williston RD,13
684,Residence Inn,Northbound SW 13th ST @ Farside Williston RD,13
1373,CVS @ SW 13th ST,Northbound SW 13th ST @ Nearside SW 16th AVE,13
690,Comfort Suites Hotel,Northbound SW 13th ST @ Farside SW 23rd PL,13
689,Boardwalk Apartments,Northbound SW 13th ST @ Farside SW 14th DR,13
692,Village Square,Northbound SW 13th ST @ Farside SW 25th PL,13
685,The Landings Apartments,Northbound SW 13th ST @ Farside SW 36th PL,13
672,City College Gainesville,Southbound SW 13th ST @ Nearside SW 25th PL,13
680,Bridge House,Southbound SW 13th ST @ Nearside SW 45th LN,13
677,The Landings Apartments,Southbound SW 13th ST @ Nearside SW 36th PL,13
679,Meridian Behavioral Healthcare,Southbound SW 13th ST @ Farside Williston RD,13
669,Liv+ Apartments 13th St,Southbound SW 13th ST @ Farside SW 18th PL,13
670,Dollar General,Southbound SW 13th ST @ Nearside SW18th PL,13
659,Shands Hospital @ Parking Garage 9,Southbound Gale Lemerand DR @ Farside Archer RD,13
660,Shands Hospital @ Helipad,Westbound Shealy DR @ Farside SW 16TH AVE,13
668,Ronald McDonald House of Gainesville,Eastbound SW 16th AVE @ Nearside SW 14th ST,13
667,Summit House Condominiums,Eastbound SW 16th AVE @ Farside SW 16th ST,13
1264,Cottage Grove Apartments at Gainesville,Southbound SW 13th ST @ Farside SW Williston RD,13
671,Lakeshore Towers Apartments,Southbound SW 13th ST @ Nearside SW 25th PL,13
1358,SW 16th Avenue Building A,Eastbound SW 16th AVE @ Nearside SW  16th ST,13
744,Wade Raulerson Honda Dealership,Eastbound NE 39th AVE @ Farside N Main ST,15
754,NE 23rd Ave Farside NE 14th St Westbound,Westbound NE 23rd AVE @ Farside NE 14th ST,15
1,Rosa Parks RTS Downtown Station,Northbound SE 3rd ST @ Nearside SE 3rd ST,15
758,David's BBQ,Southbound NE 2nd ST @ Farside NE 23rd AVE,15
769,The Collier Companies,Southbound N Main ST @ Nearside NW 2nd AVE,15
757,Pointe 23 Apartments,Westbound NE 23rd AVE @ Farside NE 7th TER,15
1216,Arlington Square Apartments,Southbound SE 3rd ST @ Nearside SE 2nd PL,15
759,Pine Grove Apartments,Southbound NE 2nd ST @ Farside NE 21st LN,15
739,Eastbound NW 39th Avenue @ NW 10th Street,Eastbound NW 39th AVE @ Farside NW 10th ST,15
760,Laundry Mart,Southbound NE 2nd ST @ Nearside NE 16th AVE,15
755,Highland Court Manor Neighborhood @ NE 23rd Avenue,Westbound NE 23rd AVE @ Nearside NE 11th TER,15
746,Eden Park Apartments,Eastbound NE 39th AVE @ Nearside NE 14th ST,15
740,Stephen Foster Elementary School @ 39th Ave,Eastbound NW 39th AVE @ Nearside NW 7th ST,15
756,Westbound NE 23rd Avenue @ NE 9th Street,Westbound NE 23rd AVE @ Nearside NE 9th ST,15
745,Highland Court Manor,Eastbound NE 39th AVE @ Nearside NE 12th ST,15
741,Gainesville Public Works,Eastbound NW 39th AVE @ Farside NW 6th ST,15
259,ALDI Food Market,Northbound NW 13th ST @ Nearside NW 39th AVE,15
258,Johnson & Fletcher Insurance,Northbound NW 13th ST @ Nearside NW 33rd AVE,15
750,Southbound NE 15th Street @ NE 31 Avenue,Southbound NE 15th ST @ Nearside NE 31st AVE,15
718,Northbound NE 15th Street @ NE 31st Avenue,Northbound NE 15th ST @ Farside NE 31st AVE,15
729,Southbound SW 6th Street @ NW 36th Avenue,Southbound NW 6th ST @ Nearside NW 35th AVE,15
704,Kangaroo @ N Main St,Northbound N Main ST @ Nearside NE 16th AVE,15
733,IBEW Local 1205,Southbound NW 6th ST @ Farside NW 26th AVE,15
726,Bella Vista Village,Westbound NW 39th AVE @ Nearside NW 1st TER,15
715,Smokey Bear Park,Northbound NE 15th ST @ Farside NE 23rd AVE,15
139,City Hall,Westbound E University AVE @ Nearside NE 1st ST,15
713,NE 23rd Avenue @ NE 11th Terrace,Eastbound NE 23rd AVE @ Farside NE 11th TER,15
724,Westbound NE 39th Ave at Main St - Gsville Nissan,Westbound NE 39th AVE @ Nearside N Main ST,15
700,Fire Stone @ N Main Street,Northbound N Main ST @ Nearside NE 8th AVE,15
721,NE 39th Ave WB Farside NE 15th St,Westbound NE 39th AVE @ Farside NE 15th ST,15
709,McCoy Court Apartments,Northbound NE 2nd ST @ Nearside NE 23rd AVE,15
255,NW 13th Street,Northbound NW 13th ST @ Farside NW 26th PL,15
706,Laundry Mart,Northbound NE 2nd ST @ Farside NE 16th AVE,15
719,Village Green Apartments,Northbound NE 15th ST @ Farside NE 31st AVE,15
716,NE 28th Avenue @ NE 15th Street,Northbound NE 15th ST @ Nearside NE 28th AVE,15
697,Masonic Temple,Northbound N Main ST @ Farside NE 2nd AVE,15
735,Rena's Ballroom,Westbound NW 23rd AVE @ Farside NW 6th ST,15
1206,Arlington Square Apartments,Northbound SE 3rd ST @ Nearside SE 2nd PL,15
710,Pointe 23 Apartments,Eastbound NE 23rd AVE @ Nearside NE 7th ST,15
728,Stephen Foster Elementary School,Southbound NW 6th ST @ Farside NW 39th Ave,15
714,Boulware Charter School,Eastbound NE 23rd AVE @ Nearside NE 14th ST,15
732,Oak Gate Condominiums,Southbound NW 6th ST @ Nearside NW 29th AVE,15
727,Oasis Carwash,Westbound NW 39th AVE @ Nearside NW 6th ST,15
720,Fearnside Family Services Center Northbound,Northbound NE 15th ST @ Nearside NE 39th AVE,15
725,Southeast Car Agency,Westbound NE 39th AVE @ Nearside NE 2nd WAY,15
701,CVS Pharmacy @ N Main Street,Northbound N Main ST @ Nearside NE 10th AVE,15
782,Sugar Hill,Northbound SE 20th PL @ Nearside SE 4th ST,16
133,Gainesville Housing Authority,Northbound SE 4th ST @ Farside SE 19th PL,16
789,Sun Bay Apartments,Westbound SW 16th AVE @ Farside SW 6th ST,16
1359,Gainesville Healthcare Center,Northbound SW 16th ST @ Nearside Circle of Hope,16
118,Shands Cancer Hospital,Eastbound SW Archer Rd Farside SW 16th St,16
786,Sweetwater on 16th Apartments Westbound,Westbound SE 16th AVE @ Farside SE Williston RD,16
794,Sai Quick Stop,Eastbound SW 16th AVE @ Farside SW 13th ST,16
796,Sun Bay Apartments,Eastbound SW 16th AVE @ Nearside SW 6th ST,16
775,Sweetwater on 16th Apartments,Eastbound SE 16th AVE @ Nearside Williston RD,16
774,Treehouse Village Apartments,Eastbound SE 16th AVE @ Farside S Main ST,16
776,Spring Hill Church,Northbound Williston RD @ Farside SE 1st ST,16
773,Arbor Park Apartments,Eastbound SW 16th AVE @ Farside SW 6th ST,16
1,Rosa Parks RTS Downtown Station,Northbound SE 3rd ST @ Nearside SE 3rd ST,16
796,Sun Bay Apartments,Eastbound SW 16th AVE @ Nearside SW 6th ST,17
794,Sai Quick Stop,Eastbound SW 16th AVE @ Farside SW 13th ST,17
1,Rosa Parks RTS Downtown Station,Northbound SE 3rd ST @ Nearside SE 3rd ST,17
788,Winn Dixie @ SW 16th Avenue,Westbound SW 16th AVE @ Nearside SW 6th ST,17
849,Hume Hall,Eastbound Museum RD @ Nearside Gale Lemerand DR,20
827,Lakewood Villas Apartments,Southbound SW 62nd BLVD @ Farside SW 52nd St,20
473,Reitz Union,Southbound McCarty DR @ Nearside Museum RD,20
844,Maguire Field,Northbound Bledsoe DR @ Nearside Radio RD,20
824,Hampton Oaks Apartments,Southbound SW 62nd BLVD @ Farside NW 1st PL,20
825,Fairmont Oaks Apartments,Southbound SW 62nd BLVD @ Farside NW 4th PL,20
835,Kensington Apartments South,Eastbound SW 20th AVE @ Nearside SW 38th TER,20
838,34th St Plaza,Eastbound SW 20th AVE @ Nearside SW 34th ST,20
845,Lakeside,Eastbound Radio RD @ Nearside Museum RD,20
1193,Rawlings Hall,Southbound Newell DR @ Nearside McCarty DR,20
847,Corry Village,Northbound Museum RD @ Nearside Village DR,20
832,Liv Apartments,Eastbound SW 20th AVE @ Farside SW 42nd DR,20
837,Southwest Villas Apartments,Eastbound SW 20th AVE @ Nearside SW 37th WAY,20
171,Oaks Mall @ NW 62nd Blvd,Southbound NW 62nd ST @ Nearside NW 4th PL,20
828,Rockwood Villas Apartments,Southbound SW 62nd BLVD @ Nearside SW 9th PL,20
829,The District Apartments,Southbound SW 62nd BLVD @ Nearside SW 20th AVE,20
807,University Village South Apartments,Westbound Hull RD @ Nearside SW 34th ST,20
469,Commuter Lot Parking Garage @ Gale Lemerand,Northbound Gale Lemerand DR @ Farside Mowry RD,20
1136,Wilmot Gardens,Westbound Mowry RD @ Nearside Gale Lemerand DR,20
806,Southwest Recreation Center,Southbound Bledsoe DR @ Nearside Hull RD,20
797,Hume Hall,Westbound Museum RD @ Farside Gale Lemerand DR,20
813,Kensington Apartments North,Westbound SW 20th AVE @ Farside SW 38th TER,20
816,Canopy Apartments,Westbound SW 20th AVE @ Farside SW 43rd ST,20
802,Lakeside Apartments,Westbound Radio RD @ Farside Museum RD,20
800,Corry Village,Southbound Museum RD @ Farside Village DR,20
16,UF Health,Southbound Center DR @ Nearside Mowry RD,20
468,Parking & Transportation Services,Northbound Gale Lemerand DR @ Farside Mowry RD,20
808,Hilton University of Florida Conference Center,Southbound SW 34th ST @ Nearside SW 19th AVE,20
818,The Woodlands Apartments,Northbound SW 62nd BLVD @ Farside SW 20th AVE,20
1135,Shands Visitor Parking,Westbound Mowry RD @ Farside Center DR,20
823,Hampton Oaks Apartments,Northbound SW 62nd BLVD @ Nearside NW 1st PL,20
804,Family Housing,Southbound Bledsoe DR @ Farside Radio RD,20
819,Rockwood Villas Apartments,Northbound SW 62nd BLVD @ Farside SW 9th PL,20
798,Sigma Alpha Epsilon,Westbound Museum RD @ Nearside Woodlawn DR,20
815,Circle K SW 20th Ave Westbound,Westbound SW 20th AVE @ Farside SW 42nd DR,20
803,UF Counseling and Wellness Center,Westbound Radio RD @ Nearside Bledsoe DR,20
822,Palm Garden of Gainesville,Northbound SW 62nd BLVD @ Nearside SW 4th PL,20
966,Weimer Hall,Eastbound Stadium RD @ Farside Gale Lemerand DR,21
839,Florida Department Of Agriculture,Northbound SW 34th ST @ Farside SW 20th AVE,21
840,Hilton University of Florida Conference Center,Northbound SW 34th ST @ Nearside Hull RD,21
830,Cabana Beach Apartments,Eastbound SW 20th AVE @ Farside SW 52nd ST,21
925,The HUB,Eastbound Stadium RD @ Nearside Buckman DR,21
841,Harn Museum,Eastbound Hull RD @ Farside Bledsoe DR,21
810,Campus USA,Westbound SW 20th AVE @ Farside SW 34th ST,21
811,Pinnacle Point Apartments,Westbound SW 20th AVE @ Farside SW 38th ST,21
468,Parking & Transportation Services,Northbound Gale Lemerand DR @ Farside Mowry RD,21
806,Southwest Recreation Center,Southbound Bledsoe DR @ Nearside Hull RD,21
1351,Hailey Gardens,Northbound SW 43rd ST @ Nearside SW 22nd LN,21
1459,Kensington Apartments Eastside,Southbound SW 38th TER @ Farside SW 20th AVE,21
1275,Westbound Newberry Road @ Fort Clarke Boulevard,Westbound Newberry RD @ Nearside Fort Clarke BLVD,23
1099,SUBWAY@ Newberry RD,Westbound Newberry RD @ Nearside Oaks Mall,23
1278,Northbound Fort Clarke Boulevard @ Eagle Point,Northbound Fort Clarke BLVD @ Nearside NW 17th PL,23
1283,Ft Clarke Middle School,Northbound Fort Clarke BLVD @ Nearside NW 23rd AVE,23
1277,Legacy @ Fort Clarke Apartments,Northbound Fort Clarke BLVD @ Farside NW 15th PL,23
1372,Newberry Rd @ NW 75th,Westbound Newberry RD @ Nearside Tower RD,23
1100,West Newberry Rd Nearside NW 69th Ter,Westbound Newberry RD @ Nearside NW 69th TER,23
175,Oaks Mall SW 62nd Blvd,Northbound NW 62nd ST @ Nearside Newberry RD,23
1097,Oaks Mall,Eastbound Newberry RD @ Nearside Oaks Mall,23
1286,Legacy @ Fort Clarke Apartments,Southbound Fort Clarke BLVD @ Nearside NW 15th PL,23
1096,Oaks Square Complex,Eastbound Newberry RD @ Farside NW 69th TER,23
1280,Hidden Oak Elementary School,Southbound Fort Clarke BLVD @ Nearside NW 23rd AVE,23
1288,Eastbound Newberry Road @ Fort Clarke Boulevard,Eastbound Newberry RD @ Farside Fort Clarke BLVD,23
881,NE 49th AVE - Brittany Estates Neighborhood,Eastbound NE 49th AVE @ Farside Waldo RD,24
896,University of Florida Eastside Campus @ Waldo Road,Southbound Waldo RD @ Farside NE 21st PL,24
892,One Room School,Southbound NE 15th ST @ Nearside NE 39th AVE,24
917,Westbound SE 4th Avenue @ SE 8th Street,Westbound SE 4th AVE @ Nearside SE 8th ST,24
749,Village Green Apartments,Southbound NE 15th ST @ Farside NE 31st AVE,24
16,UF Health,Southbound Center DR @ Nearside Mowry RD,25
1367,Eastbound SE 2nd AVE @ SE 10th ST,Eastbound SE 2nd AVE @ Farside SE 10th ST,25
927,Ben Hill Griffin Stadium North End Zone,Southbound Gale Lemerand DR @ Farside W Universit*,25
1314,Bed and Breakfast District,Westbound SE 2nd AVE @ Farside SE 7th ST,25
1330,Alachua County Juvenile Detention,Westbound NE 39th AVE @ Farside Waldo RD,25
1318,GRACE Marketplace,Westbound NE 39th AVE @ Nearside Waldo RD,25
912,Kangaroo @ Waldo Road,Southbound Waldo RD @ Nearside E University AVE,25
1135,Shands Visitor Parking,Westbound Mowry RD @ Farside Center DR,25
1315,Super Wal-Mart @ Waldo Road,Northbound Waldo RD @ Farside NE 12th AVE,25
872,University of Florida Eastside Campus @ Waldo Road,Northbound Waldo RD @ Nearside NE 23rd AVE,25
1159,Phi Kappa Tau,Eastbound SW 2nd AVE @ Farside SW 13th ST,25
1290,Alachua County Courthouse,Eastbound SW 2nd AVE @ Nearside S Main ST,25
1313,Bed and Breakfast District,Eastbound SE 2nd AVE @ Nearside SE 7th ST,25
871,Family Worship Center,Northbound Waldo RD @ Farside NE 21st PL,25
1163,Sonny's Barbecue @ Waldo Road,Northbound Waldo RD @ Nearside NE 27th AVE,25
6,720 SW 2nd Ave,Westbound SW 2nd AVE @ Nearside SW 8th ST,25
1319,Gainesville Regional Airport Outbound,Westbound Airport Access RD @ Nearside NE 39th AVE,25
1320,Airport,Westbound Airport Access RD @ Farside NE 39th AVE,25
2,Hampton Inn Hotel,Westbound SE 2nd AVE @ Nearside SE 1st ST,25
1503,Southbound Metcalfe Elementary School,Southbound NE 15th ST @ Nearside NE 18th AVE,26
1319,Gainesville Regional Airport Outbound,Westbound Airport Access RD @ Nearside NE 39th AVE,26
1330,Alachua County Juvenile Detention,Westbound NE 39th AVE @ Farside Waldo RD,26
1320,Airport,Westbound Airport Access RD @ Farside NE 39th AVE,26
1318,GRACE Marketplace,Westbound NE 39th AVE @ Nearside Waldo RD,26
1234,NE Walmart Supercenter,Eastbound NE 12th AVE @ Farside Waldo RD,26
912,Kangaroo @ Waldo Road,Southbound Waldo RD @ Nearside E University AVE,26
917,Westbound SE 4th Avenue @ SE 8th Street,Westbound SE 4th AVE @ Nearside SE 8th ST,26
1430,NE 39th Ave @ Waldo Rd,Eastbound NW 39th AVE @ Nearside Waldo RD,26
619,Bartley Temple United Methodist Church,Northbound NE 19th ST @ Farside NE 8th AVE,26
857,Episcopal Children's Services Northbound,Northbound Waldo RD @ Nearside NE 8th AVE,26
851,Eastbound SE 4th Avenue @ SE 8th Street,Eastbound SE 4th AVE @ Nearside SE 8th ST,26
1428,FDOT Operations Center,Eastbound NW 39th AVE @ Nearside NE 52 ST,26
1329,Alachua County Juvenile Detention,Eastbound NE 39th AVE @ Farside Waldo RD,26
856,UF Health Family Medicine Eastside Northbound,Northbound Waldo RD @ Farside NE 5th AVE,26
877,Quick Mart @ NE 15th Street,Northbound NE 15th ST @ Nearside NE 39th AVE,26
715,Smokey Bear Park,Northbound NE 15th ST @ Farside NE 23rd AVE,26
1317,GRACE Marketplace,Eastbound NE 39th AVE @ Farside Waldo RD,26
838,34th St Plaza,Eastbound SW 20th AVE @ Nearside SW 34th ST,28
1352,Forest Park,Northbound SW 43rd ST @ Nearside SW 21st PL,28
1145,Fraternity Row II across Springs,Eastbound Fraternity Row @ Farside W Fraternity R*,28
802,Lakeside Apartments,Westbound Radio RD @ Farside Museum RD,28
1475,President's Park,Westbound SW 2nd Ave @ Nearside SW 23rd St,28
925,The HUB,Eastbound Stadium RD @ Nearside Buckman DR,28
1271,Marchwood Townhomes,Southbound SW 43rd ST @ Farside SW 20th LN,28
800,Corry Village,Southbound Museum RD @ Farside Village DR,28
1483,aloft Hotel @ Hull Rd Eastbound,Eastbound Hull Rd Farside SW 37th St,33
1481,Cancer/Genetics Research Complex,Eastbound Mowry Rd @ Farside SW 23 Dr,33
468,Parking & Transportation Services,Northbound Gale Lemerand DR @ Farside Mowry RD,33
1555,Pod @ Plaza Blvd Eastbound,Eastbound Plaza Blvd @ Farside SW 62nd Blvd,33
466,Forestry Field Lab/Plant Growth,Eastbound Mowry RD @ Farside Hull RD,33
1273,SW 38th Terr nearside SW 20th Ave,Northbound SW 38th Terrace @ SW 20th Avenue,33
841,Harn Museum,Eastbound Hull RD @ Farside Bledsoe DR,33
467,Cancer and Genetics Research,Eastbound Mowry RD @ Nearside Gale Lemerand DR,33
966,Weimer Hall,Eastbound Stadium RD @ Farside Gale Lemerand DR,33
469,Commuter Lot Parking Garage @ Gale Lemerand,Northbound Gale Lemerand DR @ Farside Mowry RD,33
1253,Graham Hall,Northbound Gale Lemerand DR @ Farside Museum RD,33
1173,Cultural Plaza,Eastbound Hull RD @ Farside Bledsoe DR,33
1484,Varsity House Apartments @ SW 38th Ter,Northbound SW 38th TER @ Nearside Hull RD,33
1174,Lacrosse Field,Eastbound Hull RD @ Nearside Natural Area DR,33
957,Regency Oaks Apartments,Northbound SW 34th ST @ Farside Windmeadows BLVD,34
196,Pressly Stadium,Eastbound SW 2nd AVE @ Farside Woodlawn DR,34
453,Windsor Park Apartments,Northbound SW 27th ST @ Nearside SW 35th PL,34
958,34th Street Plaza,Northbound SW 34th ST @ Nearside SW 20th AVE,34
960,34th Street Wall,Northbound SW 34th ST @ Nearside SW 2nd Ave,34
450,Lexington Crossing Apartments,Northbound SW 27th ST @ Nearside SW 38th PL,34
454,Northbound SW 27th Street @ SW 35th Place,Northbound SW 27th ST @ Nearside SW 35th PL,34
953,Gainesville Place Apartments,Northbound Gainesville Place Apartments @ Farside*,34
195,University of Florida Law School,Eastbound SW 2nd AVE @ Farside SW 23rd ST,34
925,The HUB,Eastbound Stadium RD @ Nearside Buckman DR,34
839,Florida Department Of Agriculture,Northbound SW 34th ST @ Farside SW 20th AVE,34
951,Southbound SW 26th Drive @ SW 40th Place,Southbound SW 26th DR @ Nearside SW 40th PL,34
950,Lexington Crossing Apartments,Southbound SW 27 PL @ Nearside SW 38th PL,34
942,34th Street Plaza,Southbound SW 34th ST @ Farside SW 20th AVE,34
947,Gainesville Place Apartments @ SW 35th Place,Eastbound SW 35th PL @ Farside SW 28th TER,34
1140,Southbound SW 27th Street @ SW 35th Place,Southbound SW 27th ST @ Farside SW 35th PL,34
943,Kelly's Kwik Stop,Southbound SW 34th ST @ Farside SW 24th AVE,34
936,Westgate Plaza,Westbound SW 2nd AVE @ Nearside SW 34th ST,34
150,University Lutheran Church,Westbound W University AVE @ Nearside NW 19th ST,34
934,Campus Church of Christ,Westbound SW 2nd AVE @ Farside SW 26th ST,34
654,Shands Hospital @ Davis Cancer Pavilion,Northbound Gale Lemerand DR @ Farside Archer RD,35
455,Casablanca East Apartments,Eastbound SW 35th PL @ Farside SW 27th TER,35
966,Weimer Hall,Eastbound Stadium RD @ Farside Gale Lemerand DR,35
946,Victoria Station Apartments,Eastbound SW 35th PL @ Farside SW 32nd TER,35
457,Hickory Place Apartments,Eastbound SW 35th PL @ Nearside SW 23rd TER,35
462,University of Florida Energy Research,Northbound SW 23rd TER @ Nearside SW Archer RD,35
925,The HUB,Eastbound Stadium RD @ Nearside Buckman DR,35
469,Commuter Lot Parking Garage @ Gale Lemerand,Northbound Gale Lemerand DR @ Farside Mowry RD,35
1193,Rawlings Hall,Southbound Newell DR @ Nearside McCarty DR,35
468,Parking & Transportation Services,Northbound Gale Lemerand DR @ Farside Mowry RD,35
1192,Turlington Hall,Southbound Newell DR @ Farside Union RD,35
653,Shands Hospital @ Parking Garage 9,Northbound Gale Lemerand DR @ Nearside Archer RD,35
947,Gainesville Place Apartments @ SW 35th Place,Eastbound SW 35th PL @ Farside SW 28th TER,35
1253,Graham Hall,Northbound Gale Lemerand DR @ Farside Museum RD,35
945,Ridgemar Commons,Eastbound SW 35th PL @ Farside SW 32nd TER,35
652,Shands Hospital @ Helipad,Eastbound Shealy DR @ Farside Archer RD,35
460,Towne Parc Apartments,Northbound SW 23rd TER @ Farside SW 31st PL,35
39,The Bartram Apartments,Eastbound Archer RD @ Farside SW 23rd DR,35
461,University Club Apartments,Northbound SW 23rd TER @ Farside SW 28th PL,35
459,SW 23rd Terrace @ SW 35th Place,Northbound SW 23rd TER @ Farside SW 32nd PL,35
463,University Commons,Northbound SW 23rd TER @ Nearside Archer RD,35
485,Southwood Apartments,Southbound SW 23rd TER @ Farside SW 34 PL,35
484,Towne Parc Apartments,Southbound SW 23rd TER @ Nearside SW 31 PL,35
1139,Casablanca Apartments,Westbound SW 35th PL @ Nearside SW 27th ST,35
968,Campus Lodge Apartments,Westbound Williston RD @ Nearside SW 29Th Dr,35
971,US Post Office @ SW 34th Street,Northbound SW 34th ST @ Nearside SW 47th AVE,35
1213,Lexington Crossing Apartments,Southbound SW 27th ST @ Nearside SW 40th PL,35
1138,Arbor Apartments,Westbound SW 35th PL @ Farside SW 23rd TER,35
643,Ridgemar Apartments,Northbound SW 34th ST @ Nearside SW 35th AVE,35
967,Hunters Run Apartments,Westbound Williston RD @ Farside SW 25th TER,35
1137,Savannah Place Apartments,Westbound SW 35th PL @ Farside SW 23rd TER,35
637,Aspen Ridge Apartments,Northbound SW 34th ST @ Farside SW 37th BLVD,35
974,Dollar General,Northbound SW 34th ST @ Farside SW 42 PL,35
950,Lexington Crossing Apartments,Southbound SW 27 PL @ Nearside SW 38th PL,35
659,Shands Hospital @ Parking Garage 9,Southbound Gale Lemerand DR @ Farside Archer RD,35
949,Lexington Crossing Apartments,Southbound SW 27th ST @ Farside SW 35th PL,35
1542,The Polos Southwest Entrance,Eastbound SW 40th Pl. @ Nearside SW 25th Ter,35
482,University of Florida Energy Research,Southbound SW 23rd TER @ Farside Archer RD,35
16,UF Health,Southbound Center DR @ Nearside Mowry RD,35
660,Shands Hospital @ Helipad,Westbound Shealy DR @ Farside SW 16TH AVE,35
481,University Commons,Southbound SW 23rd TER @ Farside Archer RD,35
473,Reitz Union,Southbound McCarty DR @ Nearside Museum RD,35
642,University Terrace Condominiums,Northbound SW 34th ST @ Nearside SW 39th BLVD,35
957,Regency Oaks Apartments,Northbound SW 34th ST @ Farside Windmeadows BLVD,36
1303,O2B Kids @ SW 37th BLVD,Northbound SW 39th BLVD @ Nearside Archer RD,36
966,Weimer Hall,Eastbound Stadium RD @ Farside Gale Lemerand DR,36
636,Greenwich Green Apartments,Eastbound SW 37th BLVD @ Nearside SW 34th ST,36
1156,Windmeadows Apartments,Westbound Windmeadows BLVD @ Nearside SW 35th ST,36
1193,Rawlings Hall,Southbound Newell DR @ Nearside McCarty DR,36
473,Reitz Union,Southbound McCarty DR @ Nearside Museum RD,36
654,Shands Hospital @ Davis Cancer Pavilion,Northbound Gale Lemerand DR @ Farside Archer RD,37
1193,Rawlings Hall,Southbound Newell DR @ Nearside McCarty DR,37
461,University Club Apartments,Northbound SW 23rd TER @ Farside SW 28th PL,37
468,Parking & Transportation Services,Northbound Gale Lemerand DR @ Farside Mowry RD,37
945,Ridgemar Commons,Eastbound SW 35th PL @ Farside SW 32nd TER,37
1192,Turlington Hall,Southbound Newell DR @ Farside Union RD,37
459,SW 23rd Terrace @ SW 35th Place,Northbound SW 23rd TER @ Farside SW 32nd PL,37
643,Ridgemar Apartments,Northbound SW 34th ST @ Nearside SW 35th AVE,37
455,Casablanca East Apartments,Eastbound SW 35th PL @ Farside SW 27th TER,37
457,Hickory Place Apartments,Eastbound SW 35th PL @ Nearside SW 23rd TER,37
463,University Commons,Northbound SW 23rd TER @ Nearside Archer RD,37
966,Weimer Hall,Eastbound Stadium RD @ Farside Gale Lemerand DR,37
462,University of Florida Energy Research,Northbound SW 23rd TER @ Nearside SW Archer RD,37
16,UF Health,Southbound Center DR @ Nearside Mowry RD,37
1138,Arbor Apartments,Westbound SW 35th PL @ Farside SW 23rd TER,37
484,Towne Parc Apartments,Southbound SW 23rd TER @ Nearside SW 31 PL,37
481,University Commons,Southbound SW 23rd TER @ Farside Archer RD,37
482,University of Florida Energy Research,Southbound SW 23rd TER @ Farside Archer RD,37
483,University Club Apartments,Southbound SW 23rd TER @ Nearside SW 31 PL,37
1303,O2B Kids @ SW 37th BLVD,Northbound SW 39th BLVD @ Nearside Archer RD,37
452,Gainesville Place Apartments @ SW 35th Place,Westbound SW 35th PL @ Nearside SW 28th TER,37
1300,HH Gregg @ SW 34th ST,Southbound SW 34th ST @ Farside SW 35th PL,37
1321,The Enclave Apartments,Westbound SW 35th PL @ Nearside SW 34th ST,37
1139,Casablanca Apartments,Westbound SW 35th PL @ Nearside SW 27th ST,37
1301,Stoneridge Apartments,Southbound SW 34th ST @ Nearside SW 39th BLVD,37
39,The Bartram Apartments,Eastbound Archer RD @ Farside SW 23rd DR,38
966,Weimer Hall,Eastbound Stadium RD @ Farside Gale Lemerand DR,38
38,University Commons,Eastbound Archer RD @ Nearside SW 23rd TER,38
469,Commuter Lot Parking Garage @ Gale Lemerand,Northbound Gale Lemerand DR @ Farside Mowry RD,38
953,Gainesville Place Apartments,Northbound Gainesville Place Apartments @ Farside*,38
468,Parking & Transportation Services,Northbound Gale Lemerand DR @ Farside Mowry RD,38
955,Gainesville Place Apartments,Northbound Old Archer RD @ Nearside SW 31st TER,38
1254,Gator Corner Dining Facility @ Gale Lemerand,Northbound Gale Lemerand DR @ Nearside Stadium RD,38
34,Radio Shack @ Archer Road,Eastbound Archer RD @ Farside SW 34th ST,38
925,The HUB,Eastbound Stadium RD @ Nearside Buckman DR,38
1193,Rawlings Hall,Southbound Newell DR @ Nearside McCarty DR,38
1267,University Commons Apartments,Westbound Old Archer RD @ Farside SW 23rd TER,38
1268,Brandywine Apartments,Westbound Old Archer RD @ Farside SW 28th PL,38
473,Reitz Union,Southbound McCarty DR @ Nearside Museum RD,38
16,UF Health,Southbound Center DR @ Nearside Mowry RD,38
1337,Gainesville Place,Southbound Gainesville Place Apartments @ Nearsid*,38
18,Shands Hospital @ Davis Cancer Pavilion,Westbound Archer RD @ Nearside Gale Lemerand DR,38
1516,Southbound Westwood Middle School,Southbound NW 34th St. @ Farside NW 15th Pl,40
195,University of Florida Law School,Eastbound SW 2nd AVE @ Farside SW 23rd ST,40
1512,Southbound NW 34th St. @ NW 7th Ave,Southbound NW 34th St. @ Nearside NW 7th Ave,40
1524,Southbound NW 34th St. @ NW 33rd Ln,Southbound NW 34th St. @ Nearside NW 33rd Ln,40
1531,Northbound NW 43rd St. @ NW 46th Ave,Northbound NW 43rd St. @ Nearside NW 46th Ave,40
1325,Division of Blind Services,Southbound NW 43rd ST @ Nearside NW 36th AVE,43
1470,Women's Club,Eastbound University Ave @ Farside NW 28th St,43
1004,Windsor Assisted Living,Northbound NW 83rd ST @ Farside NW 36th AVE,43
1010,Huntington Lakes Apartments,Eastbound NW 39th AVE @ Nearside NW 53rd ST,43
1471,Westgate Plaza,Eastbound University Ave @ Nearside Nw 33rd Ct,43
1013,Pine Woods Apartments,Eastbound NW 39th AVE @ Nearside NW 45th ST,43
1011,NW Grille Seafood,Eastbound NW 39th AVE @ Nearside NW 51st ST,43
1014,Allstate Insurance,Southbound NW 43rd ST @ Nearside NW 37th PL,43
1020,Southbound NW 43rd Street @ NW 19th Avenue,Southbound NW 43rd ST @ Nearside NW 19th AVE,43
1024,Landmark Woods Neighborhood,Southbound NW 43rd ST @ Farside NW 12th AVE,43
1025,Landmark Woods Neighborhood,Southbound NW 43rd ST @ Nearside NW 9th PL,43
1469,Eastbound University Avenue @ SW 23rd DR,Eastbound W University AVE @ Nearside SW 23rd Dr,43
444,University Housing Office,Southbound SW 13th ST @ Nearside Diamond RD,43
199,Keene Flint Hall,Eastbound W University AVE @ Farside Buckman DR,43
188,Regal Royal Park Stadium 16,Eastbound Newberry RD @ Farside SW 38th ST,43
1015,Southbound NW 43rd Street @ NW 33rd Court,Southbound NW 43rd ST @ Nearside NW 33rd CT,43
1018,CVS @ Millhopper,Southbound NW 43rd ST @ Nearside NW 23rd AVE,43
989,Pinewood Apartments,Westbound NW 39th AVE @ Farside NW 43rd ST,43
157,West Gate Shopping Center,Westbound W University AVE @ Nearside NW 32nd ST,43
152,Hillel at the University of Florida,Westbound W University AVE @ Farside NW 20th DR,43
996,Emerald Woods Neighborhood,Westbound NW 39th AVE @ Nearside NW 59th ST,43
992,Tire Plus @ NW 39th Avenue,Westbound NW 39th AVE @ Nearside NW 51st ST,43
980,NW 14th Place @ NW 43rd Street,Northbound NW 43rd ST @ Nearside NW 14th PL,43
153,Westbound University Avenue @ NW 22nd Street,Westbound W University AVE @ Nearside NW 22nd ST,43
994,Faith Presbyterian Church,Westbound NW 39th AVE @ Farside NW 53rd ST,43
148,Smathers Library,Westbound W University AVE @ Nearside NW 16th ST,43
986,Bank of America @ NW 43rd Street,Northbound NW 43rd ST @ Nearside NW 27th LN,43
977,Millennium Center,Northbound NW 43rd ST @ Farside Newberry RD,43
446,UF Health Archer Road,Westbound Archer RD @ Farside SW 16th ST,43
360,Norman Field,Northbound SW 13th ST @ Farside SW 8th AVE,43
660,Shands Hospital @ Helipad,Westbound Shealy DR @ Farside SW 16TH AVE,43
993,Huntington Lakes Apartments,Westbound NW 39th AVE @ Farside NW 53rd ST,43
985,Thorn Brook Shops,Northbound NW 43rd ST @ Farside NW 16th BLVD,43
995,Summer Creek Neighborhood,Westbound NW 39th AVE @ Nearside NW 64th ST,43
979,Landmark Woods Neighborhood,Northbound NW 43rd ST @ Nearside NW 12th AVE,43
147,Target Copy @ W University Avenue,Westbound W University AVE @ Nearside SW 14th ST,46
148,Smathers Library,Westbound W University AVE @ Nearside NW 16th ST,46
1193,Rawlings Hall,Southbound Newell DR @ Nearside McCarty DR,46
927,Ben Hill Griffin Stadium North End Zone,Southbound Gale Lemerand DR @ Farside W Universit*,46
1192,Turlington Hall,Southbound Newell DR @ Farside Union RD,46
473,Reitz Union,Southbound McCarty DR @ Nearside Museum RD,46
1290,Alachua County Courthouse,Eastbound SW 2nd AVE @ Nearside S Main ST,46
1079,Westbound SW 8th Avenue @ SW 70th Terrace,Westbound SW 8th AVE @ Farside SW 70th TER,75
1063,Linton Oaks Neighborhood,Southbound SW 61st ST @ Nearside SW 20th AVE,75
1065,Tower Oaks Glenn Apartments,Westbound SW 24th AVE @ Farside SW 19th CT,75
1084,Reflections Apartments,Northbound SW 75th ST @ Nearside SW 1st PL,75
1252,Gainesville Council on Aging,Westbound Archer RD @ Farside SW 47th ST,75
1046,Tower Village Apartments,Northbound SW 75th ST @ Nearside SW 45th PL,75
1067,Carriage House Lane,Westbound SW 24th AVE @ Nearside SW 73rd TER,75
1068,CVS Pharmacy @ SW 75th Street,Northbound SW 75th ST @ Farside SW 24th AVE,75
1083,Cricket Club Apartments,Northbound SW 75th ST @ Farside SW 8th AVE,75
1087,Pine Meadow Apartments,Eastbound W University AVE @ Farside SW 75th ST,75
1044,Kanapaha Middle School,Northbound SW 75th ST @ Farside SW 51st BLVD,75
1055,Split Rock Conservation Area,Eastbound SW 24th AVE @ Farside SW 61st ST,75
1250,Celebration Pointe at Archer Rd,Westbound Archer Rd Nearside SW 43rd St,75
1081,Sparrow Apartments,Westbound SW 8th AVE @ Farside SW 75th ST,75
1096,Oaks Square Complex,Eastbound Newberry RD @ Farside NW 69th TER,75
1035,Kanapaha Botanical Gardens,Westbound Archer RD @ Nearside SW 56th TER,75
1057,Linton Oaks Neighborhood @ SW 61st Street,Northbound SW 61st ST @ Farside SW 10th PL,75
1097,Oaks Mall,Eastbound Newberry RD @ Nearside Oaks Mall,75
1074,Holly Heights,Northbound SW 70th TER @ Nearside SW 6th PL,75
1043,Asbury Park Apartments,Northbound SW 75th ST @ Nearside SW 53rd PL,75
1034,Madison Cove Apartments,Westbound Archer RD @ Nearside SW 56th TER,75
1064,Treebecka Park Apts,Westbound SW 20th AVE @ Farside SW 61st ST,75
175,Oaks Mall SW 62nd Blvd,Northbound NW 62nd ST @ Nearside Newberry RD,75
1119,CROM Equipment Rentals,Eastbound Archer RD @ Farside SW 69th TER,75
1121,SunState,Eastbound Archer RD @ Nearside SW 63rd BLVD,75
1058,Linton Oaks,Northbound SW 61st ST @ Nearside SW 8th PL,75
1078,Gordon Manor Neighborhood,Eastbound SW 67th TER @ Nearside SW 8th AVE,75
1113,Tower Village,Southbound SW 75th ST @ Farside SW 45th PL,75
1114,Haile Plantation Neighborhood,Southbound SW 75th ST @ Farside SW 46th BLVD,75
1066,KISS 105.3 FM Station,Westbound SW 24th AVE @ Farside SW 70th TER,75
1106,The Woodlands Neighborhood,Southbound SW 75th ST @ Farside SW 10th PL,75
1053,Infinite Energy,Eastbound SW 24th AVE @ Farside SW 70th TER,75
1061,Linton Oaks Neighborhood @ SW 63rd Terrace,Northbound SW 63rd TER @ Nearside SW 8th AVE,75
1125,Hailey Forest Condominiums,Eastbound Archer RD @ Farside SW 50th ST,75
1054,Tower Oaks Glenn Apartments,Eastbound SW 24th AVE @ Farside SW 19th CT,75
1098,North Florida Regional Medical Center,Westbound Newberry RD @ Nearside NW 66th ST,75
1305,Best Buy @ Butler Plaza,Northbound SW 37th BLVD @ Nearside Windmeadows BL*,75
1059,Linton Oaks Neighborhood @ SW 64th Terrace,Southbound SW 64th TER @ Farside SW 8th AVE,75
1100,West Newberry Rd Nearside NW 69th Ter,Westbound Newberry RD @ Nearside NW 69th TER,75
848,Lake Alice Field,Eastbound Museum RD @ Farside Fraternity DR,118
966,Weimer Hall,Eastbound Stadium RD @ Farside Gale Lemerand DR,118
1253,Graham Hall,Northbound Gale Lemerand DR @ Farside Museum RD,118
1174,Lacrosse Field,Eastbound Hull RD @ Nearside Natural Area DR,118
858,Lakeside Housing Complex,Northbound Museum RD @ Nearside Radio RD,118
849,Hume Hall,Eastbound Museum RD @ Nearside Gale Lemerand DR,118
1254,Gator Corner Dining Facility @ Gale Lemerand,Northbound Gale Lemerand DR @ Nearside Stadium RD,118
1183,Cultural Plaza,Eastbound Hull RD @ Farside Bledsoe DR,118
1185,Microbiology/Cell Science Building,Northbound Museum RD @ Farside Radio Rd,118
798,Sigma Alpha Epsilon,Westbound Museum RD @ Nearside Woodlawn DR,118
801,UF Bat Houses,Southbound Museum RD @ Nearside Radio RD,118
1153,Tolbert Residence Hall,Southbound Gale Lemerand DR @ Farside Stadium RD,118
1186,Lakeside Residential Building,Southbound Museum RD @ Farside Radio RD,118
1154,Graham Hall,Southbound Gale Lemerand DR @ Nearside Museum RD,118
1187,Microbiology/Cell Science Building,Southbound Museum RD @ Nearside Radio RD,118
847,Corry Village,Northbound Museum RD @ Nearside Village DR,119
844,Maguire Field,Northbound Bledsoe DR @ Nearside Radio RD,119
925,The HUB,Eastbound Stadium RD @ Nearside Buckman DR,119
926,Leigh Hall,Northbound Buckman DR @ Nearside W University AVE,119
1133,Fraternity Row at West Fraternity Drive,Westbound Fraternity Row @ Nearside W Fraternity *,119
1190,Family Housing,Southbound Family Housing @ Farside Bledsoe DR,119
800,Corry Village,Southbound Museum RD @ Farside Village DR,119
1253,Graham Hall,Northbound Gale Lemerand DR @ Farside Museum RD,122
1197,Webb Livestock Pavilion,Southbound Shealy DR @ Farside SW 16th AVE,122
446,UF Health Archer Road,Westbound Archer RD @ Farside SW 16th ST,122
1135,Shands Visitor Parking,Westbound Mowry RD @ Farside Center DR,122
1136,Wilmot Gardens,Westbound Mowry RD @ Nearside Gale Lemerand DR,122
666,Health Science Center Administration,Southbound SW 16th ST @ Nearside SW 16th AVE,122
1241,Newell Hall across Hub,Westbound Stadium RD @ Farside Buckman DR,122
1412,College Park @ NW 5th AVE,Westbound NW 5th AVE @ Nearside NW 15th ST,122
1179,Pressly Softball Stadium,Westbound Hull RD @ Farside Natural Area DR,122
465,Campus Edge Condominiums,Northbound SW 23rd DR @ Nearside Hull RD,122
845,Lakeside,Eastbound Radio RD @ Nearside Museum RD,125
1144,Fraternity Row,Northbound Fraternity Row @ Farside Museum RD,125
846,Lakeside Residential Complex,Eastbound Radio RD @ Nearside Museum RD,125
927,Ben Hill Griffin Stadium North End Zone,Southbound Gale Lemerand DR @ Farside W Universit*,125
925,The HUB,Eastbound Stadium RD @ Nearside Buckman DR,125
16,UF Health,Southbound Center DR @ Nearside Mowry RD,125
473,Reitz Union,Southbound McCarty DR @ Nearside Museum RD,125
842,Southwest Recreation Center,Northbound Bledsoe DR @ Farside Hull RD,125
1180,Southwest Recreation Center,Westbound Hull RD @ Nearside Bledsoe DR,125
1186,Lakeside Residential Building,Southbound Museum RD @ Farside Radio RD,125
1326,UF Counseling and Wellness Center,Eastbound Radio RD @ Farside Bledsoe DR,125
844,Maguire Field,Northbound Bledsoe DR @ Nearside Radio RD,125
468,Parking & Transportation Services,Northbound Gale Lemerand DR @ Farside Mowry RD,125
1187,Microbiology/Cell Science Building,Southbound Museum RD @ Nearside Radio RD,125
148,Smathers Library,Westbound W University AVE @ Nearside NW 16th ST,126
1324,Sorority Row,Northbound SW 11th ST @ Nearside SW 8th AVE,126
1179,Pressly Softball Stadium,Westbound Hull RD @ Farside Natural Area DR,126
1193,Rawlings Hall,Southbound Newell DR @ Nearside McCarty DR,126
1136,Wilmot Gardens,Westbound Mowry RD @ Nearside Gale Lemerand DR,126
147,Target Copy @ W University Avenue,Westbound W University AVE @ Nearside SW 14th ST,126
801,UF Bat Houses,Southbound Museum RD @ Nearside Radio RD,126
844,Maguire Field,Northbound Bledsoe DR @ Nearside Radio RD,126
469,Commuter Lot Parking Garage @ Gale Lemerand,Northbound Gale Lemerand DR @ Farside Mowry RD,126
1238,Sorority Row,Northbound SW 11th ST @ Nearside E Panhellenic DR,126
845,Lakeside,Eastbound Radio RD @ Nearside Museum RD,126
966,Weimer Hall,Eastbound Stadium RD @ Farside Gale Lemerand DR,126
1159,Phi Kappa Tau,Eastbound SW 2nd AVE @ Farside SW 13th ST,126
846,Lakeside Residential Complex,Eastbound Radio RD @ Nearside Museum RD,126
1248,Parkside II Apartments,Westbound Depot AVE @ Nearside SW 11th ST,126
925,The HUB,Eastbound Stadium RD @ Nearside Buckman DR,126
199,Keene Flint Hall,Eastbound W University AVE @ Farside Buckman DR,126
148,Smathers Library,Westbound W University AVE @ Nearside NW 16th ST,127
147,Target Copy @ W University Avenue,Westbound W University AVE @ Nearside SW 14th ST,127
1324,Sorority Row,Northbound SW 11th ST @ Nearside SW 8th AVE,127
927,Ben Hill Griffin Stadium North End Zone,Southbound Gale Lemerand DR @ Farside W Universit*,127
361,Norman Hall,Northbound SW 13th ST @ Nearside SW 5th AVE,127
199,Keene Flint Hall,Eastbound W University AVE @ Farside Buckman DR,127
1159,Phi Kappa Tau,Eastbound SW 2nd AVE @ Farside SW 13th ST,127
1209,Oxford Terrace Apartments,Southbound SW 9th ST @ Nearside SW Depot AVE,127
200,Anderson Hall,Eastbound W University AVE @ Nearside NW 15th ST,127
1327,Eastbound SW 7th AVE @ SW 12th ST,Eastbound SW 7th AVE @ Farside SW 12th ST,127
1238,Sorority Row,Northbound SW 11th ST @ Nearside E Panhellenic DR,127
9,Campus USA Bank,Southbound SW 12th ST @ Farside SW 4th AVE,127
571,Northbound NE 24th Street @ NE 8th Avenue,Eastbound NE 8th AVE @ Nearside NE 24th ST,711
309,Alachua County Sheriff's Office,Eastbound Hawthorne RD @ Nearside SE 27th ST,711
1234,NE Walmart Supercenter,Eastbound NE 12th AVE @ Farside Waldo RD,711
1,Rosa Parks RTS Downtown Station,Northbound SE 3rd ST @ Nearside SE 3rd ST,711
1553,Health Department,Southbound SE 24th ST @ Farside SE 2nd AVE,711
326,Eastwood Meadows,Northbound SE 44th ST @ Farside SE 10th PL,711
561,Eastbound NE 8th Avenue @ NE 11th Street,Eastbound NE 8th AVE @ Farside NE 11th ST,711
557,Northbound NE 9th Street @ NE 3rd Avenue,Northbound NE 9th ST @ Farside NE 3rd AVE,711
558,Northbound NE 9th Street @ NE 5th Avenue,Northbound NE 9th ST @ Nearside NE 5th AVE,711
313,Lana's Place,Eastbound SE 21st AVE @ Nearside SE 28 DR,711
562,Sunny Food Mart,Eastbound NE 8th AVE @ Nearside NE 12th ST,711
568,Mount Zion Church of God,Southbound NE 19th ST @ Nearside NE 8th AVE,711
553,Downtown Library,Northbound SE 3rd ST @ Nearside E University AVE,711
312,Durelle Heights Neighborhood,Southbound SE 27th ST @ Farside SE 18th AVE,711
597,Sunrise Store @ SE 43rd Street,Northbound SE 43rd ST @ Nearside E University AVE,711
608,Northbound NE 25th Street @ NE 6th Avenue,Northbound NE 25th ST @ Farside NE 6th AVE,711
614,Southbound NE 24th Street @ NE 8th Avenue,Southbound NE 24th ST @ Nearside NE 8th AVE,711
1239,Caroline Manor Affordable Housing,Westbound E University AVE @ Nearside NE 25th ST,711
618,Duval Elementary School,Westbound NE 8th AVE @ Nearside NE 21st ST,711
612,Westbound NE 12th Avenue @ NE 24th Terrace,Westbound NE 12th AVE @ Nearside NE 24th TER,711
632,Florida School of Traditional Midwifery,Westbound E University AVE @ Farside NE 8th ST,711
617,Westbound NE 8th Avenue @ NE 23nd Street,Westbound NE 8th AVE @ Farside NE 23nd ST,711
1240,Northbound NE 25th Street @ NE 3rd Place,Northbound NE 25th ST @ Nearside NE 3rd PL,711
619,Bartley Temple United Methodist Church,Northbound NE 19th ST @ Farside NE 8th AVE,711
1476,McDonalds,Westbound NW 39th Ave @ Nearside NW 92nd Ct,800
1507,UF & Shands at Springhill,Westbound NW 39th Ave Farside NW 83rd St,800
1582,Fifield PNR,Memorial Rd @ PNR Lot,121
1482,Lake Alice Conservation Area,Westbound Mowry Rd @ Nearside SW 23 Dr,121
477,Cancer & Genetics Research Center,Westbound Mowry RD @ Farside Gale Lemerand DR,121
1184,Weed Science Building,Northbound Museum RD @ Farside Hull RD,121
1192,Turlington Hall,Southbound Newell DR @ Farside Union RD,121
478,IFAS Lab,Westbound Mowry RD @ Farside Hull RD,121
1193,Rawlings Hall,Southbound Newell DR @ Nearside McCarty DR,121
1135,Shands Visitor Parking,Westbound Mowry RD @ Farside Center DR,121
1187,Microbiology/Cell Science Building,Southbound Museum RD @ Nearside Radio RD,121
1253,Graham Hall,Northbound Gale Lemerand DR @ Farside Museum RD,121
466,Forestry Field Lab/Plant Growth,Eastbound Mowry RD @ Farside Hull RD,121
468,Parking & Transportation Services,Northbound Gale Lemerand DR @ Farside Mowry RD,121
469,Commuter Lot Parking Garage @ Gale Lemerand,Northbound Gale Lemerand DR @ Farside Mowry RD,121
473,Reitz Union,Southbound McCarty DR @ Nearside Museum RD,25
848,Lake Alice Field,Eastbound Museum RD @ Farside Fraternity DR,20
846,Lakeside Residential Complex,Eastbound Radio RD @ Nearside Museum RD,20
1326,UF Counseling and Wellness Center,Eastbound Radio RD @ Farside Bledsoe DR,20
842,Southwest Recreation Center,Northbound Bledsoe DR @ Farside Hull RD,20
841,Harn Museum,Eastbound Hull RD @ Farside Bledsoe DR,20
859,Cabana Beach Apartments,Westbound SW 52nd BLVD @ Nearside SW 20th AVE,20
839,Florida Department Of Agriculture,Northbound SW 34th ST @ Farside SW 20th AVE,20
172,Oaks Mall SW 62nd Blvd,Southbound NW 62nd ST @ Farside NW 1st PL,20
830,Cabana Beach Apartments,Eastbound SW 20th AVE @ Farside SW 52nd ST,20
1136,Wilmot Gardens,Westbound Mowry RD @ Nearside Gale Lemerand DR,33
1493,Butler Plaza Transfer Station,Westbound SW 30th Place @ Farside SW 42nd Street,33
1489,Village Point 4,Westbound Hull RD @ Nearside SW 38th TER,33
1554,Pod @ Plaza Blvd Westbound,Westbound Plaza Blvd @ Nearside SW 62nd Blvd,33
478,IFAS Lab,Westbound Mowry RD @ Farside Hull RD,33
1459,Kensington Apartments Eastside,Southbound SW 38th TER @ Farside SW 20th AVE,33
1193,Rawlings Hall,Southbound Newell DR @ Nearside McCarty DR,33
1180,Southwest Recreation Center,Westbound Hull RD @ Nearside Bledsoe DR,33
1181,UF Orthopaedics Institute,Westbound Hull RD @ Farside SW 34th ST,33
1482,Lake Alice Conservation Area,Westbound Mowry Rd @ Nearside SW 23 Dr,33
1135,Shands Visitor Parking,Westbound Mowry RD @ Farside Center DR,33
477,Cancer & Genetics Research Center,Westbound Mowry RD @ Farside Gale Lemerand DR,33
925,The HUB,Eastbound Stadium RD @ Nearside Buckman DR,33
1192,Turlington Hall,Southbound Newell DR @ Farside Union RD,33
1179,Pressly Softball Stadium,Westbound Hull RD @ Farside Natural Area DR,33
1177,Fifield Hall,Westbound Hull RD @ Farside Mowry RD,33
925,The HUB,Eastbound Stadium RD @ Nearside Buckman DR,150
473,Reitz Union,Southbound McCarty DR @ Nearside Museum RD,150
523,Shenandoah Neighborhood,Eastbound NW 23rd AVE @ Farside NW 77th TER,76
515,Hickory Woods Neighborhood,Westbound NW 23rd AVE @ Nearside NW 68th TER,76
3,Westbound SW 2nd Avenue @ SW 2nd Street,Westbound SW 2nd AVE @ Nearside SW 2nd ST,1
1492,Butler Plaza,Westbound Windmeadows Blvd @ Nearside SW 62nd Blvd,1
20,Mt Vernon Apartments,Westbound Archer RD @ Nearside SW 23rd DR,1
1500,NE 15th St @ NE 7th Ave,Southbound NE 15th St @ Nearside NE 7th Ave,2
568,Mount Zion Church of God,Southbound NE 19th ST @ Nearside NE 8th AVE,2
129,McPherson Recreational Center,Southbound SE 15th ST @ Nearside SE 22nd AVE,2
125,Westbound SE 12th Avenue @ SE 18th Terrace,Westbound SE 12th AVE @ Nearside SE 18th TER,2
357,SE 7th Avenue @ SE 10th Terrace,Westbound SE 7th AVE @ Farside SE 10th TER,2
300,Fast Eddie's Restaurant,Northbound SE 15th ST @ Nearside SE 1st AVE,2
76,Prairie View Elementary School,Northbound SE 15th ST @ Nearside SE 35th AVE,2
89,Lincoln Estate Neighborhood,Eastbound SE 12th AVE @ Nearside SE 19th TER,2
82,McPherson Recreational Center,Northbound SE 15th ST @ Farside SE 22nd AVE,2
291,Eastbound SE 7th Avenue @ SE 8th Street,Eastbound SE 7th AVE @ Nearside SE 8th ST,2
87,Lincoln Estate Neighborhood,Eastbound SE 12th AVE @ Farside SE 17th TER,2
1453,St. Patrick Catholic Church,Westbound NE 16th AVE @ Nearside NE 2 ST,3
1466,NE 18th St @ NE 8th Ave,Northbound NE 18th ST @ Nearside NE 8th Ave,3
762,Midas @ N Main Street,Southbound N Main ST @ Farside NE 16th AVE,3
132,Westbound SE 22nd Avenue @ SE 12th Street,Westbound SE 22nd AVE @ Farside SE 12th ST,3
133,Gainesville Housing Authority,Northbound SE 4th ST @ Farside SE 19th PL,3
182,Gainesville Health & Fitness,Eastbound Newberry RD @ Nearside NW 48th BLVD,5
189,SW 2nd AVE and SW 36th TER - CIL,Eastbound SW 2nd AVE @ Nearside SW 36th ST,5
200,Anderson Hall,Eastbound W University AVE @ Nearside NW 15th ST,5
199,Keene Flint Hall,Eastbound W University AVE @ Farside Buckman DR,5
1,Rosa Parks RTS Downtown Station,Northbound SE 3rd ST @ Nearside SE 3rd ST,5
207,Alachua County Office of the State Attorney,Eastbound W University AVE @ Nearside SW 1st ST,5
1473,Fire Station,Westbound SW 2nd Ave @ Farside SW 36th St,5
936,Westgate Plaza,Westbound SW 2nd AVE @ Nearside SW 34th ST,5
142,Seagle Building,Westbound W University AVE @ Farside W 3rd ST,5
223,NW 6th St NW 23rd Ave,Northbound NW 6th ST @ Nearside NW 22nd AVE,6
737,NW 23rd Avenue @ NW 12th St,Westbound NW 23rd AVE @ Farside NW 12th ST,6
270,Santa Fe College Charles L. Blount Center,Northbound NW 6th ST @ Nearside NW 5th AVE,6
4,The Continuum,Westbound SW 2nd AVE @ Nearside SW 6th ST,6
218,Bailey Village Assisted Living,Northbound NW 6th ST @ Farside NW 13th ST,6
209,Alachua County Courthouse,Northbound S Main ST @ Nearside SW 2nd AVE,6
238,CVS @ NW 13th Street,Southbound NW 13th ST @ Farside NW 41st AVE,6
276,NW 6th ST at NW 19th LN (Hand N' Hand Childcare),Southbound NW 6th ST @ Nearside NW 19th LN,6
399,The Home Depot @ NW 53rd Avenue,Eastbound NW 53rd AVE @ Nearside NW 13th ST,6
282,Greater Bethel African Methodist Episcopal Church,Southbound NW 6th ST @ Farside NW 6th AVE,6
242,McDonald's @ NW 13th Street,Southbound NW 13th ST @ Nearside NW 29th AVE,6
1223,Forest Meadows Funeral Home,Eastbound NW 23rd TER @ Nearside NW 6th ST,6
288,Alachua County Courthouse,Southbound S Main ST @ Farside SE 2nd PL,6
278,Atlantic Design,Southbound NW 6th ST @ Farside NW 16th AVE,6
241,Grace Presbyterian Church,Southbound NW 13th ST @ Nearside NW 31st AVE,6
1504,PPG Paints Store,Southbound NW 6th ST @ Nearside University Avenue,6
403,Kangaroo Gas @ NW 34th Street,Southbound NW 34th ST @ Nearside NW 23rd TER,6
240,Tires Plus @ NW 13th Street,Southbound NW 13th ST @ Nearside NW 33rd AVE,6
1222,Hearing Aid Gainesville,Eastbound NW 23rd TER @ Nearside NW 10th ST,6
303,Alachua County School Board Administration Annex,Eastbound E University AVE @ Farside SE 18th ST,7
306,Eastbound University Avenue @ SE 24th Street,Eastbound E University AVE @ Nearside SE 24th ST,7
325,The Glades,Northbound SE 43rd ST @ Nearside SE 10th PL,7
292,The Cotton Club,Eastbound SE 7th AVE @ Nearside SE 9th ST,7
357,SE 7th Avenue @ SE 10th Terrace,Westbound SE 7th AVE @ Farside SE 10th TER,7
342,Alachua County Sheriffs Department,Westbound Hawthorne RD @ Farside SE 25th TER,7
102,Health Department,Northbound SE 24th ST @ Nearside SE 2nd AVE,7
346,Westbound E University Avenue @ SE 21st Street,Westbound E University AVE @ Nearside SE 21st ST,7
113,Southbound SE 15th Street @ SE 7th Avenue,Southbound SE 15th ST @ Nearside SE 7th AVE,7
359,Westbound SE 7th Avenue @ SE 8th Street,Westbound SE 7th AVE @ Farside SE 8th ST,7
311,Southbound SE 27th Street @ SE 15th Avenue,Southbound SE 27th ST @ Farside SE 15th AVE,7
1359,Gainesville Healthcare Center,Northbound SW 16th ST @ Nearside Circle of Hope,8
422,Uptown Village Apartments,Eastbound NW 39th AVE @ Farside NW 24th BLVD,8
420,First Assembly Church,Eastbound NW 39th AVE @ Nearside NW 29th TER,8
362,Social 28 Apartments,Northbound SW 13th ST @ Nearside SW 3rd AVE,8
118,Shands Cancer Hospital,Eastbound SW Archer Rd Farside SW 16th St,8
376,Cobblestone Apartments,Westbound NW 23rd AVE @ Nearside NW 28th CIR,8
385,Equilease Square,Westbound NW 39th AVE @ Nearside NW 22nd DR,8
1168,Northwood Oaks Neighborhood,Northbound NW 34th ST @ Farside NW 54th AVE,8
387,Walnut Creek Neighborhood,Westbound NW 39th AVE @ Farside NW 25th TER,8
363,Kangaroo @ SW 13th Street,Northbound SW 13th ST @ Nearside W University AVE,8
379,Northbound NW 21st Avenue @ NW 33rd Avenue,Northbound NW 21st ST @ Nearside NW 33rd AVE,8
378,Misty Oaks Apartments,Northbound NW 21st ST @ Farside NW 31st ST,8
396,Barnhill Clinic,Northbound NW 34th ST @ Nearside NW 29th ST,8
405,Pine Ridge Apartments,Northbound NW 23rd TER @ Nearside NW 25th TER,8
1481,Cancer/Genetics Research Complex,Eastbound Mowry Rd @ Farside SW 23 Dr,9
463,University Commons,Northbound SW 23rd TER @ Nearside Archer RD,9
464,Mt Vernon Apartments @ SW 23rd Drive,Northbound SW 23rd DR @ Farside Archer RD,9
925,The HUB,Eastbound Stadium RD @ Nearside Buckman DR,9
473,Reitz Union,Southbound McCarty DR @ Nearside Museum RD,9
461,University Club Apartments,Northbound SW 23rd TER @ Farside SW 28th PL,9
16,UF Health,Southbound Center DR @ Nearside Mowry RD,9
482,University of Florida Energy Research,Southbound SW 23rd TER @ Farside Archer RD,9
478,IFAS Lab,Westbound Mowry RD @ Farside Hull RD,9
490,The Polos Apartments,Westbound Williston RD @ Farside SW 23rd ST,9
507,Capital City Bank @ NW 16th Boulevard,Westbound NW 16th BLVD @ Nearside NW 41st ST,10
368,LifeSouth Community Blood Center @ NW 13th Street,Northbound NW 13th ST @ Nearside NW 14th AVE,10
517,Shenandoah Neighborhood,Westbound NW 23rd AVE @ Nearside NW 77th TER,10
512,Northwest Baptist Church,Westbound NW 23rd AVE @ Nearside NW 55th ST,10
516,Quail Ridge Neighborhood,Westbound NW 23rd AVE @ Nearside NW 71st ST,10
498,NW 24th St @ NW 16th Avenue,Westbound NW 16th AVE @ Nearside NW 24th ST,10
505,B'Nai Israel School & Day Care,Westbound NW 16th BLVD @ Farside NW 38th TER,10
366,University House Apartments,Northbound NW 13th ST @ Farside NW 7th AVE,10
504,NW 16th Boulevard @ NW 37th Boulevard,Westbound NW 16th BLVD @ Farside NW 37th BLVD,10
249,NW 16th Ave NW 13th St,Westbound NW 16th AVE @ Farside NW 13th ST,10
532,Floral Expressions,Eastbound NW 23rd AVE @ Nearside NW 43rd ST,10
434,Direct Auto Insurance,Southbound NW 13th ST @ Farside NW 14th AVE,10
533,NW 23rd Ave NW 43rd St,Eastbound NW 16th BLVD @ Nearside NW 43rd ST,10
204,Innovation Square North,Eastbound W University AVE @ Nearside SW 7th ST,10
544,Eastbound NW 16th Avenue @ NW 20th Way,Eastbound NW 16th AVE @ Nearside NW 20th WAY,10
438,The Gate Food Store @ NW 13th Street,Southbound NW 13th ST @ Nearside NW 5th AVE,10
205,The Continuum,Eastbound W University AVE @ Farside W 6th ST,10
538,Covenant Church,Eastbound NW 16th AVE @ Nearside NW 31st TER,10
531,Eastbound NW 23rd Avenue @ NW 46th Street,Eastbound NW 23rd AVE @ Nearside NW 46th ST,10
524,Quail Ridge Neighborhood,Eastbound NW 23rd AVE @ Nearside NW 71st ST,10
207,Alachua County Office of the State Attorney,Eastbound W University AVE @ Nearside SW 1st ST,10
521,Santa Fe College,Eastbound NW South RD @ Nearside NW 83rd ST,10
1235,NE Walmart Supercenter,Westbound NE 12th AVE @ Nearside Waldo RD,11
598,Eastside Plaza,Westbound E University AVE @ Farside SE 39th ST,11
609,Mt Carmel Baptist Church,Northbound NE 25th ST @ Nearside NE 8th AVE,11
618,Duval Elementary School,Westbound NE 8th AVE @ Nearside NE 21st ST,11
617,Westbound NE 8th Avenue @ NE 23nd Street,Westbound NE 8th AVE @ Farside NE 23nd ST,11
1560,Eastwood Meadows,Northbound SE 44th ST @ Farside SE 10th PL,11
563,Jones Edmunds,Eastbound NE 8th AVE @ Farside NE 13th ST,11
558,Northbound NE 9th Street @ NE 5th Avenue,Northbound NE 9th ST @ Nearside NE 5th AVE,11
555,Eastbound E University Avenue @ SE 8th Street,Eastbound E University AVE @ Nearside SE 8th ST,11
569,Duval Elementary School,Eastbound NE 8th AVE @ Farside NE 20th ST,11
571,Northbound NE 24th Street @ NE 8th Avenue,Eastbound NE 8th AVE @ Nearside NE 24th ST,11
560,Northbound NE 9th Street @ NE 8th Avenue,Northbound NE 9th ST @ Nearside NE 8th AVE,11
596,Lake Forest Elementary School,Northbound SE 43rd ST @ Nearside SE 4th AVE,11
627,Southbound NE 9th Street @ NE 7th Avenue,Southbound NE 9th ST @ Nearside NE 7th AVE,11
624,Sunny Food Mart,Westbound NE 8th AVE @ Farside NE 12th ST,11
602,Pine Meadows Apartments,Westbound E University AVE @ Nearside NE 26th TER,11
643,Ridgemar Apartments,Northbound SW 34th ST @ Nearside SW 35th AVE,12
966,Weimer Hall,Eastbound Stadium RD @ Farside Gale Lemerand DR,12
661,Regions Bank @ SW 37th Boulevard,Southbound SW 37th BLVD @ Nearside SW 38th ST,12
925,The HUB,Eastbound Stadium RD @ Nearside Buckman DR,12
1548,Sam's Club,Eastbound SW 33rd PL @ Nearside SW 37th Blvd,12
468,Parking & Transportation Services,Northbound Gale Lemerand DR @ Farside Mowry RD,12
1305,Best Buy @ Butler Plaza,Northbound SW 37th BLVD @ Nearside Windmeadows BL*,12
1136,Wilmot Gardens,Westbound Mowry RD @ Nearside Gale Lemerand DR,12
23,UF Surge Area Drive,Westbound Archer RD @ Nearside Surge Area DR,12
1301,Stoneridge Apartments,Southbound SW 34th ST @ Nearside SW 39th BLVD,12
695,Oakbrook Walk Condominiums,Northbound SW 13th ST @ Nearside SW 14th AVE,13
678,Residence Inn,Southbound SW 13th ST @ Nearside Williston RD,13
676,Chop Stix Cafe,Southbound SW 13th ST @ Farside SW 14th DR,13
673,Wyndham Garden Hotel,Southbound SW 13th ST @ Nearside SW 14th DR,13
256,Mount Pleasant Cemetary,Northbound NW 13th ST @ Farside NW 29th RD,15
768,Friends of the Library Alachua County,Southbound N Main ST @ Farside NE 6th AVE,15
753,Smokey Bear Park,Southbound NE 15th ST @ Nearside NE 23rd AVE,15
749,Village Green Apartments,Southbound NE 15th ST @ Farside NE 31st AVE,15
742,Bella Vista Village Eastbound,Eastbound NW 39th AVE @ Farside NW 1st TER,15
743,Pine Forest Homes,Eastbound NW 39th AVE @ Nearside NE 2nd ST,15
752,NE 15th Street @ NE 26th Avenue,Southbound NE 15th ST @ Nearside NE 26th AVE,15
763,Publix @ N Main Street,Southbound N Main ST @ Farside NE 14th AVE,15
766,Fire Stone @ N Main Street,Southbound N Main ST @ Nearside NE 7th AV,15
762,Midas @ N Main Street,Southbound N Main ST @ Farside NE 16th AVE,15
764,Gainesville Shopping Center South,Southbound N Main ST @ Nearside NE 10th AVE,15
761,Sandwich Inn @ NE 16th Ave,Westbound NE 16th AVE @ Nearside NE 2nd ST,15
737,NW 23rd Avenue @ NW 12th St,Westbound NW 23rd AVE @ Farside NW 12th ST,15
254,Big Lot on NW 13th Street,Northbound NW 13th ST @ Farside NW 23rd AVE,15
730,Southbound NW 6th Street @ NW 32nd Place,Southbound NW 6th ST @ Nearside NW 32nd PL,15
784,Southbound Williston Road @ SE 1st Terrace,Southbound Williston RD @ Nearside SE 1st TER,16
1550,Hotel Eleo @ SW 16th Ave Westbound,Westbound SW 16th AVE @ Farside SW 14th ST,16
785,Springhill Baptist Church,Southbound Williston RD @ Nearside SE 1st ST,16
791,Oakbrook Walk Condominiums @ SW 16th Avenue,Westbound SW 16th AVE @ Nearside SW 13th ST,16
795,The Retreat Apartments,Eastbound SW 16th AVE @ Farside SW 10th TER,16
357,SE 7th Avenue @ SE 10th Terrace,Westbound SE 7th AVE @ Farside SE 10th TER,16
1420,Southbound SW 13th ST @ SW 13th AVE,Southbound SW 13 ST @ SW 13th AVE,17
795,The Retreat Apartments,Eastbound SW 16th AVE @ Farside SW 10th TER,17
790,Parklands Rehab & Nursing Center,Westbound SW 16th AVE @ Farside SW 10th TER,17
1550,Hotel Eleo @ SW 16th Ave Westbound,Westbound SW 16th AVE @ Farside SW 14th ST,17
1359,Gainesville Healthcare Center,Northbound SW 16th ST @ Nearside Circle of Hope,17
833,Addison Lane,Eastbound SW 20th AVE @ Nearside SW 40th TER,20
925,The HUB,Eastbound Stadium RD @ Nearside Buckman DR,20
1192,Turlington Hall,Southbound Newell DR @ Farside Union RD,20
174,Terwilliger Elementary School,Northbound NW 62nd ST @ Nearside NW 4th PL,20
820,Spyglass Apartments,Northbound SW 62nd BLVD @ Nearside SW 4th PL,20
801,UF Bat Houses,Southbound Museum RD @ Nearside Radio RD,20
810,Campus USA,Westbound SW 20th AVE @ Farside SW 34th ST,20
837,Southwest Villas Apartments,Eastbound SW 20th AVE @ Nearside SW 37th WAY,21
1236,Cabana Beach,Northbound SW 52nd BLVD @ Farside SW 20th AVE,21
473,Reitz Union,Southbound McCarty DR @ Nearside Museum RD,21
845,Lakeside,Eastbound Radio RD @ Nearside Museum RD,21
1273,SW 38th Terr nearside SW 20th Ave,Northbound SW 38th Terrace @ SW 20th Avenue,21
844,Maguire Field,Northbound Bledsoe DR @ Nearside Radio RD,21
16,UF Health,Southbound Center DR @ Nearside Mowry RD,21
1136,Wilmot Gardens,Westbound Mowry RD @ Nearside Gale Lemerand DR,21
1352,Forest Park,Northbound SW 43rd ST @ Nearside SW 21st PL,21
816,Canopy Apartments,Westbound SW 20th AVE @ Farside SW 43rd ST,21
817,Cabana Beach Apartments,Eastbound SW 52 BLVD @ Nearside SW 20th AVE,21
1135,Shands Visitor Parking,Westbound Mowry RD @ Farside Center DR,21
1276,Paddock Club Apartments,Northbound Fort Clarke BLVD @ Farside NW 8th AVE,23
1284,Ft Clarke Middle School,Southbound Fort Clarke BLVD @ Farside NW 23rd AVE,23
1594,AT&T Store @ NW 4th Place,NW 4th Pl Nearside NW 62nd Street,23
1552,Kangaroo Express @ Newberry/Tower Road,Eastbound Newberry RD @ Nearside NW 75th ST,23
1289,Pepboys Auto @ Newberry RD,Eastbound Newberry RD @ Nearside NW 76th BLVD,23
623,Westbound NE 13th Street @ NE 8th Avenue,Westbound NE 8th AVE @ Nearside NE 13th ST,24
855,Walgreens @ NE 3rd Avenue,Northbound Waldo RD @ Nearside NE 3rd AVE,24
870,Tacachale Center,Northbound Waldo RD @ Farside NE 16th AVE,24
885,Nordstrom Distribution Center,Northbound NE 49th TER @ Nearside NE 54th PL,24
898,Rose Food Store,Westbound NE 16th AVE @ Nearside NE 16th WAY,24
1456,NE 49th AVE,Westbound NE 49th AVE @ Farside Waldo RD,24
53,Innovation Square East,Eastbound SW 2nd AVE @ Farside SW 7th TER,25
856,UF Health Family Medicine Eastside Northbound,Northbound Waldo RD @ Farside NE 5th AVE,25
52,Eastbound SW 2nd Avenue @ SW 10th Street,Eastbound SW 2nd AVE @ Nearside SW 10th ST,25
198,St. Augustine Catholic Church,Eastbound W University AVE @ Nearside Fletcher DR,25
148,Smathers Library,Westbound W University AVE @ Nearside NW 16th ST,25
966,Weimer Hall,Eastbound Stadium RD @ Farside Gale Lemerand DR,25
1136,Wilmot Gardens,Westbound Mowry RD @ Nearside Gale Lemerand DR,25
468,Parking & Transportation Services,Northbound Gale Lemerand DR @ Farside Mowry RD,25
199,Keene Flint Hall,Eastbound W University AVE @ Farside Buckman DR,25
1317,GRACE Marketplace,Eastbound NE 39th AVE @ Farside Waldo RD,25
56,Eastbound SW 2nd Ave @ SW 2nd St,Eastbound SW 2nd AVE @ Nearside SW 2nd ST,25
1329,Alachua County Juvenile Detention,Eastbound NE 39th AVE @ Farside Waldo RD,25
147,Target Copy @ W University Avenue,Westbound W University AVE @ Nearside SW 14th ST,25
1192,Turlington Hall,Southbound Newell DR @ Farside Union RD,25
1323,College Manor Apartments,Westbound SW 2nd AVE @ Nearside SW 13th ST,25
1495,Passage Family Church,Southbound NE 15th St @ Nearside NE 20th Pl,26
1166,Ironwood Golf Course,Westbound NE 39th AVE @ Nearside Waldo RD,26
753,Smokey Bear Park,Southbound NE 15th ST @ Nearside NE 23rd AVE,26
913,Southbound SE 11th Street @ SE 2nd Avenue,Southbound SE 11th ST @ Nearside SE 2nd AVE,26
909,Episcopal Children's Services,Southbound Waldo RD @ Farside NE 8th AVE,26
750,Southbound NE 15th Street @ NE 31 Avenue,Southbound NE 15th ST @ Nearside NE 31st AVE,26
1447,Gardenia Gardens,Eastbound NE 8th AVE @ Farside NE 17th ST,26
899,Michelle Garden Apartments,Westbound NE 16th AVE @ Nearside NE 15th ST,26
1494,NE 15th St @ NE 20th Pl,Northbound NE 15th St @ Farside NE 20th Pl,26
852,Triangle Club,Eastbound SE 4th AVE @ Nearside 11th ST,26
716,NE 28th Avenue @ NE 15th Street,Northbound NE 15th ST @ Nearside NE 28th AVE,26
1454,Northeast Park,Eastbound NE 16th AVE @ Farside NE 2 ST,27
1453,St. Patrick Catholic Church,Westbound NE 16th AVE @ Nearside NE 2 ST,27
966,Weimer Hall,Eastbound Stadium RD @ Farside Gale Lemerand DR,28
845,Lakeside,Eastbound Radio RD @ Nearside Museum RD,28
1326,UF Counseling and Wellness Center,Eastbound Radio RD @ Farside Bledsoe DR,28
1146,Beta Theta Pi across Springs,Eastbound Fraternity Row @ Nearside Woodlawn DR,28
810,Campus USA,Westbound SW 20th AVE @ Farside SW 34th ST,28
1493,Butler Plaza Transfer Station,Westbound SW 30th Place @ Farside SW 42nd Street,28
814,Pinetree Gardens,Westbound SW 20th AVE @ Farside SW 40th TER,28
926,Leigh Hall,Northbound Buckman DR @ Nearside W University AVE,28
150,University Lutheran Church,Westbound W University AVE @ Nearside NW 19th ST,28
1457,Physical Plant Radio Road,Westbound Radio RD @ Nearside SW 34 ST,28
813,Kensington Apartments North,Westbound SW 20th AVE @ Farside SW 38th TER,28
1237,Museum Walk Apartments,Eastbound Hull RD @ Nearside SW 34th ST,33
1580,Celebration Pointe At Regal Cinema 10,SW 45th Street Farside SW 32nd Road,33
1254,Gator Corner Dining Facility @ Gale Lemerand,Northbound Gale Lemerand DR @ Nearside Stadium RD,33
1579,Outside of Butler Plaza TS,SW 35th Blvd And SW 42nd Street,33
1578,Celebration Pointe PNR,SW 32nd Rd And SW 50th Terrace Parking Lot,33
956,Old Archer Road @ SW 34th Street,Westbound Old Archer RD @ Nearside SW 34th ST,34
840,Hilton University of Florida Conference Center,Northbound SW 34th ST @ Nearside Hull RD,34
194,Eastbound SW 2nd Avenue @ SW 26th Street,Eastbound SW 2nd AVE @ Nearside SW 26th ST,34
452,Gainesville Place Apartments @ SW 35th Place,Westbound SW 35th PL @ Nearside SW 28th TER,34
955,Gainesville Place Apartments,Northbound Old Archer RD @ Nearside SW 31st TER,34
966,Weimer Hall,Eastbound Stadium RD @ Farside Gale Lemerand DR,34
192,UF Golf Course,Eastbound SW 2nd AVE @ Farside SW 30th ST,34
927,Ben Hill Griffin Stadium North End Zone,Southbound Gale Lemerand DR @ Farside W Universit*,34
449,Campus Lodge Apartments,Westbound SW 40th TER @ Nearside SW 38th PL,34
937,Point West Apartments,Southbound SW 34th ST @ Farside SW 2nd Ave,34
938,Maguire Village @ SW 34th Street,Southbound SW 34th ST @ Nearside Radio RD,34
949,Lexington Crossing Apartments,Southbound SW 27th ST @ Farside SW 35th PL,34
932,UF Law School,Westbound SW 2nd AVE @ Nearside SW 26th ST,34
939,Orthopaedics and Sports Medicine Institute,Southbound SW 34th ST @ Nearside Hull RD,34
945,Ridgemar Commons,Eastbound SW 35th PL @ Farside SW 32nd TER,34
456,Arbor Park Apartments,Eastbound SW 35th PL @ Nearside SW 27th TER,35
1254,Gator Corner Dining Facility @ Gale Lemerand,Northbound Gale Lemerand DR @ Nearside Stadium RD,35
969,Nationwide Insurance @ Williston Road,Westbound Williston RD @ Farside SW 29Th Dr,35
972,Laurels Apartments,Northbound SW 34th ST @ Farside SW 47th AVE,35
970,Williston Plaza,Northbound SW 34th ST @ Farside Williston RD,35
483,University Club Apartments,Southbound SW 23rd TER @ Nearside SW 31 PL,35
1173,Cultural Plaza,Eastbound Hull RD @ Farside Bledsoe DR,36
1254,Gator Corner Dining Facility @ Gale Lemerand,Northbound Gale Lemerand DR @ Nearside Stadium RD,36
972,Laurels Apartments,Northbound SW 34th ST @ Farside SW 47th AVE,36
1491,Lowe's @ Butler Plaza Eastbound,Eastbound Windmeadows Blvd @ Farside SW 62nd Blvd,36
839,Florida Department Of Agriculture,Northbound SW 34th ST @ Farside SW 20th AVE,36
1481,Cancer/Genetics Research Complex,Eastbound Mowry Rd @ Farside SW 23 Dr,36
1027,Best Buy @ Butler Plaza,Southbound SW 37th BLVD @ Nearside Archer RD,36
1307,Alarion Bank @ 34th ST,Southbound SW 34th ST @ Farside SW 42nd PL,36
807,University Village South Apartments,Westbound Hull RD @ Nearside SW 34th ST,36
808,Hilton University of Florida Conference Center,Southbound SW 34th ST @ Nearside SW 19th AVE,36
1349,Hilton Garden Inn,Eastbound SW 33rd PL @ Farside SW 42nd ST,37
925,The HUB,Eastbound Stadium RD @ Nearside Buckman DR,37
460,Towne Parc Apartments,Northbound SW 23rd TER @ Farside SW 31st PL,37
1253,Graham Hall,Northbound Gale Lemerand DR @ Farside Museum RD,37
1548,Sam's Club,Eastbound SW 33rd PL @ Nearside SW 37th Blvd,37
637,Aspen Ridge Apartments,Northbound SW 34th ST @ Farside SW 37th BLVD,37
1027,Best Buy @ Butler Plaza,Southbound SW 37th BLVD @ Nearside Archer RD,37
39,The Bartram Apartments,Eastbound Archer RD @ Farside SW 23rd DR,37
18,Shands Hospital @ Davis Cancer Pavilion,Westbound Archer RD @ Nearside Gale Lemerand DR,37
1549,Hilton Garden Inn,Westbound SW 33rd PL @ Nearside SW 42nd ST,37
1547,Sam's Club,Westbound SW 33rd PL @ Farside SW 37th Blvd,37
1322,Rocky Point Apartments,Westbound SW 35th PL @ Nearside SW 34th ST,37
1305,Best Buy @ Butler Plaza,Northbound SW 37th BLVD @ Nearside Windmeadows BL*,37
37,Brandywine Apartments,Eastbound Archer RD @ Farside Surge Area DR,38
36,Capstone Quarters Apartments,Eastbound Archer RD @ Farside Surge Area DR,38
956,Old Archer Road @ SW 34th Street,Westbound Old Archer RD @ Nearside SW 34th ST,38
1270,Gainesville Place Apartments,Southbound Gainesville Place Ent @ Old Archer RD,38
1460,Enclave 3,Eastbound SW 32nd Terrace @ Traffic Circle,38
1333,Enclave 1,Eastbound SW 32nd Terrace @ E of Main Bldg,38
1192,Turlington Hall,Southbound Newell DR @ Farside Union RD,38
196,Pressly Stadium,Eastbound SW 2nd AVE @ Farside Woodlawn DR,40
443,Southbound SW 13th Street @ Museum Road,Southbound SW 13th ST @ Nearside Museum RD,43
1002,Santa Fe College @ NW 83rd Street,Northbound NW 83rd ST @ Nearside NW 31st AVE,43
441,Tigert Hall,Southbound SW 13th ST @ Farside SW 2nd AVE,43
1005,Springhill Professional Center,Northbound NW 83rd ST @ Nearside NW 39th AVE,43
200,Anderson Hall,Eastbound W University AVE @ Nearside NW 15th ST,43
520,Santa Fe,Westbound Santa Fe College @ Farside Santa Fe Col*,43
1007,Unicorn Hill Farm,Eastbound NW 39th AVE @ Nearside NW 69th ST,43
198,St. Augustine Catholic Church,Eastbound W University AVE @ Nearside Fletcher DR,43
1016,Millhopper Branch Library,Southbound NW 43rd ST @ Nearside NW 31st AVE,43
1026,Holy Faith Catholic Church,Southbound NW 43rd ST @ Farside NW 8th AVE,43
1472,Kauffman Tires,Eastbound W University Ave @ Farside SW 36th St,43
997,Robin Lane Neighborhood,Westbound NW 39th AVE @ Nearside NW 75th ST,43
149,Swamp Restaurant,Westbound W University AVE @ Nearside NW 17th ST,43
164,Millennium Center,Westbound Newberry RD @ Nearside NW 43rd ST,43
988,Monterey Apartments,Northbound NW 43rd ST @ Farside NW 34th AVE,43
154,Westbound University Avenue @ NW 23rd Drive,Westbound W University AVE @ Nearside NW 23rd DR,43
161,Plaza Royale,Westbound Newberry RD @ Farside NW 36th DR,43
162,Tire Kingdom @ Newberry Road,Westbound Newberry RD @ Farside NW 39th RD,43
978,Lenox Place Apartments,Northbound NW 43rd ST @ Nearside NW 9th Pl,43
983,Millhopper Pines Apartments,Northbound NW 43rd ST @ Farside NW 18th PL,43
1427,Holy Faith Catholic Church,Northbound NW 43rd ST @ Nearside NW 8th AVE,43
1001,Santa Fe College @ NW 83rd Street,Southbound NW 83rd ST @ Nearside Administration RD,43
1,Rosa Parks RTS Downtown Station,Northbound SE 3rd ST @ Nearside SE 3rd ST,46
2,Hampton Inn Hotel,Westbound SE 2nd AVE @ Nearside SE 1st ST,46
966,Weimer Hall,Eastbound Stadium RD @ Farside Gale Lemerand DR,46
3,Westbound SW 2nd Avenue @ SW 2nd Street,Westbound SW 2nd AVE @ Nearside SW 2nd ST,46
53,Innovation Square East,Eastbound SW 2nd AVE @ Farside SW 7th TER,46
57,Hippodrome Theatre,Eastbound SE 2nd AVE @ Nearside SE 1st ST,46
55,Second Avenue Center Apartments,Eastbound SW 2nd AVE @ Farside SW 6th ST,46
1033,Westbound Archer Road @ SW 50th Street,Westbound Archer RD @ Nearside SW 50th ST,75
1062,Linton Oaks Neighborhood @ SW 61st Street,Southbound SW 61st ST @ Nearside SW 10th PL,75
1349,Hilton Garden Inn,Eastbound SW 33rd PL @ Farside SW 42nd ST,75
1249,Gainesville Ale House,Westbound Archer RD @ Nearside SW 40th BLVD,75
1028,Pollo Tropical @ Butler Plaza West,Westbound Archer RD @ Farside SW 37th BLVD,75
1047,Vet Mem PK,Northbound SW 75th ST @ Nearside SW 42nd PL,75
1049,Tower Road Branch Library,Northbound SW 75th ST @ Farside SW 24th AVE,75
1091,Home Depot @ NW 4th Boulevard,Westbound NW 4th BLVD @ Nearside NW 75th ST,75
1093,Park Place Car Wash,Westbound NW 4th BLVD @ Nearside SW 75th ST,75
1069,Sunrise Apartments,Northbound SW 75th ST @ Farside SW 19th PL,75
1041,Bank of America @ Tower Square on Archer Road,Westbound Archer RD @ Farside SW 75th ST,75
1040,Town & Country Veterinarians,Westbound Archer RD @ Nearside SW 69th TER,75
1105,Cricket Club Apartments,Southbound SW 75th ST @ Nearside SW 8th AVE,75
1116,Valwood Neighborhood,Southbound SW 75th ST @ Nearside SW 53rd PL,75
1108,Sunrise Apartments,Southbound SW 75th ST @ Farside SW 19th PL,75
1109,Tower 24 Shopping Center,Southbound SW 75th ST @ Nearside SW 26th AVE,75
1077,Eastbound SW 6th Place @ SW 67th Terrace,Eastbound SW 6th PL @ Nearside SW 67th TER,75
1103,Tower Hill,Southbound NW 75th ST @ Nearside W University AVE,75
1072,Sparrow Apartments,Eastbound SW 8th AVE @ Farside SW 75th ST,75
1493,Butler Plaza Transfer Station,Westbound SW 30th Place @ Farside SW 42nd Street,75
1099,SUBWAY@ Newberry RD,Westbound Newberry RD @ Nearside Oaks Mall,75
1126,Haystacks Housing Complex,Eastbound Archer RD @ Nearside SW 47th TER,75
925,The HUB,Eastbound Stadium RD @ Nearside Buckman DR,118
926,Leigh Hall,Northbound Buckman DR @ Nearside W University AVE,118
797,Hume Hall,Westbound Museum RD @ Farside Gale Lemerand DR,118
1179,Pressly Softball Stadium,Westbound Hull RD @ Farside Natural Area DR,118
927,Ben Hill Griffin Stadium North End Zone,Southbound Gale Lemerand DR @ Farside W Universit*,119
1214,Corry Village,Northbound Village DR @ Nearside W Fraternity Row,119
150,University Lutheran Church,Westbound W University AVE @ Nearside NW 19th ST,119
1161,Springs Residence Building,Westbound Fraternity Row @ Farside Woodlawn DR,119
1183,Cultural Plaza,Eastbound Hull RD @ Farside Bledsoe DR,122
926,Leigh Hall,Northbound Buckman DR @ Nearside W University AVE,122
1409,Northbound NW 17th ST @ NW 7th AVE,Northbound NW 17th ST @ Nearside NW 7th AVE,122
1356,Dauer Hall,Southbound Buckman DR @ Nearside Union DR,122
1154,Graham Hall,Southbound Gale Lemerand DR @ Nearside Museum RD,122
1196,Animal Science,Southbound Shealy DR @ Farside SW 16th AVE,122
196,Pressly Stadium,Eastbound SW 2nd AVE @ Farside Woodlawn DR,125
1145,Fraternity Row II across Springs,Eastbound Fraternity Row @ Farside W Fraternity R*,125
1146,Beta Theta Pi across Springs,Eastbound Fraternity Row @ Nearside Woodlawn DR,125
1193,Rawlings Hall,Southbound Newell DR @ Nearside McCarty DR,125
800,Corry Village,Southbound Museum RD @ Farside Village DR,125
469,Commuter Lot Parking Garage @ Gale Lemerand,Northbound Gale Lemerand DR @ Farside Mowry RD,125
798,Sigma Alpha Epsilon,Westbound Museum RD @ Nearside Woodlawn DR,125
1136,Wilmot Gardens,Westbound Mowry RD @ Nearside Gale Lemerand DR,125
1326,UF Counseling and Wellness Center,Eastbound Radio RD @ Farside Bledsoe DR,126
473,Reitz Union,Southbound McCarty DR @ Nearside Museum RD,126
1192,Turlington Hall,Southbound Newell DR @ Farside Union RD,126
1135,Shands Visitor Parking,Westbound Mowry RD @ Farside Center DR,126
16,UF Health,Southbound Center DR @ Nearside Mowry RD,126
52,Eastbound SW 2nd Avenue @ SW 10th Street,Eastbound SW 2nd AVE @ Nearside SW 10th ST,126
1296,Ivy House Apartment,Southbound SW 10th ST @ Nearside SW 8th AVE,126
1144,Fraternity Row,Northbound Fraternity Row @ Farside Museum RD,126
1146,Beta Theta Pi across Springs,Eastbound Fraternity Row @ Nearside Woodlawn DR,126
966,Weimer Hall,Eastbound Stadium RD @ Farside Gale Lemerand DR,127
925,The HUB,Eastbound Stadium RD @ Nearside Buckman DR,127
8,Courtyard Apartments,Southbound SW 12th ST @ Farside SW 2nd AVE,127
926,Leigh Hall,Northbound Buckman DR @ Nearside W University AVE,127
319,Northbound SE 35th Street @ SE 16th Avenue,Northbound SE 35th ST @ Farside SE 16th AVE,711
554,Salvation Army Thrift Store,Eastbound E University AVE @ Nearside E 7th ST,711
308,Eastbound Hawthorne Road @ SE 26th Street,Eastbound Hawthorne RD @ Nearside SE 26th ST,711
325,The Glades,Northbound SE 43rd ST @ Nearside SE 10th PL,711
563,Jones Edmunds,Eastbound NE 8th AVE @ Farside NE 13th ST,711
564,MLK Center,Northbound Waldo RD @ Farside NE 8th AVE,711
1206,Arlington Square Apartments,Northbound SE 3rd ST @ Nearside SE 2nd PL,711
581,Southbound NE 25th Street @ NE 3rd Place,Southbound NE 25th ST @ Nearside NE 3rd PL,711
316,SE 35th St @ SE 21st Avenue,Eastbound SE 21st AVE @ Farside SE 35th ST,711
322,E Hawthorne Road @ SE 39th Terrace,Eastbound Hawthorne RD @ Farside SE 39th TER,711
601,Fred Cone Park,Westbound E University AVE @ Nearside SE 27th ST,711
598,Eastside Plaza,Westbound E University AVE @ Farside SE 39th ST,711
609,Mt Carmel Baptist Church,Northbound NE 25th ST @ Nearside NE 8th AVE,711
595,Lake Forest Trails Neighborhood,Northbound SE 43rd ST @ Farside SE 6th AVE,711
596,Lake Forest Elementary School,Northbound SE 43rd ST @ Nearside SE 4th AVE,711
1235,NE Walmart Supercenter,Westbound NE 12th AVE @ Nearside Waldo RD,711
630,Southbound NE 9th Street @ NE 3rd Avenue,Southbound NE 9th ST @ Nearside NE 3rd AVE,711
623,Westbound NE 13th Street @ NE 8th Avenue,Westbound NE 8th AVE @ Nearside NE 13th ST,711
629,Southbound NE 9th Street @ NE 5th Avenue,Southbound NE 9th ST @ Nearside NE 5th AVE,711
1259,Exxon Gas Station @ E University Avenue,Westbound E University AVE @ Farside SE 43rd ST,711
925,The HUB,Eastbound Stadium RD @ Nearside Buckman DR,121
473,Reitz Union,Southbound McCarty DR @ Nearside Museum RD,121
472,Rawlings Hall,Northbound Newell DR @ Nearside McCarty DR,20
807,University Village South Apartments,Westbound Hull RD @ Nearside SW 34th ST,33
16,UF Health,Southbound Center DR @ Nearside Mowry RD,33
473,Reitz Union,Southbound McCarty DR @ Nearside Museum RD,33
1556,The Ridge @ SW 38th TER southbound,Southbound SW 38th TER @ Nearside SW 24th AVE,33
1042,Publix @ Tower Square on SW 75th Street,Northbound SW 75th ST @ Farside Archer RD,150
1563,Haile Plantation I,SW 91st Terrace Farside SW 51st Rd,150
1064,Treebecka Park Apts,Westbound SW 20th AVE @ Farside SW 61st ST,76
521,Santa Fe College,Eastbound NW South RD @ Nearside NW 83rd ST,76
828,Rockwood Villas Apartments,Southbound SW 62nd BLVD @ Nearside SW 9th PL,76
122,Lincoln Estates,Southbound SE 19th TER @ Farside SE 8th AVE,2
127,Lincoln Estates Neighborhood,Westbound SE 12th AVE @ Nearside SE 15th ST,2
1261,Gardenia Garden Apartments,Westbound NE 8th AVE @ Farside NE 17th DR,2
109,Phase III Supply,Westbound Hawthorne RD @ Nearside SE 21st ST,2
75,Robinson Heights,Southbound SE 15th ST @ Nearside SE 41st AVE,2
79,Showers of Blessings Harvest Center,Northbound SE 15th ST @ Nearside SE 25th AVE,2
564,MLK Center,Northbound Waldo RD @ Farside NE 8th AVE,2
64,Sugarhill Neighborhood @ SE 4th Street,Southbound SE 4th ST @ Nearside SE 19th PL,2
1499,NE 15th St @ NE 3rd Ave Nearside,Northbound NE 15th St @ Nearside NE 3rd Ave,2
1,Rosa Parks RTS Downtown Station,Northbound SE 3rd ST @ Nearside SE 3rd ST,2
64,Sugarhill Neighborhood @ SE 4th Street,Southbound SE 4th ST @ Nearside SE 19th PL,3
90,Lincoln Estate Neighborhood,Northbound SE 19th TER @ Nearside SE 10th PL,3
124,Lincoln Estates Neighborhood,Southbound SE 19th TER @ Nearside SE 10th PL,3
129,McPherson Recreational Center,Southbound SE 15th ST @ Nearside SE 22nd AVE,3
357,SE 7th Avenue @ SE 10th Terrace,Westbound SE 7th AVE @ Farside SE 10th TER,3
868,Michelle Garden Apartments,Eastbound NE 16th AVE @ Nearside NE 15th ST,3
196,Pressly Stadium,Eastbound SW 2nd AVE @ Farside Woodlawn DR,5
932,UF Law School,Westbound SW 2nd AVE @ Nearside SW 26th ST,5
167,SunTrust Bank @ Newberry Road,Westbound Newberry RD @ Farside NW 51st ST,5
1475,President's Park,Westbound SW 2nd Ave @ Nearside SW 23rd St,5
1593,Social Security NB NW 13th St,Northbound NW 13th St @ Farside 45th Ave,6
259,ALDI Food Market,Northbound NW 13th ST @ Nearside NW 39th AVE,6
217,Big Ron's Yoga,Northbound NW 6th ST @ Nearside NW 10th AVE,6
215,Williams Fellowship Hall,Northbound NW 6th ST @ Nearside NW 7th AVE,6
260,Auto Zone @ NW 13th Street,Northbound NW 13th ST @ Farside NW 39th AVE,6
736,Wesley United Methodist Church,Westbound NW 23rd AVE @ Nearside NW 10th ST,6
236,Early Learning Coalition,Southbound NW 13th ST @ Farside NW 44th AVE,6
55,Second Avenue Center Apartments,Eastbound SW 2nd AVE @ Farside SW 6th ST,6
397,Eastbound NW 53rd Avenue @ NW 24th Boulevard,Eastbound NW 53rd AVE @ Farside NW 24th BLVD,6
398,Sorrento New Home Community,Eastbound NW 53rd AVE @ Farside NW 21st DR,6
56,Eastbound SW 2nd Ave @ SW 2nd St,Eastbound SW 2nd AVE @ Nearside SW 2nd ST,6
277,Acupuncture Center,Southbound NW 6th ST @ Farside NW 19th AVE,6
280,American Auto Insurance,Southbound NW 6th ST @ Nearside NW 10th AVE,6
297,Eastbound SE 7th Avenue @ SE 15th Street,Eastbound SE 7th AVE @ Nearside SE 15th ST,7
304,Eastbound University Avenue @ SE 21st Street,Eastbound E University AVE @ Nearside SE 21st ST,7
334,Southbound SE 35th Street @ SE 20th Avenue,Southbound SE 35th ST @ Nearside SE 20th AVE,7
329,Chevron Food Mart @ SE 43rd Street,Southbound SE 43rd ST @ Nearside Hawthorne RD,7
335,Westbound SE 21st Avenue @ SE 32nd Terrace,Westbound SE 21st AVE @ Farside SE 32nd ST,7
247,Gainesville High School,Southbound NW 13th ST @ Nearside NW 19th LN,8
425,Eastbound NW 39th Ave at NW 19th St Green Tree Pk,Eastbound NW 39th AVE @ Nearside NW 19th ST,8
417,Capri Neighborhood,Southbound NW 34th ST @ Farside NW 44th PL,8
432,Cobblestone Apartments,Eastbound NW 23rd ST @ Farside NW 28th CIR,8
435,State Farm Insurance @ NW 13th Street,Southbound NW 13th ST @ Farside NW 12th AVE,8
428,Southbound NW 21st Street @ NW 36th Avenue,Southbound NW 21st ST @ Farside NW 36th AVE,8
381,Altrusa House of Gainesville,Eastbound NW 36th AVE @ Nearside NE 20th ST,8
395,YMCA @ NW 34th Street,Northbound NW 34th ST @ Farside NW 30th TER,8
374,UF Health Homecare,Westbound NW 23rd AVE @ Nearside NW 16th TER,8
407,Hampton Court Apartments,Northbound NW 23rd TER @ Nearside NW 65th PL,8
369,CVS @ NW 13th Street,Northbound NW 13th ST @ Nearside NW 16th AVE,8
466,Forestry Field Lab/Plant Growth,Eastbound Mowry RD @ Farside Hull RD,9
460,Towne Parc Apartments,Northbound SW 23rd TER @ Farside SW 31st PL,9
1192,Turlington Hall,Southbound Newell DR @ Farside Union RD,9
1482,Lake Alice Conservation Area,Westbound Mowry Rd @ Nearside SW 23 Dr,9
514,Westbound NW 23rd Avenue @ NW 63rd Terrace,Westbound NW 23rd AVE @ Farside NW 63rd TER,10
1206,Arlington Square Apartments,Northbound SE 3rd ST @ Nearside SE 2nd PL,10
494,Westbound NW 16th Avenue @ NW 18th Street,Westbound NW 16th AVE @ Farside NW 18th ST,10
146,Holiday Inn @ W University Avenue,Westbound W University AVE @ Nearside SW 13th ST,10
500,NW 27th Terrace @ NW 16th Avenue,Westbound NW 16th AVE @ Nearside NW 27th TER,10
515,Hickory Woods Neighborhood,Westbound NW 23rd AVE @ Nearside NW 68th TER,10
518,Santa Fe College @ NW 83rd Street,Northbound NW 83rd ST @ Farside NW 23rd AVE,10
523,Shenandoah Neighborhood,Eastbound NW 23rd AVE @ Farside NW 77th TER,10
201,Leonardo's Pizza By The Slice,Eastbound W University AVE @ Farside SW 13th ST,10
522,The Pentecostals of Gainesville,Eastbound NW 23rd AVE @ Farside NW 83rd ST,10
435,State Farm Insurance @ NW 13th Street,Southbound NW 13th ST @ Farside NW 12th AVE,10
1216,Arlington Square Apartments,Southbound SE 3rd ST @ Nearside SE 2nd PL,10
535,B'Nai Israel School & Day Care,Eastbound NW 16th BLVD @ Nearside NW 38th TER,10
632,Florida School of Traditional Midwifery,Westbound E University AVE @ Farside NE 8th ST,11
614,Southbound NE 24th Street @ NE 8th Avenue,Southbound NE 24th ST @ Nearside NE 8th AVE,11
564,MLK Center,Northbound Waldo RD @ Farside NE 8th AVE,11
591,Compassionate Outreach,Southbound SE 43rd ST @ Nearside SE 4th AVE,11
590,Southbound SE 43rd Street @ E University Avenue,Southbound SE 43rd ST @ Farside E University AVE,11
573,Northbound NE 24th Street @ NE 10th Avenue,Northbound NE 24th ST @ Nearside NE 10th AVE,11
568,Mount Zion Church of God,Southbound NE 19th ST @ Nearside NE 8th AVE,11
107,Health Department,Southbound Alachua County Health Department @ Far*,11
630,Southbound NE 9th Street @ NE 3rd Avenue,Southbound NE 9th ST @ Nearside NE 3rd AVE,11
1254,Gator Corner Dining Facility @ Gale Lemerand,Northbound Gale Lemerand DR @ Nearside Stadium RD,12
1193,Rawlings Hall,Southbound Newell DR @ Nearside McCarty DR,12
208,Bo Diddley Community Plaza,Eastbound E University AVE @ Nearside E 3st ST,15
748,Fearnside Family Services Center,Southbound NE 15th ST @ Farside NE 39th AVE,15
707,Pine Grove Apartments,Northbound NE 2nd ST @ Nearside NE 21st LN,15
711,Chelsea Apartments Eastbound,Eastbound NE 23rd AVE @ Nearside NE 9th ST,15
703,US Post Office @ Main St,Northbound N Main ST @ Nearside NE 14th AVE,15
788,Winn Dixie @ SW 16th Avenue,Westbound SW 16th AVE @ Nearside SW 6th ST,16
783,Chevron Gas Station @ Williston Road,Southbound Williston RD @ Farside SE 4th ST,16
790,Parklands Rehab & Nursing Center,Westbound SW 16th AVE @ Farside SW 10th TER,16
64,Sugarhill Neighborhood @ SE 4th Street,Southbound SE 4th ST @ Nearside SE 19th PL,16
1420,Southbound SW 13th ST @ SW 13th AVE,Southbound SW 13 ST @ SW 13th AVE,16
1487,New RTS Maintenance Facility North,Northbound SE 1st St @ SE 13th AVE,17
773,Arbor Park Apartments,Eastbound SW 16th AVE @ Farside SW 6th ST,17
1488,New RTS Maintenance Facility South,Southbound SE 1st St @ SE 13th AVE,17
118,Shands Cancer Hospital,Eastbound SW Archer Rd Farside SW 16th St,17
966,Weimer Hall,Eastbound Stadium RD @ Farside Gale Lemerand DR,20
1253,Graham Hall,Northbound Gale Lemerand DR @ Farside Museum RD,20
840,Hilton University of Florida Conference Center,Northbound SW 34th ST @ Nearside Hull RD,20
814,Pinetree Gardens,Westbound SW 20th AVE @ Farside SW 40th TER,20
1271,Marchwood Townhomes,Southbound SW 43rd ST @ Farside SW 20th LN,21
842,Southwest Recreation Center,Northbound Bledsoe DR @ Farside Hull RD,21
848,Lake Alice Field,Eastbound Museum RD @ Farside Fraternity DR,21
1272,Eastbound SW 24th Avenue @ SW 43rd Street,Southbound SW 43rd St @ Nearside SW 24th AVE,21
846,Lakeside Residential Complex,Eastbound Radio RD @ Nearside Museum RD,21
847,Corry Village,Northbound Museum RD @ Nearside Village DR,21
1557,The Ridge @ SW 38th TER northbound,Northbound SW 38th TER @ Farside SW 24th AVE,21
803,UF Counseling and Wellness Center,Westbound Radio RD @ Nearside Bledsoe DR,21
807,University Village South Apartments,Westbound Hull RD @ Nearside SW 34th ST,21
1556,The Ridge @ SW 38th TER southbound,Southbound SW 38th TER @ Nearside SW 24th AVE,21
1098,North Florida Regional Medical Center,Westbound Newberry RD @ Nearside NW 66th ST,23
176,Panera Bread @ Newberry Road,Eastbound Newberry RD @ Farside NW 62nd ST,23
521,Santa Fe College,Eastbound NW South RD @ Nearside NW 83rd ST,23
877,Quick Mart @ NE 15th Street,Northbound NE 15th ST @ Nearside NE 39th AVE,24
903,Southbound NE 9th Street @ NE 14th Avenue,Southbound NE 9th ST @ Nearside NE 14th AVE,24
893,Bertie Heating & Air,Eastbound NE 23rd AVE @ Nearside NE 17th TER,24
1443,North Point @ Ironwood,Southbound NE 15th ST @ Nearside NE 47th PL,24
910,UF Health Family Medicine Eastside,Southbound Waldo RD @ Farside NE 5th AVE,24
469,Commuter Lot Parking Garage @ Gale Lemerand,Northbound Gale Lemerand DR @ Farside Mowry RD,25
910,UF Health Family Medicine Eastside,Southbound Waldo RD @ Farside NE 5th AVE,25
200,Anderson Hall,Eastbound W University AVE @ Nearside NW 15th ST,25
910,UF Health Family Medicine Eastside,Southbound Waldo RD @ Farside NE 5th AVE,26
1165,Hills Mini Storage,Westbound NE 39th Ave @ Farside Waldo Rd,26
1,Rosa Parks RTS Downtown Station,Northbound SE 3rd ST @ Nearside SE 3rd ST,26
915,Triangle Club,Westbound SE 4th AVE @ Farside SE 11th ST,26
1261,Gardenia Garden Apartments,Westbound NE 8th AVE @ Farside NE 17th DR,26
748,Fearnside Family Services Center,Southbound NE 15th ST @ Farside NE 39th AVE,26
749,Village Green Apartments,Southbound NE 15th ST @ Farside NE 31st AVE,26
878,Ironwood Golf Course,Eastbound NE 39th AVE @ Farside Waldo RD,26
898,Rose Food Store,Westbound NE 16th AVE @ Nearside NE 16th WAY,26
1201,Greyhound Station,Westbound NW 23rd AVE @ Nearside N Main ST,27
1415,Family Dollar @ NE 23rd AVE,Westbound NE 23rd AVE @  N Main ST,27
282,Greater Bethel African Methodist Episcopal Church,Southbound NW 6th ST @ Farside NW 6th AVE,27
55,Second Avenue Center Apartments,Eastbound SW 2nd AVE @ Farside SW 6th ST,27
837,Southwest Villas Apartments,Eastbound SW 20th AVE @ Nearside SW 37th WAY,28
840,Hilton University of Florida Conference Center,Northbound SW 34th ST @ Nearside Hull RD,28
803,UF Counseling and Wellness Center,Westbound Radio RD @ Nearside Bledsoe DR,28
939,Orthopaedics and Sports Medicine Institute,Southbound SW 34th ST @ Nearside Hull RD,28
1176,Fifield Hall,Eastbound Hull RD @ Nearside Mowry RD,33
191,Westgate Plaza,Eastbound SW 2nd AVE @ Farside SW 34th ST,34
954,Enclave Apartments,Westbound SW 28th PL @ Farside SW 28th PL,34
1475,President's Park,Westbound SW 2nd Ave @ Nearside SW 23rd St,34
1140,Southbound SW 27th Street @ SW 35th Place,Southbound SW 27th ST @ Farside SW 35th PL,35
840,Hilton University of Florida Conference Center,Northbound SW 34th ST @ Nearside Hull RD,36
466,Forestry Field Lab/Plant Growth,Eastbound Mowry RD @ Farside Hull RD,36
1310,Williston Plaza,Northbound SW 47th AVE @ Nearside SW 34th ST,36
1308,US Post Office @ SW 34th Street,Southbound SW 34th ST @ Nearside SW 47th AVE,36
661,Regions Bank @ SW 37th Boulevard,Southbound SW 37th BLVD @ Nearside SW 38th ST,36
661,Regions Bank @ SW 37th Boulevard,Southbound SW 37th BLVD @ Nearside SW 38th ST,37
1493,Butler Plaza Transfer Station,Westbound SW 30th Place @ Farside SW 42nd Street,37
456,Arbor Park Apartments,Eastbound SW 35th PL @ Nearside SW 27th TER,37
946,Victoria Station Apartments,Eastbound SW 35th PL @ Farside SW 32nd TER,37
469,Commuter Lot Parking Garage @ Gale Lemerand,Northbound Gale Lemerand DR @ Farside Mowry RD,37
473,Reitz Union,Southbound McCarty DR @ Nearside Museum RD,37
636,Greenwich Green Apartments,Eastbound SW 37th BLVD @ Nearside SW 34th ST,37
35,Silver Creek Apartments,Eastbound Archer RD @ Farside SW 34th ST,38
1253,Graham Hall,Northbound Gale Lemerand DR @ Farside Museum RD,38
1269,Archer Court Apartments,Westbound Old Archer RD @ Nearside SW 28th Pl,38
1525,Northbound NW 34th St. @ NW 31st Blvd,Northbound NW 34th St. @ Nearside NW 31st Blvd,40
934,Campus Church of Christ,Westbound SW 2nd AVE @ Farside SW 26th ST,40
1012,Autumn Woods Neighborhood,Eastbound NW 39th AVE @ Nearside NW 48th TER,43
442,Southbound SW 13th Street @ Inner Road,Southbound SW 13th ST @ Nearside Inner RD,43
1008,Greystone Community,Eastbound NW 39th AVE @ Nearside NW 63rd ST,43
185,Urgent Care Center,Eastbound Newberry RD @ Farside NW 43rd ST,43
186,Life South Blood Center,Eastbound Newberry RD @ Nearside NW 39th ST,43
987,Millhopper Branch Library,Northbound NW 43rd ST @ Farside NW 31st AVE,43
659,Shands Hospital @ Parking Garage 9,Southbound Gale Lemerand DR @ Farside Archer RD,43
163,Allstate Insurance @ Newberry Road,Westbound Newberry RD @ Nearside NW 39th ST,43
990,Magnolia Park Neighborhood,Westbound NW 39th AVE @ Nearside NW 46th TER,43
998,Springhill Professional Center,Southbound NW 83rd ST @ Farside NW 39th AVE,43
150,University Lutheran Church,Westbound W University AVE @ Nearside NW 19th ST,43
1199,VA Hospital @ Archer Rd,Eastbound Archer RD @ Farside Center DR,43
1216,Arlington Square Apartments,Southbound SE 3rd ST @ Nearside SE 2nd PL,46
1159,Phi Kappa Tau,Eastbound SW 2nd AVE @ Farside SW 13th ST,46
1548,Sam's Club,Eastbound SW 33rd PL @ Nearside SW 37th Blvd,75
1051,Walgreens @ SW 24th Avenue,Eastbound SW 24th AVE @ Farside SW 75th ST,75
1050,Bellamy Grand,Northbound SW 75th ST @ Nearside SW 24th AVE,75
1039,Kanapaha Station Plaza,Westbound Archer RD @ Nearside SW 66th ST,75
1042,Publix @ Tower Square on SW 75th Street,Northbound SW 75th ST @ Farside Archer RD,75
1094,Clarion Inn,Northbound SW 75th ST @ Nearside Newberry RD,75
1036,Westgate Mobile Manor Park,Westbound Archer RD @ Farside SW 58th DR,75
1117,Tower Square @ SW 75th Street,Southbound SW 75th ST @ Farside SW 58th PL,75
1127,The Reserve at Kanapaha,Eastbound Archer RD @ Nearside SW 44th ST,75
1115,Stillwind Neighborhood,Southbound SW 75th ST @ Farside SW 51st BLVD,75
1120,Business Park Self Storage,Eastbound Archer RD @ Nearside SW  66th ST,75
1118,Arredondo Farms,Eastbound Archer RD @ Farside SW 75th ST,75
1111,Kenwood Neighborhood,Southbound SW 75th ST @ Farside SW 36th AVE,75
1184,Weed Science Building,Northbound Museum RD @ Farside Hull RD,118
800,Corry Village,Southbound Museum RD @ Farside Village DR,118
927,Ben Hill Griffin Stadium North End Zone,Southbound Gale Lemerand DR @ Farside W Universit*,118
842,Southwest Recreation Center,Northbound Bledsoe DR @ Farside Hull RD,119
1146,Beta Theta Pi across Springs,Eastbound Fraternity Row @ Nearside Woodlawn DR,119
1189,Corry Village,Westbound West Fraternity DR @ Nearside Village DR,119
480,Mt Vernon Apartments,Southbound SW 23rd DR @ Nearside Archer RD,122
469,Commuter Lot Parking Garage @ Gale Lemerand,Northbound Gale Lemerand DR @ Farside Mowry RD,122
1353,College Park @ NW 17th ST,Northbound NW 17th ST @ Nearside NW 3rd AVE,122
1359,Gainesville Healthcare Center,Northbound SW 16th ST @ Nearside Circle of Hope,122
925,The HUB,Eastbound Stadium RD @ Nearside Buckman DR,122
1408,Eastbound NW 5th AVE @ NW 17th ST,Westbound NW 5th AVE @ Nearside NW 17th ST,122
474,Commuter Lot Parking Garage,Southbound Gale Lemerand DR @ Farside Museum RD,122
1506,The Trophy Shop,Westbound NW 7th Ave @ Nearside NW 13th St,122
1217,Schiebler Childrens Medical Facility,Westbound SW 16th AVE @ Nearside Shealy DR,122
966,Weimer Hall,Eastbound Stadium RD @ Farside Gale Lemerand DR,125
801,UF Bat Houses,Southbound Museum RD @ Nearside Radio RD,125
1179,Pressly Softball Stadium,Westbound Hull RD @ Farside Natural Area DR,125
798,Sigma Alpha Epsilon,Westbound Museum RD @ Nearside Woodlawn DR,126
12,Norman Field @ SW 8th Avenue,Westbound SW 8th AVE @ Farside SW 12th ST,126
1187,Microbiology/Cell Science Building,Southbound Museum RD @ Nearside Radio RD,126
1356,Dauer Hall,Southbound Buckman DR @ Nearside Union DR,126
1186,Lakeside Residential Building,Southbound Museum RD @ Farside Radio RD,126
200,Anderson Hall,Eastbound W University AVE @ Nearside NW 15th ST,126
927,Ben Hill Griffin Stadium North End Zone,Southbound Gale Lemerand DR @ Farside W Universit*,126
1209,Oxford Terrace Apartments,Southbound SW 9th ST @ Nearside SW Depot AVE,126
1295,Stratford Court Apartments,Southbound SW 10th ST @ Nearside SW 6th AVE,126
1328,Eastbound SW 7th AVE @ SW 10th ST,Eastbound SW 7th AVE @ Nearside SW 10th ST,127
1248,Parkside II Apartments,Westbound Depot AVE @ Nearside SW 11th ST,127
315,Eastbound SE 21st Avenue @ SE 32nd Terrace,Eastbound SE 21st AVE @ Nearside SE 32 TER,711
307,Southeast Gator Liquor @ Hawthorne Road,Eastbound Hawthorne RD @ Farside SE 24th ST,711
311,Southbound SE 27th Street @ SE 15th Avenue,Southbound SE 27th ST @ Farside SE 15th AVE,711
569,Duval Elementary School,Eastbound NE 8th AVE @ Farside NE 20th ST,711
556,Northbound NE 9th Street @ E University Avenue,Northbound NE 9th ST @ Farside E University AVE,711
317,Northbound SE 35th Street @ SE 20th Avenue,Northbound SE 35th ST @ Nearside SE 18th AVE,711
314,Faith Missionary Church,Eastbound SE 21st AVE @ Nearside SE 30th Dr,711
573,Northbound NE 24th Street @ NE 10th Avenue,Northbound NE 24th ST @ Nearside NE 10th AVE,711
1216,Arlington Square Apartments,Southbound SE 3rd ST @ Nearside SE 2nd PL,711
1185,Microbiology/Cell Science Building,Northbound Museum RD @ Farside Radio Rd,121
16,UF Health,Southbound Center DR @ Nearside Mowry RD,121
1254,Gator Corner Dining Facility @ Gale Lemerand,Northbound Gale Lemerand DR @ Nearside Stadium RD,121
1486,Village Point 3,Southbound SW 38th TER @ Farside Hull RD,33
1066,KISS 105.3 FM Station,Westbound SW 24th AVE @ Farside SW 70th TER,76
819,Rockwood Villas Apartments,Northbound SW 62nd BLVD @ Farside SW 9th PL,76
98,SE Hawthorne Rd @ SE 18th St Eastbound,Eastbound Hawthorne RD @ Farside SE 21st ST,2
131,Westbound SE 22nd Avenue @ SE 13th Street,Westbound SE 22nd AVE @ Nearside SE 13th ST,2
1496,Save A LOT Food Store,Westbound SE Hawthorne Rd @ Farside SE 24th St,2
1439,Cohens Temple,Northbound NE 15th ST @ Nearside NE 5th PL,2
898,Rose Food Store,Westbound NE 16th AVE @ Nearside NE 16th WAY,3
103,Northbound SE 24th Street @ E University Avenue,Northbound SE 24th ST @ Nearside E University AVE,3
67,Eastbound SE 22nd Avenue @ SE 13th Street,Eastbound SE 22nd AVE @ Nearside SE 13th ST,3
1465,NE 18th St,Southbound NE 18th ST @ Farside NE 5th Ave,3
1463,NE 18 ST @ NE 3 AVE,Southbound NE 18 ST @ Farside NE 3 AVE,3
221,Sixth Street Plaza,Northbound NW 6th ST @ Nearside NW 19th AVE,6
1505,Planned Furnishings,Northbound SW 6th ST @ Nearside University Avenue,6
412,Northwood Pines Neighborhood,Southbound NW 34th ST @ Nearside NW 23rd TER,6
237,Sandy's Boutique,Southbound NW 13th ST @ Farside NW 42nd AVE,6
281,Jon Uman Attorney,Southbound NW 6th ST @ Nearside NW 8th PL,6
96,Northbound SE 15th Street @ SE 3rd Avenue,Northbound SE 15th ST @ Nearside SE 3rd Ave,7
308,Eastbound Hawthorne Road @ SE 26th Street,Eastbound Hawthorne RD @ Nearside SE 26th ST,7
1,Rosa Parks RTS Downtown Station,Northbound SE 3rd ST @ Nearside SE 3rd ST,7
319,Northbound SE 35th Street @ SE 16th Avenue,Northbound SE 35th ST @ Farside SE 16th AVE,7
294,Tools for Schools,Eastbound SE 11th ST @ Farside SE 7th AVE,7
324,Eastside High School,Northbound SE 43rd ST @ Farside SE 13th AVE,7
301,Eastbound University Avenue @ SE 15th Street,Eastbound E University AVE @ Farside SE 15th ST,7
349,Westbound E University Avenue @ NE 16th Street,Westbound E University AVE @ Nearside NE 16th ST,7
338,Durelle Heights Neighborhood,Northbound SE 27th ST @ Nearside SE 18th AVE,7
101,SE 24th Street - Dollar General Store,Northbound SE 24th ST @ Farside Hawthorne RD,7
439,NW 13th St @ Nearside NW 3rd Pl Southbound,Southbound NW 13th ST @ Nearside NW 3rd PL,8
434,Direct Auto Insurance,Southbound NW 13th ST @ Farside NW 14th AVE,8
373,Furniture Kingdom,Westbound NW 23rd AVE @ Farside NW 13th ST,8
454,Northbound SW 27th Street @ SW 35th Place,Northbound SW 27th ST @ Nearside SW 35th PL,9
469,Commuter Lot Parking Garage @ Gale Lemerand,Northbound Gale Lemerand DR @ Farside Mowry RD,9
483,University Club Apartments,Southbound SW 23rd TER @ Nearside SW 31 PL,9
511,First Church of the Nazarene,Westbound NW 23rd AVE @ Nearside NW 51st ST,10
496,Forest Ridge Neighborhood,Westbound NW 16th AVE @ Nearside NW 22nd ST,10
364,McDonald's @ SW 13th Street,Northbound NW 13th ST @ Nearside W University AVE,10
537,Willowcroft Neighborhood,Eastbound NW 16th BLVD @ Farside NW 35th WAY,10
539,Brywood Neighborhood,Eastbound NW 16th AVE @ Farside NW 27th TER,10
534,Eastbound NW 16th Boulevard @ NW 39th Drive,Eastbound NW 16th BLVD @ Nearside NW 39th DR,10
611,Northbound NE 25th Street @ NE 11th Place,Northbound NE 25th ST @ Nearside NE 11th PL,11
578,Southbound NE 25th Street @ NE 8th Avenue,Southbound NE 25th ST @ Nearside NE 8th AVE,11
556,Northbound NE 9th Street @ E University Avenue,Northbound NE 9th ST @ Farside E University AVE,11
1234,NE Walmart Supercenter,Eastbound NE 12th AVE @ Farside Waldo RD,11
644,Kangaroo @ SW 34th Street,Northbound SW 34th ST @ Farside SW 35th AVE,12
723,Highland Court,Westbound NE 39th AVE @ Nearside NE 11th TER,15
699,Partnership for Strong Families,Northbound N Main ST @ Farside NE 6th AVE,15
787,Treehouse Village Apartments,Westbound SE 16th AVE @ Nearside S Main ST,16
1254,Gator Corner Dining Facility @ Gale Lemerand,Northbound Gale Lemerand DR @ Nearside Stadium RD,20
811,Pinnacle Point Apartments,Westbound SW 20th AVE @ Farside SW 38th ST,20
1193,Rawlings Hall,Southbound Newell DR @ Nearside McCarty DR,21
1326,UF Counseling and Wellness Center,Eastbound Radio RD @ Farside Bledsoe DR,21
1253,Graham Hall,Northbound Gale Lemerand DR @ Farside Museum RD,21
469,Commuter Lot Parking Garage @ Gale Lemerand,Northbound Gale Lemerand DR @ Farside Mowry RD,21
801,UF Bat Houses,Southbound Museum RD @ Nearside Radio RD,21
804,Family Housing,Southbound Bledsoe DR @ Farside Radio RD,21
1279,Hidden Oak Elementary School,Northbound Fort Clarke BLVD @ Farside NW 89th DR,23
518,Santa Fe College @ NW 83rd Street,Northbound NW 83rd ST @ Farside NW 23rd AVE,23
520,Santa Fe,Westbound Santa Fe College @ Farside Santa Fe Col*,23
872,University of Florida Eastside Campus @ Waldo Road,Northbound Waldo RD @ Nearside NE 23rd AVE,24
753,Smokey Bear Park,Southbound NE 15th ST @ Nearside NE 23rd AVE,24
7,Innovation Square West,Westbound SW 2nd AVE @ Nearside SW 10th ST,25
913,Southbound SE 11th Street @ SE 2nd Avenue,Southbound SE 11th ST @ Nearside SE 2nd AVE,25
925,The HUB,Eastbound Stadium RD @ Nearside Buckman DR,25
197,Ben Hill Griffin Stadium,Eastbound W University AVE @ Farside Gale Lemeran*,25
57,Hippodrome Theatre,Eastbound SE 2nd AVE @ Nearside SE 1st ST,25
1216,Arlington Square Apartments,Southbound SE 3rd ST @ Nearside SE 2nd PL,25
4,The Continuum,Westbound SW 2nd AVE @ Nearside SW 6th ST,25
896,University of Florida Eastside Campus @ Waldo Road,Southbound Waldo RD @ Farside NE 21st PL,25
1316,Super Wal-Mart @ Waldo Road,Southbound Waldo RD @ Nearside NE 12th AVE,25
568,Mount Zion Church of God,Southbound NE 19th ST @ Nearside NE 8th AVE,26
920,GRU Administration Building,Westbound SE 4th AVE @ Nearside SE 4th ST,26
720,Fearnside Family Services Center Northbound,Northbound NE 15th ST @ Nearside NE 39th AVE,26
853,Northbound SE 11th Street @ SE 2nd Avenue,Northbound SE 11th ST @ Nearside SE 2nd AVE,26
1235,NE Walmart Supercenter,Westbound NE 12th AVE @ Nearside Waldo RD,26
759,Pine Grove Apartments,Southbound NE 2nd ST @ Farside NE 21st LN,27
1351,Hailey Gardens,Northbound SW 43rd ST @ Nearside SW 22nd LN,28
1161,Springs Residence Building,Westbound Fraternity Row @ Farside Woodlawn DR,28
1189,Corry Village,Westbound West Fraternity DR @ Nearside Village DR,28
801,UF Bat Houses,Southbound Museum RD @ Nearside Radio RD,28
1557,The Ridge @ SW 38th TER northbound,Northbound SW 38th TER @ Farside SW 24th AVE,33
926,Leigh Hall,Northbound Buckman DR @ Nearside W University AVE,34
808,Hilton University of Florida Conference Center,Southbound SW 34th ST @ Nearside SW 19th AVE,34
925,The HUB,Eastbound Stadium RD @ Nearside Buckman DR,36
16,UF Health,Southbound Center DR @ Nearside Mowry RD,36
1254,Gator Corner Dining Facility @ Gale Lemerand,Northbound Gale Lemerand DR @ Nearside Stadium RD,37
947,Gainesville Place Apartments @ SW 35th Place,Eastbound SW 35th PL @ Farside SW 28th TER,37
454,Northbound SW 27th Street @ SW 35th Place,Northbound SW 27th ST @ Nearside SW 35th PL,37
1137,Savannah Place Apartments,Westbound SW 35th PL @ Farside SW 23rd TER,37
1302,Greenwich Green Apartments,Westbound SW 39th BLVD @ Nearside SW 34th ST,37
954,Enclave Apartments,Westbound SW 28th PL @ Farside SW 28th PL,38
654,Shands Hospital @ Davis Cancer Pavilion,Northbound Gale Lemerand DR @ Farside Archer RD,38
1341,Enclave 4,Eastbound Enclave Apartments @ Nearside Enclave A*,38
1388,Sable Chase Neighborhood,Eastbound NW 39th AVE @ Farside NW 35th ST,40
926,Leigh Hall,Northbound Buckman DR @ Nearside W University AVE,40
1535,Northbound NW 34th St. @ NW 31st Ave,Northbound NW 34th St. @ Nearside NW 31st Ave,40
150,University Lutheran Church,Westbound W University AVE @ Nearside NW 19th ST,40
1009,Faith Presbyterian Church,Eastbound NW 39th AVE @ Farside NW 63rd ST,43
1017,Sunstate Insurance,Southbound NW 43rd ST @ Nearside NW 27th AVE,43
1019,Millhopper Plaza,Southbound NW 43rd ST @ Farside NW 23rd AVE,43
1006,Robin Lane Neighborhood,Eastbound NW 39th AVE @ Farside NW 75th ST,43
999,Northridge Neighborhood,Southbound NW 83rd ST @ Nearside NW 36th AVE,43
981,Northbound NW 43rd Street @ NW 16th Place,Northbound NW 43rd ST @ Nearside NW 16th PL,43
158,Westgate Plaza,Westbound W University AVE @ Farside SW 34th ST,43
1000,The Arc,Southbound NW 83rd ST @ Farside North RD,43
361,Norman Hall,Northbound SW 13th ST @ Nearside SW 5th AVE,43
159,Fire Station @ W University Ave,Westbound W University AVE @ Nearside NW 36th ST,43
118,Shands Cancer Hospital,Eastbound SW Archer Rd Farside SW 16th St,43
925,The HUB,Eastbound Stadium RD @ Nearside Buckman DR,46
56,Eastbound SW 2nd Ave @ SW 2nd St,Eastbound SW 2nd AVE @ Nearside SW 2nd ST,46
1056,Linton Oaks Neighborhood,Northbound SW 61st ST @ Farside SW 20th AVE,75
1082,Sparrow Apartments,Northbound SW 75th ST @ Farside SW 8th AVE,75
176,Panera Bread @ Newberry Road,Eastbound Newberry RD @ Farside NW 62nd ST,75
1089,Harbor Cove Apartments,Eastbound W University AVE @ Nearside NW 4th BLVD,75
1027,Best Buy @ Butler Plaza,Southbound SW 37th BLVD @ Nearside Archer RD,75
1102,Advance Auto Parts,Southbound NW 75th ST @ Farside NW 4th BLVD,75
1145,Fraternity Row II across Springs,Eastbound Fraternity Row @ Farside W Fraternity R*,119
1191,Family Housing,Southbound Family Housing @ Farside Hull RD,119
39,The Bartram Apartments,Eastbound Archer RD @ Farside SW 23rd DR,122
468,Parking & Transportation Services,Northbound Gale Lemerand DR @ Farside Mowry RD,122
1219,Webb Livestock Pavilion,Northbound Shealy DR @ Nearside SW 16th AVE,122
1177,Fifield Hall,Westbound Hull RD @ Farside Mowry RD,122
1199,VA Hospital @ Archer Rd,Eastbound Archer RD @ Farside Center DR,122
797,Hume Hall,Westbound Museum RD @ Farside Gale Lemerand DR,125
842,Southwest Recreation Center,Northbound Bledsoe DR @ Farside Hull RD,126
800,Corry Village,Southbound Museum RD @ Farside Village DR,126
1145,Fraternity Row II across Springs,Eastbound Fraternity Row @ Farside W Fraternity R*,126
196,Pressly Stadium,Eastbound SW 2nd AVE @ Farside Woodlawn DR,126
12,Norman Field @ SW 8th Avenue,Westbound SW 8th AVE @ Farside SW 12th ST,127
10,Norman Hall,Southbound SW 12th ST @ Farside SW 6th AVE,127
1452,Campus Walk @ SW 9th St,Southbound SW 9th ST @ Nearside SW 8th AV,127
555,Eastbound E University Avenue @ SE 8th Street,Eastbound E University AVE @ Nearside SE 8th ST,711
576,Southbound NE 25th Street @ NE 11th Place,Southbound NE 25th ST @ Farside NE 11th PL,711
575,Eastbound NE 12th Avenue @ NE 24th Terrace,Eastbound NE 12th AVE @ Farside NE 24th TER,711
578,Southbound NE 25th Street @ NE 8th Avenue,Southbound NE 25th ST @ Nearside NE 8th AVE,711
320,Kangaroo @ SE 35th Street,Northbound SE 35th ST @ Nearside Hawthorne RD,711
108,SE 24th Street at Hawthorne Road,Southbound SE 24th ST @ Nearside Hawthorne RD,711
579,Southbound NE 25th Street @ NE 6th Avenue,Southbound NE 25th ST @ Nearside NE 6th AVE,711
634,Alachua County School Board Administration,Westbound E University AVE @ Nearside NE BLVD,711
627,Southbound NE 9th Street @ NE 7th Avenue,Southbound NE 9th ST @ Nearside NE 7th AVE,711
611,Northbound NE 25th Street @ NE 11th Place,Northbound NE 25th ST @ Nearside NE 11th PL,711
998,Springhill Professional Center,Southbound NW 83rd ST @ Farside NW 39th AVE,800
1493,Butler Plaza Transfer Station,Westbound SW 30th Place @ Farside SW 42nd Street,800
999,Northridge Neighborhood,Southbound NW 83rd ST @ Nearside NW 36th AVE,800
1001,Santa Fe College @ NW 83rd Street,Southbound NW 83rd ST @ Nearside Administration RD,800
1004,Windsor Assisted Living,Northbound NW 83rd ST @ Farside NW 36th AVE,800
1136,Wilmot Gardens,Westbound Mowry RD @ Nearside Gale Lemerand DR,121
524,Quail Ridge Neighborhood,Eastbound NW 23rd AVE @ Nearside NW 71st ST,76
172,Oaks Mall SW 62nd Blvd,Southbound NW 62nd ST @ Farside NW 1st PL,76
1402,Westbound SW 87th Dr @ SW 91st St,Westbound SW 87th DR @ Nearside SW 91st ST,76
516,Quail Ridge Neighborhood,Westbound NW 23rd AVE @ Nearside NW 71st ST,76
175,Oaks Mall SW 62nd Blvd,Northbound NW 62nd ST @ Nearside Newberry RD,76
1407,Eastbound SW 24th AVE @ SW 76th ST,Eastbound SW 24th AVE @ Farside SW 76th ST,76
1235,NE Walmart Supercenter,Westbound NE 12th AVE @ Nearside Waldo RD,3
346,Westbound E University Avenue @ SE 21st Street,Westbound E University AVE @ Nearside SE 21st ST,3
92,Lincoln Estates,Northbound SE 19th TER @ Nearside SE 8th AVE,3
1553,Health Department,Southbound SE 24th ST @ Farside SE 2nd AVE,3
1585,NW 6th St @ NW 3rd Ave,Northbound NW 6th St @ NW 3rd Ave,6
220,Medical Marihuana Treatment Center,Northbound NW 6th ST @ Nearside NW 16th AVE,6
402,ABC Liquor Store @ NW 34th Street,Southbound NW 34th ST @ Nearside NW 58th AVE,6
239,Publix @ NW 39th Avenue,Southbound NW 13th ST @ Farside NW 39th AVE,6
313,Lana's Place,Eastbound SE 21st AVE @ Nearside SE 28 DR,7
300,Fast Eddie's Restaurant,Northbound SE 15th ST @ Nearside SE 1st AVE,7
350,Fast Eddie's Restaurant,Southbound SE 15th ST @ Farside SE 2nd AVE,7
343,Dollar General,Westbound Hawthorne RD @ Nearside SE 24th ST,7
465,Campus Edge Condominiums,Northbound SW 23rd DR @ Nearside Hull RD,9
508,NW 23rd Ave NW 43rd St,Westbound NW 16th BLVD @ Nearside NW 43rd ST,10
140,Alachua County Office of the State Attorney,Westbound W University AVE @ Nearside NW 2nd ST,10
365,Mother Earth Market,Northbound NW 13th ST @ Farside NW 5th AVE,10
525,Hickory Woods Neighborhood,Eastbound NW 23rd AVE @ Farside NW 68th TER,10
545,Colony Park Apartments,Eastbound NW 16th AVE @ Nearside NW 18th ST,10
1239,Caroline Manor Affordable Housing,Westbound E University AVE @ Nearside NE 25th ST,11
619,Bartley Temple United Methodist Church,Northbound NE 19th ST @ Farside NE 8th AVE,11
561,Eastbound NE 8th Avenue @ NE 11th Street,Eastbound NE 8th AVE @ Farside NE 11th ST,11
103,Northbound SE 24th Street @ E University Avenue,Northbound SE 24th ST @ Nearside E University AVE,11
738,Palms at Brook Valley Apartments,Eastbound NW 39th AVE @ Farside NW 12th ST,15
736,Wesley United Methodist Church,Westbound NW 23rd AVE @ Nearside NW 10th ST,15
292,The Cotton Club,Eastbound SE 7th AVE @ Nearside SE 9th ST,16
849,Hume Hall,Eastbound Museum RD @ Nearside Gale Lemerand DR,21
802,Lakeside Apartments,Westbound Radio RD @ Farside Museum RD,21
808,Hilton University of Florida Conference Center,Southbound SW 34th ST @ Nearside SW 19th AVE,21
1274,Krystal @ Newberry Road,Westbound Newberry RD @ Farside NW 76th ST,23
863,Northbound NE 9th Street @ NE 10th Place,Northbound NE 9th ST @ Nearside NE 10th PL,24
851,Eastbound SE 4th Avenue @ SE 8th Street,Eastbound SE 4th AVE @ Nearside SE 8th ST,24
904,Southbound NE 9th Street @ Ne 10th Place,Southbound NE 9th ST @ Nearside NE 10th PL,24
561,Eastbound NE 8th Avenue @ NE 11th Street,Eastbound NE 8th AVE @ Farside NE 11th ST,24
1339,Merita Bread Box,Southbound Waldo RD @ Nearside NE 31st AVE,25
1338,Sonny's Barbecue @ Waldo Road,Southbound Waldo RD @ Farside NE 27th AVE,25
1254,Gator Corner Dining Facility @ Gale Lemerand,Northbound Gale Lemerand DR @ Nearside Stadium RD,25
1164,Merita Bread Box,Northbound Waldo RD @ Farside NE 31st AVE,25
870,Tacachale Center,Northbound Waldo RD @ Farside NE 16th AVE,25
1206,Arlington Square Apartments,Northbound SE 3rd ST @ Nearside SE 2nd PL,25
719,Village Green Apartments,Northbound NE 15th ST @ Farside NE 31st AVE,26
850,GRU Administration Building,Eastbound SE 4th AVE @ Farside SE 4th ST,26
718,Northbound NE 15th Street @ NE 31st Avenue,Northbound NE 15th ST @ Farside NE 31st AVE,26
1585,NW 6th St @ NW 3rd Ave,Northbound NW 6th St @ NW 3rd Ave,27
869,Fair View Apartments,Eastbound NE 16th AVE @ Nearside NE 16th TER,27
1450,Northside Shopping Center West,Northbound NE 1 BLVD @ Farside NW 23 AVE,27
900,Auto Audio,Westbound NE 16th AVE @ Nearside NE 12th ST,27
811,Pinnacle Point Apartments,Westbound SW 20th AVE @ Farside SW 38th ST,28
952,Gainesville Place Apartments,Northbound Gainesville Place Apartments @ Farside*,34
451,Lexington Crossing Apartments,Northbound SW 27th ST @ Farside SW 38th PL,34
959,Family Housing @ SW 34th Street,Northbound SW 34th ST @ Nearside Radio RD,34
958,34th Street Plaza,Northbound SW 34th ST @ Nearside SW 20th AVE,36
467,Cancer and Genetics Research,Eastbound Mowry RD @ Nearside Gale Lemerand DR,36
943,Kelly's Kwik Stop,Southbound SW 34th ST @ Farside SW 24th AVE,36
635,Gateway at Gainesville Apartments,Southbound SW 37th BLVD @ Farside SW 38th ST,37
1304,Regions Bank @ Archer Road,Northbound SW 39th BLVD @ Nearside Archer RD,37
485,Southwood Apartments,Southbound SW 23rd TER @ Farside SW 34 PL,37
1513,Westside Recreation Center,Northbound NW 34th St. @ Farside NW 8th Ave,40
1003,The Arc,Northbound NW 83rd ST @ Farside North RD,43
1022,Southbound NW 43rd Street @ NW 15th Place,Southbound NW 43rd ST @ Nearside NW 15th PL,43
6,720 SW 2nd Ave,Westbound SW 2nd AVE @ Nearside SW 8th ST,46
1038,A Child's Place,Westbound Archer RD @ Nearside SW 63rd BLVD,75
1071,Woodlands Neighborhood,Northbound SW 75th ST @ Nearside SW 10th PL,75
1085,The Gardens Apartments,Northbound SW 75th ST @ Nearside W University AVE,75
1594,AT&T Store @ NW 4th Place,NW 4th Pl Nearside NW 62nd Street,75
1101,Tower Plaza,Southbound NW 75th ST @ Farside Newberry RD,75
1122,Westgate Manor Park,Eastbound Archer RD @ Farside SW 51st LN,75
1549,Hilton Garden Inn,Westbound SW 33rd PL @ Nearside SW 42nd ST,75
1547,Sam's Club,Westbound SW 33rd PL @ Farside SW 37th Blvd,75
1112,Vet Mem PK,Southbound SW 75th ST @ Farside SW 42nd AVE,75
1104,The Gardens Apartments,Southbound SW 75th ST @ Nearside SW 1st PL,75
845,Lakeside,Eastbound Radio RD @ Nearside Museum RD,119
966,Weimer Hall,Eastbound Stadium RD @ Farside Gale Lemerand DR,119
196,Pressly Stadium,Eastbound SW 2nd AVE @ Farside Woodlawn DR,119
1475,President's Park,Westbound SW 2nd Ave @ Nearside SW 23rd St,119
803,UF Counseling and Wellness Center,Westbound Radio RD @ Nearside Bledsoe DR,119
464,Mt Vernon Apartments @ SW 23rd Drive,Northbound SW 23rd DR @ Farside Archer RD,122
847,Corry Village,Northbound Museum RD @ Nearside Village DR,125
1135,Shands Visitor Parking,Westbound Mowry RD @ Farside Center DR,125
1192,Turlington Hall,Southbound Newell DR @ Farside Union RD,125
797,Hume Hall,Westbound Museum RD @ Farside Gale Lemerand DR,126
361,Norman Hall,Northbound SW 13th ST @ Nearside SW 5th AVE,126
1180,Southwest Recreation Center,Westbound Hull RD @ Nearside Bledsoe DR,126
926,Leigh Hall,Northbound Buckman DR @ Nearside W University AVE,126
560,Northbound NE 9th Street @ NE 8th Avenue,Northbound NE 9th ST @ Nearside NE 8th AVE,711
323,Chevron Food Mart @ SE 43rd Street,Northbound SE 43rd ST @ Farside Hawthorne RD,711
570,Eastbound NE 8th Avenue @ NE 22nd Street,Eastbound NE 8th AVE @ Nearside NE 22nd ST,711
602,Pine Meadows Apartments,Westbound E University AVE @ Nearside NE 26th TER,711
1177,Fifield Hall,Westbound Hull RD @ Farside Mowry RD,121
966,Weimer Hall,Eastbound Stadium RD @ Farside Gale Lemerand DR,121
526,Eastbound NW 23rd Avenue @ NW 63rd Terrace,Eastbound NW 23rd AVE @ Nearside NW 63rd TER,76
824,Hampton Oaks Apartments,Southbound SW 62nd BLVD @ Farside NW 1st PL,76
1067,Carriage House Lane,Westbound SW 24th AVE @ Nearside SW 73rd TER,76
1398,Westbound SW 24th AVE @ SW 75th ST,Westbound SW 24th AVE @ Farside SW 75th ST,76
292,The Cotton Club,Eastbound SE 7th AVE @ Nearside SE 9th ST,3
345,Harper's Pointe,Westbound E University AVE @Nearside 22nd ST,3
254,Big Lot on NW 13th Street,Northbound NW 13th ST @ Farside NW 23rd AVE,6
1168,Northwood Oaks Neighborhood,Northbound NW 34th ST @ Farside NW 54th AVE,6
275,NW 6th St NW 23rd Ave,Southbound NW 6th ST @ Farside NW 21st AVE,6
295,Williams Elementary School,Eastbound SE 7th AVE @ Farside SE 12th TER,7
315,Eastbound SE 21st Avenue @ SE 32nd Terrace,Eastbound SE 21st AVE @ Nearside SE 32 TER,7
116,Waldo Rd @ SE 7th Avenue,Westbound SE 7th AVE @ Farside SE 11th ST,7
333,Southbound Se 35th Street @ SE 18th Avenue,Southbound SE 35th ST @ Farside SE 18th AVE,7
291,Eastbound SE 7th Avenue @ SE 8th Street,Eastbound SE 7th AVE @ Nearside SE 8th ST,7
423,Palmetto Woods Neighborhood,Eastbound NW 39th AVE @ Farside NW 22nd DR,8
139,City Hall,Westbound E University AVE @ Nearside NE 1st ST,10
543,Forest Ridge Neighborhood,Eastbound NW 16th AVE @ Nearside NW 22nd ST,10
585,Eastbound SE 25th Terrace @ E University Avenue,Eastbound E University AVE @ Farside SE 25th TER,11
575,Eastbound NE 12th Avenue @ NE 24th Terrace,Eastbound NE 12th AVE @ Farside NE 24th TER,11
722,Eden Park at Ironwood,Westbound NE 39th AVE @ Farside NE 14th ST,15
291,Eastbound SE 7th Avenue @ SE 8th Street,Eastbound SE 7th AVE @ Nearside SE 8th ST,16
293,Mt Moriah Baptist Church,Eastbound SE 7th AVE @ Nearside SE 10th TER,16
1192,Turlington Hall,Southbound Newell DR @ Farside Union RD,21
800,Corry Village,Southbound Museum RD @ Farside Village DR,21
853,Northbound SE 11th Street @ SE 2nd Avenue,Northbound SE 11th ST @ Nearside SE 2nd AVE,24
1442,North Point @ Ironwood,Northbound NE 15th ST @ Nearside NE 47th PL,24
855,Walgreens @ NE 3rd Avenue,Northbound Waldo RD @ Nearside NE 3rd AVE,25
897,Crab House,Southbound Waldo RD @ Farside Ne 18th PL,25
1193,Rawlings Hall,Southbound Newell DR @ Nearside McCarty DR,25
3,Westbound SW 2nd Avenue @ SW 2nd Street,Westbound SW 2nd AVE @ Nearside SW 2nd ST,25
752,NE 15th Street @ NE 26th Avenue,Southbound NE 15th ST @ Nearside NE 26th AVE,26
1502,Northbound Metcalfe Elementary School,Northbound NE 15th ST @ Nearside NE 18th AVE,26
1315,Super Wal-Mart @ Waldo Road,Northbound Waldo RD @ Farside NE 12th AVE,26
855,Walgreens @ NE 3rd Avenue,Northbound Waldo RD @ Nearside NE 3rd AVE,26
847,Corry Village,Northbound Museum RD @ Nearside Village DR,28
196,Pressly Stadium,Eastbound SW 2nd AVE @ Farside Woodlawn DR,28
946,Victoria Station Apartments,Eastbound SW 35th PL @ Farside SW 32nd TER,34
31,Regal  Cinema 14 @ Butler Plaza,Northbound Windmeadows BLVD @ Farside SW 35th BLVD,36
469,Commuter Lot Parking Garage @ Gale Lemerand,Northbound Gale Lemerand DR @ Farside Mowry RD,36
1176,Fifield Hall,Eastbound Hull RD @ Nearside Mowry RD,36
1492,Butler Plaza,Westbound Windmeadows Blvd @ Nearside SW 62nd Blvd,36
1180,Southwest Recreation Center,Westbound Hull RD @ Nearside Bledsoe DR,36
1177,Fifield Hall,Westbound Hull RD @ Farside Mowry RD,36
1309,Williston Plaza,Westbound SW 48th LN @ Nearside SW 34th ST,36
1520,Southbound NW 34th St. @ NW 21st Pl,Southbound NW 34th St. @ Nearside NW 21st Pl,40
1539,Possum Creek Park,Northbound NW 41st Ter @ Nearside NW 53rd Ave,40
984,Millhopper Plaza,Northbound NW 43rd ST @ Nearside NW 16th BLVD,43
7,Innovation Square West,Westbound SW 2nd AVE @ Nearside SW 10th ST,46
52,Eastbound SW 2nd Avenue @ SW 10th Street,Eastbound SW 2nd AVE @ Nearside SW 10th ST,46
1048,Kanapaha Park,Northbound SW 75th ST @ Nearside SW 36th AVE,75
1124,Dogwood Dog Park,Eastbound Archer RD @ Nearside SW 52nd TER,75
1123,Broken Arrow Bluff Community,Eastbound Archer RD @ Nearside SW 56th TER,75
1110,Tower Road Library,Southbound SW 75th ST @ Farside SW 26th AVE,75
801,UF Bat Houses,Southbound Museum RD @ Nearside Radio RD,119
802,Lakeside Apartments,Westbound Radio RD @ Farside Museum RD,119
1176,Fifield Hall,Eastbound Hull RD @ Nearside Mowry RD,122
1444,Alight Gainesville Apts,Soundbound NW 12th ST @ Nearside NW 7th AVE,122
438,The Gate Food Store @ NW 13th Street,Southbound NW 13th ST @ Nearside NW 5th AVE,122
1153,Tolbert Residence Hall,Southbound Gale Lemerand DR @ Farside Stadium RD,122
20,Mt Vernon Apartments,Westbound Archer RD @ Nearside SW 23rd DR,122
1413,College Park @ NW 17th ST,Southbound NW 17th ST @ Nearside NW 3rd AVE,122
847,Corry Village,Northbound Museum RD @ Nearside Village DR,126
324,Eastside High School,Northbound SE 43rd ST @ Farside SE 13th AVE,711
624,Sunny Food Mart,Westbound NE 8th AVE @ Farside NE 12th ST,711
1003,The Arc,Northbound NW 83rd ST @ Farside North RD,800
467,Cancer and Genetics Research,Eastbound Mowry RD @ Nearside Gale Lemerand DR,121
1481,Cancer/Genetics Research Complex,Eastbound Mowry Rd @ Farside SW 23 Dr,121
1135,Shands Visitor Parking,Westbound Mowry RD @ Farside Center DR,150
16,UF Health,Southbound Center DR @ Nearside Mowry RD,150
1501,NE 15th St @ NE 8th Ave,Northbound NE 15th St @ Nearside NE 8th Ave,2
1464,NE 18th St,Northbound NE 18th ST @ Farside NE 5th Ave,3
293,Mt Moriah Baptist Church,Eastbound SE 7th AVE @ Nearside SE 10th TER,3
108,SE 24th Street at Hawthorne Road,Southbound SE 24th ST @ Nearside Hawthorne RD,3
1479,Sorrento New Home Community,Westbound NW 53rd AVE @ Nearside NW 55th AVE,6
261,Sunshine Inn,Northbound NW 13th ST @ Nearside NW 42nd AVE,6
1170,Pine Ridge Apartments,Northbound NW 34th ST @ Nearside NW 23rd TER,6
108,SE 24th Street at Hawthorne Road,Southbound SE 24th ST @ Nearside Hawthorne RD,7
331,Eastside Food Store,Southbound SE 35th ST @ Farside Hawthorne RD,7
358,The Cotton Club,Westbound SE 7th AVE @ Nearside SE 9th ST,7
367,Xerographic Copy Center,Northbound NW 13th ST @ Nearside NW 10th AVE,10
546,NW 16th Ave NW 13th St,Eastbound NW 16th AVE @ Nearside NW 13th ST,10
592,Lake Forest Trails Neighborhood,Southbound SE 43rd ST @ Nearside SE 6th AVE,11
576,Southbound NE 25th Street @ NE 11th Place,Southbound NE 25th ST @ Farside NE 11th PL,11
553,Downtown Library,Northbound SE 3rd ST @ Nearside E University AVE,11
791,Oakbrook Walk Condominiums @ SW 16th Avenue,Westbound SW 16th AVE @ Nearside SW 13th ST,17
789,Sun Bay Apartments,Westbound SW 16th AVE @ Farside SW 6th ST,17
838,34th St Plaza,Eastbound SW 20th AVE @ Nearside SW 34th ST,21
798,Sigma Alpha Epsilon,Westbound Museum RD @ Nearside Woodlawn DR,21
797,Hume Hall,Westbound Museum RD @ Farside Gale Lemerand DR,21
1441,Lewis Place @ Ironwood Apartments,Northbound NE 15th ST @ Farside NE 13th AVE,24
864,Northbound NE 9th Street @ NE 14th Avenue,Northbound NE 9th ST @ Farside NE 14th AVE,24
716,NE 28th Avenue @ NE 15th Street,Northbound NE 15th ST @ Nearside NE 28th AVE,24
899,Michelle Garden Apartments,Westbound NE 16th AVE @ Nearside NE 15th ST,24
752,NE 15th Street @ NE 26th Avenue,Southbound NE 15th ST @ Nearside NE 26th AVE,24
902,Department of Children and Families,Westbound NE 16th AVE @ Nearside NE 9th ST,24
920,GRU Administration Building,Westbound SE 4th AVE @ Nearside SE 4th ST,24
857,Episcopal Children's Services Northbound,Northbound Waldo RD @ Nearside NE 8th AVE,25
909,Episcopal Children's Services,Southbound Waldo RD @ Farside NE 8th AVE,25
1253,Graham Hall,Northbound Gale Lemerand DR @ Farside Museum RD,25
704,Kangaroo @ N Main St,Northbound N Main ST @ Nearside NE 16th AVE,27
902,Department of Children and Families,Westbound NE 16th AVE @ Nearside NE 9th ST,27
1449,Gator City Motors SB N Main St,Southbound Main ST @ Nearside NW 16th AVE,27
959,Family Housing @ SW 34th Street,Northbound SW 34th ST @ Nearside Radio RD,28
846,Lakeside Residential Complex,Eastbound Radio RD @ Nearside Museum RD,28
1559,Clark Butler BLVD @ Plaza southbound,Southbound Clark Butler BLVD @ Nearside Plaza BLVD,28
1272,Eastbound SW 24th Avenue @ SW 43rd Street,Southbound SW 43rd St @ Nearside SW 24th AVE,28
1253,Graham Hall,Northbound Gale Lemerand DR @ Farside Museum RD,36
1482,Lake Alice Conservation Area,Westbound Mowry Rd @ Nearside SW 23 Dr,36
1155,Spanish Trace Apartments,Westbound Windmeadows BLVD @ Farside SW 34th ST,36
1532,Southbound NW 43rd St. @ NW 46th Ave,Southbound NW 43rd St. @ Nearside NW 46th Ave,40
925,The HUB,Eastbound Stadium RD @ Nearside Buckman DR,40
1529,Pinewood Terrace Community,Northbound NW 43rd St. @ Nearside NW 44th Ave,40
187,Florida Citizens Bank,Eastbound Newberry RD @ Nearside NW 39th RD,43
1023,Suburban Heights Neighborhood,Southbound NW 43rd ST @ Nearside NW 13th AVE,43
156,Women Center,Westbound W University AVE @ Nearside NW 28th ST,43
147,Target Copy @ W University Avenue,Westbound W University AVE @ Nearside SW 14th ST,43
1323,College Manor Apartments,Westbound SW 2nd AVE @ Nearside SW 13th ST,46
847,Corry Village,Northbound Museum RD @ Nearside Village DR,118
479,Campus Edge Condominiums,Southbound SW 23rd DR @ Farside Hull RD,122
1477,Kangaroo Station,Eastbound NW 39th Ave @ Nearside NW 92nd Ct,800
827,Lakewood Villas Apartments,Southbound SW 62nd BLVD @ Farside SW 52nd St,76
512,Northwest Baptist Church,Westbound NW 23rd AVE @ Nearside NW 55th ST,76
97,Veteran's Honor Center,Eastbound SE 3rd AVE @ Nearside SE 17th ST,2
85,Lincoln Estate Neighborhood,Eastbound SE 12th AVE @ Farside SE 15th ST,2
1468,N Main Post Office,Westbound NW 14th Ave @ Farside Main Street,3
291,Eastbound SE 7th Avenue @ SE 8th Street,Eastbound SE 7th AVE @ Nearside SE 8th ST,3
101,SE 24th Street - Dollar General Store,Northbound SE 24th ST @ Farside Hawthorne RD,3
1364,Southbound SE 19th TER @ SE 12th AVE,Southbound SE 19th TER @ Nearside SE 12th AVE,3
323,Chevron Food Mart @ SE 43rd Street,Northbound SE 43rd ST @ Farside Hawthorne RD,7
330,Westbound Hawthorne Road @ SE 39th Street,Westbound Hawthorne RD @ Nearside SE 39th TER,7
250,Gainesville High School Tennis Courts,Westbound NW 16th AVE @ Nearside NW 16th TER,10
359,Westbound SE 7th Avenue @ SE 8th Street,Westbound SE 7th AVE @ Farside SE 8th ST,16
1287,Paddock Club Apartments,Southbound Fort Clarke BLVD @ Nearside NW 8th AVE,23
1285,Southbound Fort Clarke Boulevard @ Eagle Point,Southbound Fort Clarke BLVD @ Nearside NW 17th PL,23
1,Rosa Parks RTS Downtown Station,Northbound SE 3rd ST @ Nearside SE 3rd ST,24
915,Triangle Club,Westbound SE 4th AVE @ Farside SE 11th ST,24
55,Second Avenue Center Apartments,Eastbound SW 2nd AVE @ Farside SW 6th ST,25
1368,Westbound SE 2nd AVE @ SE 10th ST,Westbound SE 2nd AVE @ Nearside SE 10th Street,25
869,Fair View Apartments,Eastbound NE 16th AVE @ Nearside NE 16th TER,26
1361,Gainesville Rock Gym,Northbound S Main ST @ Farside SW Depot Ave,27
865,Department of Children and Families,Eastbound NE 16th AVE @ Farside NE 9th ST,27
56,Eastbound SW 2nd Ave @ SW 2nd St,Eastbound SW 2nd AVE @ Nearside SW 2nd ST,27
898,Rose Food Store,Westbound NE 16th AVE @ Nearside NE 16th WAY,27
927,Ben Hill Griffin Stadium North End Zone,Southbound Gale Lemerand DR @ Farside W Universit*,28
839,Florida Department Of Agriculture,Northbound SW 34th ST @ Farside SW 20th AVE,28
1133,Fraternity Row at West Fraternity Drive,Westbound Fraternity Row @ Nearside W Fraternity *,28
935,Westbound SW 2nd Avenue @ SW 30th Street,Westbound SW 2nd AVE @ Nearside SW 30th ST,34
974,Dollar General,Northbound SW 34th ST @ Farside SW 42 PL,36
478,IFAS Lab,Westbound Mowry RD @ Farside Hull RD,36
1135,Shands Visitor Parking,Westbound Mowry RD @ Farside Center DR,36
1391,Metrocorp Center,Eastbound NW 39th AVE @ Nearside NW 40th TER,40
191,Westgate Plaza,Eastbound SW 2nd AVE @ Farside SW 34th ST,40
1515,Northbound Westwood Middle School,Northbound NW 34th St. @ Nearside NW 15th Ave,40
1537,Walgreens on NW 43rd Street,Northbound NW 43rd St. @ Nearside NW 52nd Pl,40
197,Ben Hill Griffin Stadium,Eastbound W University AVE @ Farside Gale Lemeran*,43
1206,Arlington Square Apartments,Northbound SE 3rd ST @ Nearside SE 2nd PL,46
361,Norman Hall,Northbound SW 13th ST @ Nearside SW 5th AVE,46
360,Norman Field,Northbound SW 13th ST @ Farside SW 8th AVE,46
1414,Northbound NW 17th ST @ NW 5th AVE,Northbound NW 17th ST @ Farside NW 5th AVE,122
1141,Wilmot Gardens,Eastbound Mowry RD @ Farside Gale Lemerand DR,122
599,Morningside Nature Center,Westbound E University AVE @ Nearside SE 38th ST,711
829,The District Apartments,Southbound SW 62nd BLVD @ Nearside SW 20th AVE,76
520,Santa Fe,Westbound Santa Fe College @ Farside Santa Fe Col*,76
514,Westbound NW 23rd Avenue @ NW 63rd Terrace,Westbound NW 23rd AVE @ Farside NW 63rd TER,76
67,Eastbound SE 22nd Avenue @ SE 13th Street,Eastbound SE 22nd AVE @ Nearside SE 13th ST,2
347,SE 18th St @ E University Avenue,Westbound E University AVE @ Nearside SE 18th ST,3
89,Lincoln Estate Neighborhood,Eastbound SE 12th AVE @ Nearside SE 19th TER,3
1462,NE 18 ST @ NE 3 AVE,Northbound NE 18 ST @ Nearside NE 3 AVE,3
1543,NW 2nd St @ NW 16th Ave Northbound,Northbound NW 2nd St @ Nearside NW 16th Ave,3
303,Alachua County School Board Administration Annex,Eastbound E University AVE @ Farside SE 18th ST,3
216,Gainesville Police Department,Northbound NW 6th ST @ Nearside NW 8th AVE,6
339,Northbound SE 27th Street @ SE 15th Avenue,Northbound SE 27th ST @ Nearside SE 15th AVE,7
332,Southbound SE 35th Street @ SE 16th Avenue,Southbound SE 35th ST @ Nearside SE 16th AVE,7
337,Lana's Place,Westbound SE 21st AVE @ Nearside SE 27th ST,7
581,Southbound NE 25th Street @ NE 3rd Place,Southbound NE 25th ST @ Nearside NE 3rd PL,11
1254,Gator Corner Dining Facility @ Gale Lemerand,Northbound Gale Lemerand DR @ Nearside Stadium RD,21
869,Fair View Apartments,Eastbound NE 16th AVE @ Nearside NE 16th TER,24
887,BP Gas Station @ Waldo Road,Southbound Waldo RD @ Nearside NE 53rd AVE,24
873,BP Gas Station @ NE 23rd Avenue,Westbound NE 23rd AVE @ Farside Waldo RD,24
563,Jones Edmunds,Eastbound NE 8th AVE @ Farside NE 13th ST,24
1,Rosa Parks RTS Downtown Station,Northbound SE 3rd ST @ Nearside SE 3rd ST,25
868,Michelle Garden Apartments,Eastbound NE 16th AVE @ Nearside NE 15th ST,27
1214,Corry Village,Northbound Village DR @ Nearside W Fraternity Row,28
832,Liv Apartments,Eastbound SW 20th AVE @ Farside SW 42nd DR,28
192,UF Golf Course,Eastbound SW 2nd AVE @ Farside SW 30th ST,40
1475,President's Park,Westbound SW 2nd Ave @ Nearside SW 23rd St,40
16,UF Health,Southbound Center DR @ Nearside Mowry RD,46
846,Lakeside Residential Complex,Eastbound Radio RD @ Nearside Museum RD,119
1326,UF Counseling and Wellness Center,Eastbound Radio RD @ Farside Bledsoe DR,119
1358,SW 16th Avenue Building A,Eastbound SW 16th AVE @ Nearside SW  16th ST,122
1294,Southbound SW 10th ST at SW 4th Ave (Deco 39),Southbound SW 10th ST @ Nearside SW 4th AVE,126
902,Department of Children and Families,Westbound NE 16th AVE @ Nearside NE 9th ST,3
127,Lincoln Estates Neighborhood,Westbound SE 12th AVE @ Nearside SE 15th ST,3
869,Fair View Apartments,Eastbound NE 16th AVE @ Nearside NE 16th TER,3
131,Westbound SE 22nd Avenue @ SE 13th Street,Westbound SE 22nd AVE @ Nearside SE 13th ST,3
128,Southbound SE 15th Street @ SE 14th Avenue,Southbound SE 15th ST @ Nearside SE 14th AVE,3
1234,NE Walmart Supercenter,Eastbound NE 12th AVE @ Farside Waldo RD,3
317,Northbound SE 35th Street @ SE 20th Avenue,Northbound SE 35th ST @ Nearside SE 18th AVE,7
293,Mt Moriah Baptist Church,Eastbound SE 7th AVE @ Nearside SE 10th TER,7
595,Lake Forest Trails Neighborhood,Northbound SE 43rd ST @ Farside SE 6th AVE,11
579,Southbound NE 25th Street @ NE 6th Avenue,Southbound NE 25th ST @ Nearside NE 6th AVE,11
586,Pine Meadows Apartments,Eastbound E University AVE @ Farside SE 26th TER,11
895,BP Gas Station @ NE 23rd Avenue,Eastbound NE 23rd AVE @ Nearside Waldo RD,24
897,Crab House,Southbound Waldo RD @ Farside Ne 18th PL,24
216,Gainesville Police Department,Northbound NW 6th ST @ Nearside NW 8th AVE,27
1174,Lacrosse Field,Eastbound Hull RD @ Nearside Natural Area DR,36
1179,Pressly Softball Stadium,Westbound Hull RD @ Farside Natural Area DR,36
635,Gateway at Gainesville Apartments,Southbound SW 37th BLVD @ Farside SW 38th ST,36
1510,Southbound Loblolly Woods South Entrance,Southbound NW 34th St @ Nearside NW 5th Ave,40
1387,Sable Chase Neighborhood,Westbound NW 39th AVE @ Nearside NW 35th ST,40
932,UF Law School,Westbound SW 2nd AVE @ Nearside SW 26th ST,40
85,Lincoln Estate Neighborhood,Eastbound SE 12th AVE @ Farside SE 15th ST,3
900,Auto Audio,Westbound NE 16th AVE @ Nearside NE 12th ST,3
865,Department of Children and Families,Eastbound NE 16th AVE @ Farside NE 9th ST,3
1169,Northwood Pines Neighborhood,Northbound NW 34th ST @ Nearside NW 25th TER,6
612,Westbound NE 12th Avenue @ NE 24th Terrace,Westbound NE 12th AVE @ Nearside NE 24th TER,11
557,Northbound NE 9th Street @ NE 3rd Avenue,Northbound NE 9th ST @ Farside NE 3rd AVE,11
886,Job Corps,Westbound NE 54th PL @ Nearside NE 54th AVE,24
715,Smokey Bear Park,Northbound NE 15th ST @ Farside NE 23rd AVE,24
3,Westbound SW 2nd Avenue @ SW 2nd Street,Westbound SW 2nd AVE @ Nearside SW 2nd ST,27
477,Cancer & Genetics Research Center,Westbound Mowry RD @ Farside Gale Lemerand DR,36
1528,Southbound NW 43rd St. @ NW 41st Pl,Southbound NW 43rd St. @ Farside NW 41st Pl,40
1152,Florida Gym,Westbound Stadium RD @ Nearside Gale Lemerand DR,122
468,Parking & Transportation Services,Northbound Gale Lemerand DR @ Farside Mowry RD,126
1394,Southbound NW 55th ST @ NW 14th AVE,Southbound NW 55th ST @ Farside NW 14th AVE,76
1,Rosa Parks RTS Downtown Station,Northbound SE 3rd ST @ Nearside SE 3rd ST,3
1361,Gainesville Rock Gym,Northbound S Main ST @ Farside SW Depot Ave,6
413,Northwood Oaks Neighborhood,Southbound NW 34th ST @ Nearside NW 54th AVE,6
327,The Verdant Cove,Southbound SE 43rd ST @ Nearside SE 10th PL,7
852,Triangle Club,Eastbound SE 4th AVE @ Nearside 11th ST,24
882,NE49th AVE - PFG Foods,Eastbound NE 49th AVE @ Nearside NE 40th TER,24
857,Episcopal Children's Services Northbound,Northbound Waldo RD @ Nearside NE 8th AVE,24
900,Auto Audio,Westbound NE 16th AVE @ Nearside NE 12th ST,24
709,McCoy Court Apartments,Northbound NE 2nd ST @ Nearside NE 23rd AVE,27
763,Publix @ N Main Street,Southbound N Main ST @ Farside NE 14th AVE,27
1458,Northside Family Housing,Eastbound Radio RD @ Nearside SW 34 ST,28
936,Westgate Plaza,Westbound SW 2nd AVE @ Nearside SW 34th ST,40
1384,Metrocorp Center,Westbound NW 39th AVE @ Nearside NW 43rd ST,40
304,Eastbound University Avenue @ SE 21st Street,Eastbound E University AVE @ Nearside SE 21st ST,3
865,Department of Children and Families,Eastbound NE 16th AVE @ Farside NE 9th ST,24
564,MLK Center,Northbound Waldo RD @ Farside NE 8th AVE,25
1504,PPG Paints Store,Southbound NW 6th ST @ Nearside University Avenue,27
707,Pine Grove Apartments,Northbound NE 2nd ST @ Nearside NE 21st LN,27
706,Laundry Mart,Northbound NE 2nd ST @ Farside NE 16th AVE,27
1304,Regions Bank @ Archer Road,Northbound SW 39th BLVD @ Nearside Archer RD,36
1192,Turlington Hall,Southbound Newell DR @ Farside Union RD,36
1254,Gator Corner Dining Facility @ Gale Lemerand,Northbound Gale Lemerand DR @ Nearside Stadium RD,122
1174,Lacrosse Field,Eastbound Hull RD @ Nearside Natural Area DR,122
1176,Fifield Hall,Eastbound Hull RD @ Nearside Mowry RD,121
122,Lincoln Estates,Southbound SE 19th TER @ Farside SE 8th AVE,3
624,Sunny Food Mart,Westbound NE 8th AVE @ Farside NE 12th ST,24
720,Fearnside Family Services Center Northbound,Northbound NE 15th ST @ Nearside NE 39th AVE,24
888,Invivo Imaging,Westbound NE 53rd AVE @ Farside Waldo RD,24
1448,Northwest 8 Avenue @ farside NW 4th St,Northwest 8 Avenue @ farside NW 4th St Eastbound,27
758,David's BBQ,Southbound NE 2nd ST @ Farside NE 23rd AVE,27
762,Midas @ N Main Street,Southbound N Main ST @ Farside NE 16th AVE,27
835,Kensington Apartments South,Eastbound SW 20th AVE @ Nearside SW 38th TER,28
841,Harn Museum,Eastbound Hull RD @ Farside Bledsoe DR,36
942,34th Street Plaza,Southbound SW 34th ST @ Farside SW 20th AVE,36
1389,Eastbound NW 39th AVE @ NW 37th ST,Eastbound NW 39th AVE @ Farside NW 37th ST,40
1511,Northbound NW 34th St. @ NW 8th Ave,Northbound NW 34th St. @ Nearside NW 8th Ave,40
1386,Breckenridge Neighborhood,Westbound NW 39th AVE @ Farside NW 37th TER,40
525,Hickory Woods Neighborhood,Eastbound NW 23rd AVE @ Farside NW 68th TER,76
66,Eastbound SE 22nd Avenue @ SE 12th Street,Eastbound SE 22nd AVE @ Nearside SE 12th ST,3
359,Westbound SE 7th Avenue @ SE 8th Street,Westbound SE 7th AVE @ Farside SE 8th ST,3
358,The Cotton Club,Westbound SE 7th AVE @ Nearside SE 9th ST,3
891,Lewis Place @ Ironwood Apartments,Southbound NE 15th Street @ Nearside NE 39th AVE,24
562,Sunny Food Mart,Eastbound NE 8th AVE @ Nearside NE 12th ST,24
748,Fearnside Family Services Center,Southbound NE 15th ST @ Farside NE 39th AVE,24
1234,NE Walmart Supercenter,Eastbound NE 12th AVE @ Farside Waldo RD,27
1451,Northside Shopping Center East,Southbound Main ST @ Nearside NW 23rd AVE,27
468,Parking & Transportation Services,Northbound Gale Lemerand DR @ Farside Mowry RD,36
1302,Greenwich Green Apartments,Westbound SW 39th BLVD @ Nearside SW 34th ST,36
1533,Northbound NW 43rd St. @ NW 48th Pl,Northbound NW 43rd St. @ Nearside NW 48th Pl,40
518,Santa Fe College @ NW 83rd Street,Northbound NW 83rd ST @ Farside NW 23rd AVE,76
82,McPherson Recreational Center,Northbound SE 15th ST @ Farside SE 22nd AVE,3
1467,NE 18th St @ NE 8th Ave,Southbound NE 18th ST @ Nearside NE 8th Ave,3
306,Eastbound University Avenue @ SE 24th Street,Eastbound E University AVE @ Nearside SE 24th ST,3
309,Alachua County Sheriff's Office,Eastbound Hawthorne RD @ Nearside SE 27th ST,7
868,Michelle Garden Apartments,Eastbound NE 16th AVE @ Nearside NE 15th ST,24
867,Auto Audio,Eastbound NE 16th AVE @ Nearside NE 12th ST,27
1136,Wilmot Gardens,Westbound Mowry RD @ Nearside Gale Lemerand DR,36
1536,Southbound NW 34th St @ NW 30th Pl,Southbound NW 34th St. @ Farside NW 30th Blvd,40
966,Weimer Hall,Eastbound Stadium RD @ Farside Gale Lemerand DR,122
171,Oaks Mall @ NW 62nd Blvd,Southbound NW 62nd ST @ Nearside NW 4th PL,76
823,Hampton Oaks Apartments,Northbound SW 62nd BLVD @ Nearside NW 1st PL,76
867,Auto Audio,Eastbound NE 16th AVE @ Nearside NE 12th ST,3
703,US Post Office @ Main St,Northbound N Main ST @ Nearside NE 14th AVE,27
1545,Fresenius Medical Care,Northbound N Main ST @ Nearside NE 1st Blvd,27
899,Michelle Garden Apartments,Westbound NE 16th AVE @ Nearside NE 15th ST,27
833,Addison Lane,Eastbound SW 20th AVE @ Nearside SW 40th TER,28
33,Spanish Trace Apartments,Eastbound Windmeadows BLVD @ Nearside SW 34th ST,36
1526,Southbound NW 34th St. @ NW 37th Ave,Northbound NW 34th St. @ Nearside NW 37th Ave,40
1527,Northbound NW 43rd St. @ NW 39th Ave,Northbound NW 34th St. @ Farside NW 39th Ave,40
1521,Northbound NW 34th St. @ NW 26th Ave,Northbound NW 34th St. @ Nearside NW 26th Ave,40
1051,Walgreens @ SW 24th Avenue,Eastbound SW 24th AVE @ Farside SW 75th ST,76
822,Palm Garden of Gainesville,Northbound SW 62nd BLVD @ Nearside SW 4th PL,76
84,Northbound SE 15th Street @ SE 13th Place,Northbound SE 15th ST @ Farside SE 13th PL,3
867,Auto Audio,Eastbound NE 16th AVE @ Nearside NE 12th ST,24
4,The Continuum,Westbound SW 2nd AVE @ Nearside SW 6th ST,27
284,Santa Fe College Charles L. Blount Center,Eastbound NW 6th ST @ Nearside NW 3rd AVE,27
808,Hilton University of Florida Conference Center,Southbound SW 34th ST @ Nearside SW 19th AVE,28
1305,Best Buy @ Butler Plaza,Northbound SW 37th BLVD @ Nearside Windmeadows BL*,36
1538,Hunter's Crossing,Southbound NW 43rd St. @ Farside NW 52nd Pl,40
1518,Greenbriar Terrace Community,Southbound NW 34th St. @ Farside NW 19th Pl,40
1432,Unity of Gainesville,Eastbound NW 39th Ave Farside NW 89th Blvd,800
764,Gainesville Shopping Center South,Southbound N Main ST @ Nearside NE 10th AVE,27
1534,Southbound NW 43rd St. @ NW 48th Pl,Southbound NW 43rd St. @ Nearside NW 48th Pl,40
4,The Continuum,Westbound SW 2nd AVE @ Nearside SW 6th ST,46
1054,Tower Oaks Glenn Apartments,Eastbound SW 24th AVE @ Farside SW 19th CT,76
871,Family Worship Center,Northbound Waldo RD @ Farside NE 21st PL,24
1522,Southbound NW 34th St @ NW 26th Pl,Southbound NW 34th St. @ Nearside NW 34th Ter,40
1517,Northbound NW 34th St @ NW 16th Ave,Northbound NW 34th St @ Farside NW 16th Ave,40
1055,Split Rock Conservation Area,Eastbound SW 24th AVE @ Farside SW 61st ST,76
818,The Woodlands Apartments,Northbound SW 62nd BLVD @ Farside SW 20th AVE,76
1392,Northbound NW 55th St @ NW 9th Ln,Northbound NW 55th ST @ Nearside NW 9th LN,76
719,Village Green Apartments,Northbound NE 15th ST @ Farside NE 31st AVE,24
718,Northbound NE 15th Street @ NE 31st Avenue,Northbound NE 15th ST @ Farside NE 31st AVE,24
909,Episcopal Children's Services,Southbound Waldo RD @ Farside NE 8th AVE,24
194,Eastbound SW 2nd Avenue @ SW 26th Street,Eastbound SW 2nd AVE @ Nearside SW 26th ST,40
1523,Northbound NW 34th St @ NW 33rd Ln,Northbound NW 34th St. @ Nearside NW 31st Blvd,40
820,Spyglass Apartments,Northbound SW 62nd BLVD @ Nearside SW 4th PL,76
102,Health Department,Northbound SE 24th ST @ Nearside SE 2nd AVE,3
856,UF Health Family Medicine Eastside Northbound,Northbound Waldo RD @ Farside NE 5th AVE,24
1,Rosa Parks RTS Downtown Station,Northbound SE 3rd ST @ Nearside SE 3rd ST,27
875,Bertie Heating & Air,Westbound NE 23rd AVE @ Nearside NE 17th TER,24
912,Kangaroo @ Waldo Road,Southbound Waldo RD @ Nearside E University AVE,24
1362,UF & Shands Family Medicine Main Street,Northbound N Main ST @ Farside NW 16th AVE,27
215,Williams Fellowship Hall,Northbound NW 6th ST @ Nearside NW 7th AVE,27
528,Northwest Baptist Church,Eastbound NW 23rd AVE @ Nearside NW 55th ST,76
568,Mount Zion Church of God,Southbound NE 19th ST @ Nearside NE 8th AVE,3
1509,Northbound Loblolly Woods South Entrance,Northbound NW 34th Street @ Nearside NW 5th Ave,40
1519,Northbound NW 34th St @ NW 21st Pl,Northbound NW 34th St. @ Nearside NW 24th Ave,40
935,Westbound SW 2nd Avenue @ SW 30th Street,Westbound SW 2nd AVE @ Nearside SW 30th ST,40
358,The Cotton Club,Westbound SE 7th AVE @ Nearside SE 9th ST,16
520,Santa Fe,Westbound Santa Fe College @ Farside Santa Fe Col*,800
517,Shenandoah Neighborhood,Westbound NW 23rd AVE @ Nearside NW 77th TER,76
966,Weimer Hall,Eastbound Stadium RD @ Farside Gale Lemerand DR,40
174,Terwilliger Elementary School,Northbound NW 62nd ST @ Nearside NW 4th PL,76
619,Bartley Temple United Methodist Church,Northbound NE 19th ST @ Farside NE 8th AVE,3
1505,Planned Furnishings,Northbound SW 6th ST @ Nearside University Avenue,27
1366,Westbound NW 8th AVE @ NW 4th ST,Westbound NW 8th AVE @ Nearside NW 4th ST,27
316,SE 35th St @ SE 21st Avenue,Eastbound SE 21st AVE @ Farside SE 35th ST,7
1530,Southbound NW 43rd St. @ NW 44th Ave,Southbound NW 43rd St. @ Farside NW 44th Ave,40
913,Southbound SE 11th Street @ SE 2nd Avenue,Southbound SE 11th ST @ Nearside SE 2nd AVE,24
927,Ben Hill Griffin Stadium North End Zone,Southbound Gale Lemerand DR @ Farside W Universit*,40
522,The Pentecostals of Gainesville,Eastbound NW 23rd AVE @ Farside NW 83rd ST,76
701,CVS Pharmacy @ N Main Street,Northbound N Main ST @ Nearside NE 10th AVE,27
176,Panera Bread @ Newberry Road,Eastbound Newberry RD @ Farside NW 62nd ST,76
1393,Northbound NW 55th ST @ NW 14th AVE,Northbound NW 55th ST @ Nearside NW 14th AVE,76
209,Alachua County Courthouse,Northbound S Main ST @ Nearside SW 2nd AVE,27
214,Santa Fe College Charles L. Blount Center,Northbound NW 6th ST @ Nearside NW 4th AVE,27
850,GRU Administration Building,Eastbound SE 4th AVE @ Farside SE 4th ST,24
1514,Littlewood Elementary School,Southbound NW 34th St. @ Nearside NW 8th Ave,40
125,Westbound SE 12th Avenue @ SE 18th Terrace,Westbound SE 12th AVE @ Nearside SE 18th TER,3
825,Fairmont Oaks Apartments,Southbound SW 62nd BLVD @ Farside NW 4th PL,76
1053,Infinite Energy,Eastbound SW 24th AVE @ Farside SW 70th TER,76
1065,Tower Oaks Glenn Apartments,Westbound SW 24th AVE @ Farside SW 19th CT,76
1395,Southbound NW 55th ST @ NW 9th LN,Southbound NW 55th ST @ Farside NW 9th LN,76
1235,NE Walmart Supercenter,Westbound NE 12th AVE @ Nearside Waldo RD,27
1002,Santa Fe College @ NW 83rd Street,Northbound NW 83rd ST @ Nearside NW 31st AVE,800
750,Southbound NE 15th Street @ NE 31 Avenue,Southbound NE 15th ST @ Nearside NE 31st AVE,24
899,Michelle Garden Apartments,Westbound NE 16th AVE @ Nearside NE 15th ST,3
1546,The Clock Restaurant,Southbound N Main ST @ Nearside NE 1st Blvd,27
1000,The Arc,Southbound NW 83rd ST @ Farside North RD,800
760,Laundry Mart,Southbound NE 2nd ST @ Nearside NE 16th AVE,27
288,Alachua County Courthouse,Southbound S Main ST @ Farside SE 2nd PL,27
