"stop_id","stop_name","stop_desc"
"1493","Butler Plaza Transfer Station","Westbound SW 30th Place @ Farside SW 42nd Street"
"1349","Hilton Garden Inn","Eastbound SW 33rd PL @ Farside SW 42nd ST"
"1548","Sam's Club","Eastbound SW 33rd PL @ Nearside SW 37th Blvd"
"1491","Lowe's @ Butler Plaza Eastbound","Eastbound Windmeadows Blvd @ Farside SW 62nd Blvd"
"1306","Publix at Butler Plaza","Southbound SW 35th Blvd @ Farside Windmeadows Blvd"
"1592","Pizza Hut Archer Rd Eastbound","Eastbound SW Archer Rd @ Farside SW 35th Blvd"
"34","Radio Shack @ Archer Road","Eastbound Archer RD @ Farside SW 34th ST"
"35","Silver Creek Apartments","Eastbound Archer RD @ Farside SW 34th ST"
"36","Capstone Quarters Apartments","Eastbound Archer RD @ Farside Surge Area DR"
"37","Brandywine Apartments","Eastbound Archer RD @ Farside Surge Area DR"
"38","University Commons","Eastbound Archer RD @ Nearside SW 23rd TER"
"39","The Bartram Apartments","Eastbound Archer RD @ Farside SW 23rd DR"
"40","Shands Care Helicopter Pad","Eastbound Archer RD @ Nearside Gale Lemerand DR"
"1199","VA Hospital @ Archer Rd","Eastbound Archer RD @ Farside Center DR"
"118","Shands Cancer Hospital","Eastbound SW Archer Rd Farside SW 16th St"
"360","Norman Field","Northbound SW 13th ST @ Farside SW 8th AVE"
"361","Norman Hall","Northbound SW 13th ST @ Nearside SW 5th AVE"
"362","Social 28 Apartments","Northbound SW 13th ST @ Nearside SW 3rd AVE"
"1159","Phi Kappa Tau","Eastbound SW 2nd AVE @ Farside SW 13th ST"
"52","Eastbound SW 2nd Avenue @ SW 10th Street","Eastbound SW 2nd AVE @ Nearside SW 10th ST"
"53","Innovation Square East","Eastbound SW 2nd AVE @ Farside SW 7th TER"
"55","Second Avenue Center Apartments","Eastbound SW 2nd AVE @ Farside SW 6th ST"
"56","Eastbound SW 2nd Ave @ SW 2nd St","Eastbound SW 2nd AVE @ Nearside SW 2nd ST"
"1290","Alachua County Courthouse","Eastbound SW 2nd AVE @ Nearside S Main ST"
"57","Hippodrome Theatre","Eastbound SE 2nd AVE @ Nearside SE 1st ST"
"1216","Arlington Square Apartments","Southbound SE 3rd ST @ Nearside SE 2nd PL"
"1","Rosa Parks RTS Downtown Station","Northbound SE 3rd ST @ Nearside SE 3rd ST"
"1206","Arlington Square Apartments","Northbound SE 3rd ST @ Nearside SE 2nd PL"
"2","Hampton Inn Hotel","Westbound SE 2nd AVE @ Nearside SE 1st ST"
"3","Westbound SW 2nd Avenue @ SW 2nd Street","Westbound SW 2nd AVE @ Nearside SW 2nd ST"
"4","The Continuum","Westbound SW 2nd AVE @ Nearside SW 6th ST"
"6","720 SW 2nd Ave","Westbound SW 2nd AVE @ Nearside SW 8th ST"
"7","Innovation Square West","Westbound SW 2nd AVE @ Nearside SW 10th ST"
"1323","College Manor Apartments","Westbound SW 2nd AVE @ Nearside SW 13th ST"
"442","Southbound SW 13th Street @ Inner Road","Southbound SW 13th ST @ Nearside Inner RD"
"443","Southbound SW 13th Street @ Museum Road","Southbound SW 13th ST @ Nearside Museum RD"
"444","University Housing Office","Southbound SW 13th ST @ Nearside Diamond RD"
"446","UF Health Archer Road","Westbound Archer RD @ Farside SW 16th ST"
"18","Shands Hospital @ Davis Cancer Pavilion","Westbound Archer RD @ Nearside Gale Lemerand DR"
"20","Mt Vernon Apartments","Westbound Archer RD @ Nearside SW 23rd DR"
"22","Country Village","Westbound Archer RD @ Farside SW 23rd TER"
"23","UF Surge Area Drive","Westbound Archer RD @ Nearside Surge Area DR"
"24","Tropic Carwash","Westbound Archer RD @ Farside Surge Area DR"
"25","Westbound Archer Road @ SW 34th Street","Westbound Archer RD @ Nearside SW 34th ST"
"26","Whole Foods @ Butler Town Center","Westbound Archer RD @ Farside SW 34th ST"
"27","Chili's Grill and Bar @ Butler Plaza","Westbound Archer RD @ Nearside SW 35th BLVD"
"28","Bonefish Grill Seafood Restaurant @ Butler Plaza","Westbound SW 35th BLVD @ Farside Archer RD"
"1492","Butler Plaza","Westbound Windmeadows Blvd @ Nearside SW 62nd Blvd"
"1547","Sam's Club","Westbound SW 33rd PL @ Farside SW 37th Blvd"
"1549","Hilton Garden Inn","Westbound SW 33rd PL @ Nearside SW 42nd ST"
"1234","NE Walmart Supercenter","Eastbound NE 12th AVE @ Farside Waldo RD"
"568","Mount Zion Church of God","Southbound NE 19th ST @ Nearside NE 8th AVE"
"1261","Gardenia Garden Apartments","Westbound NE 8th AVE @ Farside NE 17th DR"
"1500","NE 15th St @ NE 7th Ave","Southbound NE 15th St @ Nearside NE 7th Ave"
"1440","Mt. Olive Primitive Baptist Church","Southbound NE 15th ST @ Farside NE 5th PL"
"1498","NE 15th St @ NE 3rd Ave Farside","Southbound NE 15th St @ Farside NE 3rd Ave"
"350","Fast Eddie's Restaurant","Southbound SE 15th ST @ Farside SE 2nd AVE"
"97","Veteran's Honor Center","Eastbound SE 3rd AVE @ Nearside SE 17th ST"
"98","SE Hawthorne Rd @ SE 18th St Eastbound","Eastbound Hawthorne RD @ Farside SE 21st ST"
"99","SE Hawthorne Rd @ SE 21 St Eastbound","Eastbound Hawthorne RD @ Nearside SE 21st ST"
"100","GTEC","Eastbound Hawthorne RD @ Nearside SE 24th ST"
"122","Lincoln Estates","Southbound SE 19th TER @ Farside SE 8th AVE"
"124","Lincoln Estates Neighborhood","Southbound SE 19th TER @ Nearside SE 10th PL"
"1364","Southbound SE 19th TER @ SE 12th AVE","Southbound SE 19th TER @ Nearside SE 12th AVE"
"125","Westbound SE 12th Avenue @ SE 18th Terrace","Westbound SE 12th AVE @ Nearside SE 18th TER"
"127","Lincoln Estates Neighborhood","Westbound SE 12th AVE @ Nearside SE 15th ST"
"128","Southbound SE 15th Street @ SE 14th Avenue","Southbound SE 15th ST @ Nearside SE 14th AVE"
"129","McPherson Recreational Center","Southbound SE 15th ST @ Nearside SE 22nd AVE"
"131","Westbound SE 22nd Avenue @ SE 13th Street","Westbound SE 22nd AVE @ Nearside SE 13th ST"
"132","Westbound SE 22nd Avenue @ SE 12th Street","Westbound SE 22nd AVE @ Farside SE 12th ST"
"133","Gainesville Housing Authority","Northbound SE 4th ST @ Farside SE 19th PL"
"357","SE 7th Avenue @ SE 10th Terrace","Westbound SE 7th AVE @ Farside SE 10th TER"
"358","The Cotton Club","Westbound SE 7th AVE @ Nearside SE 9th ST"
"359","Westbound SE 7th Avenue @ SE 8th Street","Westbound SE 7th AVE @ Farside SE 8th ST"
"291","Eastbound SE 7th Avenue @ SE 8th Street","Eastbound SE 7th AVE @ Nearside SE 8th ST"
"292","The Cotton Club","Eastbound SE 7th AVE @ Nearside SE 9th ST"
"293","Mt Moriah Baptist Church","Eastbound SE 7th AVE @ Nearside SE 10th TER"
"64","Sugarhill Neighborhood @ SE 4th Street","Southbound SE 4th ST @ Nearside SE 19th PL"
"66","Eastbound SE 22nd Avenue @ SE 12th Street","Eastbound SE 22nd AVE @ Nearside SE 12th ST"
"67","Eastbound SE 22nd Avenue @ SE 13th Street","Eastbound SE 22nd AVE @ Nearside SE 13th ST"
"69","Showers of Blessing","Southbound SE 15th ST @ Farside SE 25th AVE"
"72","Boulware Springs Nature Park","Southbound SE 15th ST @ Farside SE 35th AVE"
"75","Robinson Heights","Southbound SE 15th ST @ Nearside SE 41st AVE"
"76","Prairie View Elementary School","Northbound SE 15th ST @ Nearside SE 35th AVE"
"79","Showers of Blessings Harvest Center","Northbound SE 15th ST @ Nearside SE 25th AVE"
"82","McPherson Recreational Center","Northbound SE 15th ST @ Farside SE 22nd AVE"
"84","Northbound SE 15th Street @ SE 13th Place","Northbound SE 15th ST @ Farside SE 13th PL"
"85","Lincoln Estate Neighborhood","Eastbound SE 12th AVE @ Farside SE 15th ST"
"87","Lincoln Estate Neighborhood","Eastbound SE 12th AVE @ Farside SE 17th TER"
"89","Lincoln Estate Neighborhood","Eastbound SE 12th AVE @ Nearside SE 19th TER"
"90","Lincoln Estate Neighborhood","Northbound SE 19th TER @ Nearside SE 10th PL"
"92","Lincoln Estates","Northbound SE 19th TER @ Nearside SE 8th AVE"
"1496","Save A LOT Food Store","Westbound SE Hawthorne Rd @ Farside SE 24th St"
"109","Phase III Supply","Westbound Hawthorne RD @ Nearside SE 21st ST"
"1497","Alachua School Bus Parking Lot","Westbound SE Hawthorne Rd @ Farside SE 20th St"
"110","Veteran's Honor Center","Westbound SE 3rd AVE @ Farside SE 17th ST"
"300","Fast Eddie's Restaurant","Northbound SE 15th ST @ Nearside SE 1st AVE"
"1499","NE 15th St @ NE 3rd Ave Nearside","Northbound NE 15th St @ Nearside NE 3rd Ave"
"1439","Cohens Temple","Northbound NE 15th ST @ Nearside NE 5th PL"
"1501","NE 15th St @ NE 8th Ave","Northbound NE 15th St @ Nearside NE 8th Ave"
"564","MLK Center","Northbound Waldo RD @ Farside NE 8th AVE"
"101","SE 24th Street - Dollar General Store","Northbound SE 24th ST @ Farside Hawthorne RD"
"102","Health Department","Northbound SE 24th ST @ Nearside SE 2nd AVE"
"103","Northbound SE 24th Street @ E University Avenue","Northbound SE 24th ST @ Nearside E University AVE"
"345","Harper's Pointe","Westbound E University AVE @Nearside 22nd ST"
"346","Westbound E University Avenue @ SE 21st Street","Westbound E University AVE @ Nearside SE 21st ST"
"347","SE 18th St @ E University Avenue","Westbound E University AVE @ Nearside SE 18th ST"
"1462","NE 18 ST @ NE 3 AVE","Northbound NE 18 ST @ Nearside NE 3 AVE"
"1464","NE 18th St","Northbound NE 18th ST @ Farside NE 5th Ave"
"1466","NE 18th St @ NE 8th Ave","Northbound NE 18th ST @ Nearside NE 8th Ave"
"619","Bartley Temple United Methodist Church","Northbound NE 19th ST @ Farside NE 8th AVE"
"1235","NE Walmart Supercenter","Westbound NE 12th AVE @ Nearside Waldo RD"
"898","Rose Food Store","Westbound NE 16th AVE @ Nearside NE 16th WAY"
"899","Michelle Garden Apartments","Westbound NE 16th AVE @ Nearside NE 15th ST"
"900","Auto Audio","Westbound NE 16th AVE @ Nearside NE 12th ST"
"902","Department of Children and Families","Westbound NE 16th AVE @ Nearside NE 9th ST"
"1453","St. Patrick Catholic Church","Westbound NE 16th AVE @ Nearside NE 2 ST"
"761","Sandwich Inn @ NE 16th Ave","Westbound NE 16th AVE @ Nearside NE 2nd ST"
"762","Midas @ N Main Street","Southbound N Main ST @ Farside NE 16th AVE"
"1468","N Main Post Office","Westbound NW 14th Ave @ Farside Main Street"
"1543","NW 2nd St @ NW 16th Ave Northbound","Northbound NW 2nd St @ Nearside NW 16th Ave"
"1454","Northeast Park","Eastbound NE 16th AVE @ Farside NE 2 ST"
"865","Department of Children and Families","Eastbound NE 16th AVE @ Farside NE 9th ST"
"867","Auto Audio","Eastbound NE 16th AVE @ Nearside NE 12th ST"
"868","Michelle Garden Apartments","Eastbound NE 16th AVE @ Nearside NE 15th ST"
"869","Fair View Apartments","Eastbound NE 16th AVE @ Nearside NE 16th TER"
"1467","NE 18th St @ NE 8th Ave","Southbound NE 18th ST @ Nearside NE 8th Ave"
"1465","NE 18th St","Southbound NE 18th ST @ Farside NE 5th Ave"
"1463","NE 18 ST @ NE 3 AVE","Southbound NE 18 ST @ Farside NE 3 AVE"
"303","Alachua County School Board Administration Annex","Eastbound E University AVE @ Farside SE 18th ST"
"304","Eastbound University Avenue @ SE 21st Street","Eastbound E University AVE @ Nearside SE 21st ST"
"306","Eastbound University Avenue @ SE 24th Street","Eastbound E University AVE @ Nearside SE 24th ST"
"1553","Health Department","Southbound SE 24th ST @ Farside SE 2nd AVE"
"108","SE 24th Street at Hawthorne Road","Southbound SE 24th ST @ Nearside Hawthorne RD"
"175","Oaks Mall SW 62nd Blvd","Northbound NW 62nd ST @ Nearside Newberry RD"
"176","Panera Bread @ Newberry Road","Eastbound Newberry RD @ Farside NW 62nd ST"
"177","Durant Estate","Eastbound Newberry RD @ Farside NW 57th ST"
"179","Eastbound W Newberry Rd @ NW 53rd Terrace","Eastbound Newberry RD @ Nearside NW 53rd TER"
"181","Millpond Apartments","Eastbound Newberry RD @ Farside NW 50th BLVD"
"182","Gainesville Health & Fitness","Eastbound Newberry RD @ Nearside NW 48th BLVD"
"184","Alarion Bank","Eastbound Newberry RD @ Nearside NW 43rd ST"
"185","Urgent Care Center","Eastbound Newberry RD @ Farside NW 43rd ST"
"186","Life South Blood Center","Eastbound Newberry RD @ Nearside NW 39th ST"
"187","Florida Citizens Bank","Eastbound Newberry RD @ Nearside NW 39th RD"
"188","Regal Royal Park Stadium 16","Eastbound Newberry RD @ Farside SW 38th ST"
"189","SW 2nd AVE and SW 36th TER - CIL","Eastbound SW 2nd AVE @ Nearside SW 36th ST"
"190","Hawaiian Village","Eastbound SW 2nd AVE @ Nearside SW 34th ST"
"191","Westgate Plaza","Eastbound SW 2nd AVE @ Farside SW 34th ST"
"192","UF Golf Course","Eastbound SW 2nd AVE @ Farside SW 30th ST"
"194","Eastbound SW 2nd Avenue @ SW 26th Street","Eastbound SW 2nd AVE @ Nearside SW 26th ST"
"195","University of Florida Law School","Eastbound SW 2nd AVE @ Farside SW 23rd ST"
"196","Pressly Stadium","Eastbound SW 2nd AVE @ Farside Woodlawn DR"
"197","Ben Hill Griffin Stadium","Eastbound W University AVE @ Farside Gale Lemeran*"
"198","St. Augustine Catholic Church","Eastbound W University AVE @ Nearside Fletcher DR"
"199","Keene Flint Hall","Eastbound W University AVE @ Farside Buckman DR"
"200","Anderson Hall","Eastbound W University AVE @ Nearside NW 15th ST"
"201","Leonardo's Pizza By The Slice","Eastbound W University AVE @ Farside SW 13th ST"
"203","University of Florida Human Resources","Eastbound W University AVE @ Nearside W 8th ST"
"204","Innovation Square North","Eastbound W University AVE @ Nearside SW 7th ST"
"205","The Continuum","Eastbound W University AVE @ Farside W 6th ST"
"206","AT&T Building","Eastbound W University AVE @ Nearside W 3rd ST"
"207","Alachua County Office of the State Attorney","Eastbound W University AVE @ Nearside SW 1st ST"
"208","Bo Diddley Community Plaza","Eastbound E University AVE @ Nearside E 3st ST"
"139","City Hall","Westbound E University AVE @ Nearside NE 1st ST"
"140","Alachua County Office of the State Attorney","Westbound W University AVE @ Nearside NW 2nd ST"
"142","Seagle Building","Westbound W University AVE @ Farside W 3rd ST"
"143","Santa Fe College Charles L. Blount Center","Westbound W University AVE @ Nearside NW 6th ST"
"144","Leonardo's 706","Westbound W University AVE @ Nearside NW 8th ST"
"145","Westbound W University Ave @ NW 10th St","Westbound W University AVE @ Nearside NW 10th ST"
"146","Holiday Inn @ W University Avenue","Westbound W University AVE @ Nearside SW 13th ST"
"147","Target Copy @ W University Avenue","Westbound W University AVE @ Nearside SW 14th ST"
"148","Smathers Library","Westbound W University AVE @ Nearside NW 16th ST"
"149","Swamp Restaurant","Westbound W University AVE @ Nearside NW 17th ST"
"150","University Lutheran Church","Westbound W University AVE @ Nearside NW 19th ST"
"1475","President's Park","Westbound SW 2nd Ave @ Nearside SW 23rd St"
"932","UF Law School","Westbound SW 2nd AVE @ Nearside SW 26th ST"
"934","Campus Church of Christ","Westbound SW 2nd AVE @ Farside SW 26th ST"
"935","Westbound SW 2nd Avenue @ SW 30th Street","Westbound SW 2nd AVE @ Nearside SW 30th ST"
"936","Westgate Plaza","Westbound SW 2nd AVE @ Nearside SW 34th ST"
"1474","Renaissance Jewelers","Westbound SW 2nd Ave @ Farrside SW 34th St"
"1473","Fire Station","Westbound SW 2nd Ave @ Farside SW 36th St"
"161","Plaza Royale","Westbound Newberry RD @ Farside NW 36th DR"
"162","Tire Kingdom @ Newberry Road","Westbound Newberry RD @ Farside NW 39th RD"
"163","Allstate Insurance @ Newberry Road","Westbound Newberry RD @ Nearside NW 39th ST"
"164","Millennium Center","Westbound Newberry RD @ Nearside NW 43rd ST"
"165","Orthopedic Institute","Westbound Newberry RD @ Farside NW 43rd ST"
"166","Gainesville Health & Fitness","Westbound Newberry RD @ Nearside NW 48th BLVD"
"167","SunTrust Bank @ Newberry Road","Westbound Newberry RD @ Farside NW 51st ST"
"168","Capital City Bank @ Newberry Road","Westbound Newberry RD @ Nearside N 8th AVE"
"1594","AT&T Store @ NW 4th Place","NW 4th Pl Nearside NW 62nd Street"
"1361","Gainesville Rock Gym","Northbound S Main ST @ Farside SW Depot Ave"
"209","Alachua County Courthouse","Northbound S Main ST @ Nearside SW 2nd AVE"
"1505","Planned Furnishings","Northbound SW 6th ST @ Nearside University Avenue"
"1585","NW 6th St @ NW 3rd Ave","Northbound NW 6th St @ NW 3rd Ave"
"270","Santa Fe College Charles L. Blount Center","Northbound NW 6th ST @ Nearside NW 5th AVE"
"215","Williams Fellowship Hall","Northbound NW 6th ST @ Nearside NW 7th AVE"
"216","Gainesville Police Department","Northbound NW 6th ST @ Nearside NW 8th AVE"
"217","Big Ron's Yoga","Northbound NW 6th ST @ Nearside NW 10th AVE"
"218","Bailey Village Assisted Living","Northbound NW 6th ST @ Farside NW 13th ST"
"220","Medical Marihuana Treatment Center","Northbound NW 6th ST @ Nearside NW 16th AVE"
"221","Sixth Street Plaza","Northbound NW 6th ST @ Nearside NW 19th AVE"
"222","Hand & Hand Day Care","Northbound NW 6th ST @ Farside NW 19th LN"
"223","NW 6th St NW 23rd Ave","Northbound NW 6th ST @ Nearside NW 22nd AVE"
"735","Rena's Ballroom","Westbound NW 23rd AVE @ Farside NW 6th ST"
"736","Wesley United Methodist Church","Westbound NW 23rd AVE @ Nearside NW 10th ST"
"737","NW 23rd Avenue @ NW 12th St","Westbound NW 23rd AVE @ Farside NW 12th ST"
"254","Big Lot on NW 13th Street","Northbound NW 13th ST @ Farside NW 23rd AVE"
"255","NW 13th Street","Northbound NW 13th ST @ Farside NW 26th PL"
"256","Mount Pleasant Cemetary","Northbound NW 13th ST @ Farside NW 29th RD"
"258","Johnson & Fletcher Insurance","Northbound NW 13th ST @ Nearside NW 33rd AVE"
"259","ALDI Food Market","Northbound NW 13th ST @ Nearside NW 39th AVE"
"260","Auto Zone @ NW 13th Street","Northbound NW 13th ST @ Farside NW 39th AVE"
"261","Sunshine Inn","Northbound NW 13th ST @ Nearside NW 42nd AVE"
"262","Westgate Mobile Manor Park","Northbound NW 13th ST @ Nearside NW 45th AVE"
"1593","Social Security NB NW 13th St","Northbound NW 13th St @ Farside 45th Ave"
"1478","Great Lakes Carpet @ NW 53rd Avenue","Westbound NW 53rd AVE @ Nearside NW 19th ST"
"1479","Sorrento New Home Community","Westbound NW 53rd AVE @ Nearside NW 55th AVE"
"1168","Northwood Oaks Neighborhood","Northbound NW 34th ST @ Farside NW 54th AVE"
"1169","Northwood Pines Neighborhood","Northbound NW 34th ST @ Nearside NW 25th TER"
"1170","Pine Ridge Apartments","Northbound NW 34th ST @ Nearside NW 23rd TER"
"1455","North Walmart Supercenter","Northbound NW 23rd ST @ Nearside NW 62nd AVE"
"402","ABC Liquor Store @ NW 34th Street","Southbound NW 34th ST @ Nearside NW 58th AVE"
"403","Kangaroo Gas @ NW 34th Street","Southbound NW 34th ST @ Nearside NW 23rd TER"
"412","Northwood Pines Neighborhood","Southbound NW 34th ST @ Nearside NW 23rd TER"
"413","Northwood Oaks Neighborhood","Southbound NW 34th ST @ Nearside NW 54th AVE"
"397","Eastbound NW 53rd Avenue @ NW 24th Boulevard","Eastbound NW 53rd AVE @ Farside NW 24th BLVD"
"398","Sorrento New Home Community","Eastbound NW 53rd AVE @ Farside NW 21st DR"
"399","The Home Depot @ NW 53rd Avenue","Eastbound NW 53rd AVE @ Nearside NW 13th ST"
"1551","Social Security Administration","Southbound NW 13th ST @ Nearside NW 45th AVE"
"236","Early Learning Coalition","Southbound NW 13th ST @ Farside NW 44th AVE"
"237","Sandy's Boutique","Southbound NW 13th ST @ Farside NW 42nd AVE"
"238","CVS @ NW 13th Street","Southbound NW 13th ST @ Farside NW 41st AVE"
"239","Publix @ NW 39th Avenue","Southbound NW 13th ST @ Farside NW 39th AVE"
"240","Tires Plus @ NW 13th Street","Southbound NW 13th ST @ Nearside NW 33rd AVE"
"241","Grace Presbyterian Church","Southbound NW 13th ST @ Nearside NW 31st AVE"
"242","McDonald's @ NW 13th Street","Southbound NW 13th ST @ Nearside NW 29th AVE"
"243","Verizon Shop","Southbound NW 13th ST @ Nearside NW 26th PL"
"1221","Eastbound NW 23rd Avenue @ NW 13th Street","Eastbound NW 23rd AVE @ Farside NW 13th ST"
"1222","Hearing Aid Gainesville","Eastbound NW 23rd TER @ Nearside NW 10th ST"
"1223","Forest Meadows Funeral Home","Eastbound NW 23rd TER @ Nearside NW 6th ST"
"275","NW 6th St NW 23rd Ave","Southbound NW 6th ST @ Farside NW 21st AVE"
"276","NW 6th ST at NW 19th LN (Hand N' Hand Childcare)","Southbound NW 6th ST @ Nearside NW 19th LN"
"277","Acupuncture Center","Southbound NW 6th ST @ Farside NW 19th AVE"
"278","Atlantic Design","Southbound NW 6th ST @ Farside NW 16th AVE"
"279","Granny D's","Southbound NW 6th ST @ Nearside NW 13th AVE"
"280","American Auto Insurance","Southbound NW 6th ST @ Nearside NW 10th AVE"
"281","Jon Uman Attorney","Southbound NW 6th ST @ Nearside NW 8th PL"
"282","Greater Bethel African Methodist Episcopal Church","Southbound NW 6th ST @ Farside NW 6th AVE"
"1504","PPG Paints Store","Southbound NW 6th ST @ Nearside University Avenue"
"288","Alachua County Courthouse","Southbound S Main ST @ Farside SE 2nd PL"
"294","Tools for Schools","Eastbound SE 11th ST @ Farside SE 7th AVE"
"295","Williams Elementary School","Eastbound SE 7th AVE @ Farside SE 12th TER"
"297","Eastbound SE 7th Avenue @ SE 15th Street","Eastbound SE 7th AVE @ Nearside SE 15th ST"
"96","Northbound SE 15th Street @ SE 3rd Avenue","Northbound SE 15th ST @ Nearside SE 3rd Ave"
"301","Eastbound University Avenue @ SE 15th Street","Eastbound E University AVE @ Farside SE 15th ST"
"107","Health Department","Southbound Alachua County Health Department @ Far*"
"307","Southeast Gator Liquor @ Hawthorne Road","Eastbound Hawthorne RD @ Farside SE 24th ST"
"308","Eastbound Hawthorne Road @ SE 26th Street","Eastbound Hawthorne RD @ Nearside SE 26th ST"
"309","Alachua County Sheriff's Office","Eastbound Hawthorne RD @ Nearside SE 27th ST"
"311","Southbound SE 27th Street @ SE 15th Avenue","Southbound SE 27th ST @ Farside SE 15th AVE"
"312","Durelle Heights Neighborhood","Southbound SE 27th ST @ Farside SE 18th AVE"
"313","Lana's Place","Eastbound SE 21st AVE @ Nearside SE 28 DR"
"314","Faith Missionary Church","Eastbound SE 21st AVE @ Nearside SE 30th Dr"
"315","Eastbound SE 21st Avenue @ SE 32nd Terrace","Eastbound SE 21st AVE @ Nearside SE 32 TER"
"316","SE 35th St @ SE 21st Avenue","Eastbound SE 21st AVE @ Farside SE 35th ST"
"317","Northbound SE 35th Street @ SE 20th Avenue","Northbound SE 35th ST @ Nearside SE 18th AVE"
"319","Northbound SE 35th Street @ SE 16th Avenue","Northbound SE 35th ST @ Farside SE 16th AVE"
"320","Kangaroo @ SE 35th Street","Northbound SE 35th ST @ Nearside Hawthorne RD"
"322","E Hawthorne Road @ SE 39th Terrace","Eastbound Hawthorne RD @ Farside SE 39th TER"
"323","Chevron Food Mart @ SE 43rd Street","Northbound SE 43rd ST @ Farside Hawthorne RD"
"324","Eastside High School","Northbound SE 43rd ST @ Farside SE 13th AVE"
"325","The Glades","Northbound SE 43rd ST @ Nearside SE 10th PL"
"326","Eastwood Meadows","Northbound SE 44th ST @ Farside SE 10th PL"
"327","The Verdant Cove","Southbound SE 43rd ST @ Nearside SE 10th PL"
"329","Chevron Food Mart @ SE 43rd Street","Southbound SE 43rd ST @ Nearside Hawthorne RD"
"330","Westbound Hawthorne Road @ SE 39th Street","Westbound Hawthorne RD @ Nearside SE 39th TER"
"331","Eastside Food Store","Southbound SE 35th ST @ Farside Hawthorne RD"
"332","Southbound SE 35th Street @ SE 16th Avenue","Southbound SE 35th ST @ Nearside SE 16th AVE"
"333","Southbound Se 35th Street @ SE 18th Avenue","Southbound SE 35th ST @ Farside SE 18th AVE"
"334","Southbound SE 35th Street @ SE 20th Avenue","Southbound SE 35th ST @ Nearside SE 20th AVE"
"335","Westbound SE 21st Avenue @ SE 32nd Terrace","Westbound SE 21st AVE @ Farside SE 32nd ST"
"336","Faith Missionary Church","Westbound SE 21st AVE @ Farside SE 30th Dr"
"337","Lana's Place","Westbound SE 21st AVE @ Nearside SE 27th ST"
"338","Durelle Heights Neighborhood","Northbound SE 27th ST @ Nearside SE 18th AVE"
"339","Northbound SE 27th Street @ SE 15th Avenue","Northbound SE 27th ST @ Nearside SE 15th AVE"
"341","Alachua County Sheriffs Department","Northbound SE 27th ST @ Nearside Hawthorne Rd"
"342","Alachua County Sheriffs Department","Westbound Hawthorne RD @ Farside SE 25th TER"
"343","Dollar General","Westbound Hawthorne RD @ Nearside SE 24th ST"
"349","Westbound E University Avenue @ NE 16th Street","Westbound E University AVE @ Nearside NE 16th ST"
"111","Southbound SE 15th Street @ SE 4th Avenue","Southbound SE 15th ST @ Nearside SE 4th AVE"
"113","Southbound SE 15th Street @ SE 7th Avenue","Southbound SE 15th ST @ Nearside SE 7th AVE"
"115","Williams Elementary School","Westbound SE 7th AVE @ Nearside SE 12th TER"
"116","Waldo Rd @ SE 7th Avenue","Westbound SE 7th AVE @ Farside SE 11th ST"
"409","North Walmart Supercenter","Southbound NW 23rd ST @ Farside NW 62nd ST"
"1343","Northside Park and Senior Recreational Center","Southbound NW 34th ST @ Farside NW 58th AVE"
"414","Barnhill Clinic","Southbound NW 34th ST @ Nearside NW 29th ST"
"416","Pizza Hut @ NW 34th Street","Southbound NW 34th ST @ Nearside NW 49th AVE"
"417","Capri Neighborhood","Southbound NW 34th ST @ Farside NW 44th PL"
"418","Southbound NW 34th Street @ NW 41st Avenue","Southbound NW 34th ST @ Farside NW 41st AVE"
"419","NW 39th Avenue @ NW 34th Street","Eastbound NW 39th AVE @ Farside NW 34th ST"
"420","First Assembly Church","Eastbound NW 39th AVE @ Nearside NW 29th TER"
"421","Walnut Creek Neighborhood","Eastbound NW 39th AVE @ Nearside NW 25th TER"
"422","Uptown Village Apartments","Eastbound NW 39th AVE @ Farside NW 24th BLVD"
"423","Palmetto Woods Neighborhood","Eastbound NW 39th AVE @ Farside NW 22nd DR"
"424","Girls Place of Alachua County","Eastbound NW 39th AVE @ Nearside NW 21st ST"
"425","Eastbound NW 39th Ave at NW 19th St Green Tree Pk","Eastbound NW 39th AVE @ Nearside NW 19th ST"
"426","Ridgeview Baptist Church","Southbound NW 19th ST @ Nearside NW 36th AVE"
"427","Altrusa House of Gainesville","Westbound NW 36th AVE @ Farside NW 20th ST"
"428","Southbound NW 21st Street @ NW 36th Avenue","Southbound NW 21st ST @ Farside NW 36th AVE"
"429","Glen Springs Apartments","Southbound NW 21st ST @ Farside NW 32nd PL"
"430","Misty Oaks Apartments","Southbound NW 21st ST @ Nearside NW 31st AVE"
"432","Cobblestone Apartments","Eastbound NW 23rd ST @ Farside NW 28th CIR"
"433","Brookwood Terrace","Eastbound NW 23rd BLVD @ Farside NW 16th TER"
"252","Plaza Verde - NW 23rd Avenue","Eastbound NW 23rd AVE @ Farside NW 16th TER"
"245","Plaza Verde @ NW 13th St Southbound","Southbound NW 13th ST @ Farside NW 23rd AVE"
"247","Gainesville High School","Southbound NW 13th ST @ Nearside NW 19th LN"
"248","Gainesville High School","Southbound NW 13th ST @ Farside NW 18th AVE"
"434","Direct Auto Insurance","Southbound NW 13th ST @ Farside NW 14th AVE"
"435","State Farm Insurance @ NW 13th Street","Southbound NW 13th ST @ Farside NW 12th AVE"
"436","Applebee's @ NW 13th Street","Southbound NW 13th ST @ Nearside NW 10th AVE"
"437","All Star Automotive","Southbound NW 13th ST @ Nearside NW 7th AVE"
"438","The Gate Food Store @ NW 13th Street","Southbound NW 13th ST @ Nearside NW 5th AVE"
"439","NW 13th St @ Nearside NW 3rd Pl Southbound","Southbound NW 13th ST @ Nearside NW 3rd PL"
"440","The Standard","Southbound NW 13th ST @ Nearside NW 1st AVE"
"441","Tigert Hall","Southbound SW 13th ST @ Farside SW 2nd AVE"
"1420","Southbound SW 13th ST @ SW 13th AVE","Southbound SW 13 ST @ SW 13th AVE"
"1550","Hotel Eleo @ SW 16th Ave Westbound","Westbound SW 16th AVE @ Farside SW 14th ST"
"1359","Gainesville Healthcare Center","Northbound SW 16th ST @ Nearside Circle of Hope"
"659","Shands Hospital @ Parking Garage 9","Southbound Gale Lemerand DR @ Farside Archer RD"
"660","Shands Hospital @ Helipad","Westbound Shealy DR @ Farside SW 16TH AVE"
"363","Kangaroo @ SW 13th Street","Northbound SW 13th ST @ Nearside W University AVE"
"364","McDonald's @ SW 13th Street","Northbound NW 13th ST @ Nearside W University AVE"
"365","Mother Earth Market","Northbound NW 13th ST @ Farside NW 5th AVE"
"366","University House Apartments","Northbound NW 13th ST @ Farside NW 7th AVE"
"367","Xerographic Copy Center","Northbound NW 13th ST @ Nearside NW 10th AVE"
"368","LifeSouth Community Blood Center @ NW 13th Street","Northbound NW 13th ST @ Nearside NW 14th AVE"
"369","CVS @ NW 13th Street","Northbound NW 13th ST @ Nearside NW 16th AVE"
"370","Gainesville High School","Northbound NW 13th ST @ Farside NW 18th AVE"
"371","Gainesville High School","Northbound NW 13th ST @ Nearside NW 19th LN"
"372","Lux 13 Apartments","Northbound NW 13th ST @ Farside NW 21st AVE"
"373","Furniture Kingdom","Westbound NW 23rd AVE @ Farside NW 13th ST"
"374","UF Health Homecare","Westbound NW 23rd AVE @ Nearside NW 16th TER"
"375","Brook Wood Terrace Neighborhood","Westbound NW 23rd AVE @ Farside NW 16th TER"
"376","Cobblestone Apartments","Westbound NW 23rd AVE @ Nearside NW 28th CIR"
"378","Misty Oaks Apartments","Northbound NW 21st ST @ Farside NW 31st ST"
"379","Northbound NW 21st Avenue @ NW 33rd Avenue","Northbound NW 21st ST @ Nearside NW 33rd AVE"
"380","Kiwanis Park","Northbound NW 21st ST @ Nearside NW 36th AVE"
"381","Altrusa House of Gainesville","Eastbound NW 36th AVE @ Nearside NE 20th ST"
"382","Ridgeview Baptist Church","Eastbound NW 36th AVE @ Nearside NW 19th ST"
"1374","Westbound NW 39th AVE @ NW 19th TER","Westbound NW 39th AVE @ Nearside NW 19th TER"
"384","Girls Place of Alachua County","Westbound NW 39th AVE @ Nearside NW 21st ST"
"385","Equilease Square","Westbound NW 39th AVE @ Nearside NW 22nd DR"
"386","Forest of the Unicorn Neighborhood","Westbound NW 39th AVE @ Nearside NW 24th BLVD"
"387","Walnut Creek Neighborhood","Westbound NW 39th AVE @ Farside NW 25th TER"
"388","Assembly of Gods Church","Westbound NW 39th AVE @ Farside NW 29th TER"
"389","Westbound NW 39th Avenue @ NW 31st Street","Westbound NW 39th AVE @ Nearside NW 31st TER"
"390","NW 39th Avenue @ NW 34th Street","Westbound NW 39th AVE @ Nearside NW 34th ST"
"391","Gethsemane Lutheran Church","Northbound NW 34th ST @ Nearside NW 41st AVE"
"393","Capri Neighborhood","Northbound NW 34th ST @ Nearside NW 45th AVE"
"394","Family Dollar @ NW 34th Street","Northbound NW 34th ST @ Farside NW 51st PL"
"395","YMCA @ NW 34th Street","Northbound NW 34th ST @ Farside NW 30th TER"
"396","Barnhill Clinic","Northbound NW 34th ST @ Nearside NW 29th ST"
"404","Pine Ridge Apartments","Northbound NW 23rd TER @ Nearside NW 57th PL"
"405","Pine Ridge Apartments","Northbound NW 23rd TER @ Nearside NW 25th TER"
"406","Northbound NW 23rd Terrace @ NW 62nd Avenue","Northbound NW 23rd TER @ Nearside NW 62nd AVE"
"407","Hampton Court Apartments","Northbound NW 23rd TER @ Nearside NW 65th PL"
"408","Northbound NW 23rd Terrace @ US Hwy 441","Northbound NW 23rd TER @ Nearside NW 13th ST"
"447","Hunters Run","Northbound SW 25th TER @ Farside Williston RD"
"448","Westbound SW 40th Place @ NW 26th Terrace","Westbound SW 40th PL @ Nearside SW 26th TER"
"449","Campus Lodge Apartments","Westbound SW 40th TER @ Nearside SW 38th PL"
"450","Lexington Crossing Apartments","Northbound SW 27th ST @ Nearside SW 38th PL"
"451","Lexington Crossing Apartments","Northbound SW 27th ST @ Farside SW 38th PL"
"453","Windsor Park Apartments","Northbound SW 27th ST @ Nearside SW 35th PL"
"454","Northbound SW 27th Street @ SW 35th Place","Northbound SW 27th ST @ Nearside SW 35th PL"
"455","Casablanca East Apartments","Eastbound SW 35th PL @ Farside SW 27th TER"
"456","Arbor Park Apartments","Eastbound SW 35th PL @ Nearside SW 27th TER"
"457","Hickory Place Apartments","Eastbound SW 35th PL @ Nearside SW 23rd TER"
"459","SW 23rd Terrace @ SW 35th Place","Northbound SW 23rd TER @ Farside SW 32nd PL"
"460","Towne Parc Apartments","Northbound SW 23rd TER @ Farside SW 31st PL"
"461","University Club Apartments","Northbound SW 23rd TER @ Farside SW 28th PL"
"462","University of Florida Energy Research","Northbound SW 23rd TER @ Nearside SW Archer RD"
"463","University Commons","Northbound SW 23rd TER @ Nearside Archer RD"
"464","Mt Vernon Apartments @ SW 23rd Drive","Northbound SW 23rd DR @ Farside Archer RD"
"465","Campus Edge Condominiums","Northbound SW 23rd DR @ Nearside Hull RD"
"466","Forestry Field Lab/Plant Growth","Eastbound Mowry RD @ Farside Hull RD"
"1481","Cancer/Genetics Research Complex","Eastbound Mowry Rd @ Farside SW 23 Dr"
"467","Cancer and Genetics Research","Eastbound Mowry RD @ Nearside Gale Lemerand DR"
"468","Parking & Transportation Services","Northbound Gale Lemerand DR @ Farside Mowry RD"
"469","Commuter Lot Parking Garage @ Gale Lemerand","Northbound Gale Lemerand DR @ Farside Mowry RD"
"1253","Graham Hall","Northbound Gale Lemerand DR @ Farside Museum RD"
"1254","Gator Corner Dining Facility @ Gale Lemerand","Northbound Gale Lemerand DR @ Nearside Stadium RD"
"966","Weimer Hall","Eastbound Stadium RD @ Farside Gale Lemerand DR"
"925","The HUB","Eastbound Stadium RD @ Nearside Buckman DR"
"1192","Turlington Hall","Southbound Newell DR @ Farside Union RD"
"1193","Rawlings Hall","Southbound Newell DR @ Nearside McCarty DR"
"473","Reitz Union","Southbound McCarty DR @ Nearside Museum RD"
"16","UF Health","Southbound Center DR @ Nearside Mowry RD"
"1135","Shands Visitor Parking","Westbound Mowry RD @ Farside Center DR"
"1136","Wilmot Gardens","Westbound Mowry RD @ Nearside Gale Lemerand DR"
"477","Cancer & Genetics Research Center","Westbound Mowry RD @ Farside Gale Lemerand DR"
"1482","Lake Alice Conservation Area","Westbound Mowry Rd @ Nearside SW 23 Dr"
"478","IFAS Lab","Westbound Mowry RD @ Farside Hull RD"
"479","Campus Edge Condominiums","Southbound SW 23rd DR @ Farside Hull RD"
"480","Mt Vernon Apartments","Southbound SW 23rd DR @ Nearside Archer RD"
"481","University Commons","Southbound SW 23rd TER @ Farside Archer RD"
"482","University of Florida Energy Research","Southbound SW 23rd TER @ Farside Archer RD"
"483","University Club Apartments","Southbound SW 23rd TER @ Nearside SW 31 PL"
"484","Towne Parc Apartments","Southbound SW 23rd TER @ Nearside SW 31 PL"
"485","Southwood Apartments","Southbound SW 23rd TER @ Farside SW 34 PL"
"486","Gator Place Condominiums","Southbound SW 23rd TER @ Farside SW 35th PL"
"488","Countryside at the University Apartments","Southbound SW 23rd TER @ Nearside Williston RD"
"489","Southbound SW 23rd Street @ Williston Road","Southbound SW 23rd ST @ Nearside Williston RD"
"490","The Polos Apartments","Westbound Williston RD @ Farside SW 23rd ST"
"249","NW 16th Ave NW 13th St","Westbound NW 16th AVE @ Farside NW 13th ST"
"250","Gainesville High School Tennis Courts","Westbound NW 16th AVE @ Nearside NW 16th TER"
"494","Westbound NW 16th Avenue @ NW 18th Street","Westbound NW 16th AVE @ Farside NW 18th ST"
"495","Westbound NW 16th Avenue @ NW 20th Way","Westbound NW 16th AVE @ Nearside NW 20th WAY"
"496","Forest Ridge Neighborhood","Westbound NW 16th AVE @ Nearside NW 22nd ST"
"498","NW 24th St @ NW 16th Avenue","Westbound NW 16th AVE @ Nearside NW 24th ST"
"500","NW 27th Terrace @ NW 16th Avenue","Westbound NW 16th AVE @ Nearside NW 27th TER"
"501","NW 30th Terrace @ NW 16th Avenue","Westbound NW 16th AVE @ Farside NW 30th TER"
"502","Zion Evangelical Lutheran Church","Westbound NW 16th BLVD @ Farside NW 34th ST"
"503","Willowcroft Neighborhood","Westbound NW 16th BLVD @ Farside NW 34th ST"
"504","NW 16th Boulevard @ NW 37th Boulevard","Westbound NW 16th BLVD @ Farside NW 37th BLVD"
"505","B'Nai Israel School & Day Care","Westbound NW 16th BLVD @ Farside NW 38th TER"
"506","Westbound NW 16th Boulevard @ NW 39th Street","Westbound NW 16th BLVD @ Nearside NW 39th ST"
"507","Capital City Bank @ NW 16th Boulevard","Westbound NW 16th BLVD @ Nearside NW 41st ST"
"508","NW 23rd Ave NW 43rd St","Westbound NW 16th BLVD @ Nearside NW 43rd ST"
"509","Floral Expressions","Westbound NW 23rd AVE @ Farside NW 43rd ST"
"510","Westbound NW 23rd Avenue @ NW 46th Terrace","Westbound NW 23rd AVE @ Nearside NW 46th TER"
"511","First Church of the Nazarene","Westbound NW 23rd AVE @ Nearside NW 51st ST"
"512","Northwest Baptist Church","Westbound NW 23rd AVE @ Nearside NW 55th ST"
"514","Westbound NW 23rd Avenue @ NW 63rd Terrace","Westbound NW 23rd AVE @ Farside NW 63rd TER"
"515","Hickory Woods Neighborhood","Westbound NW 23rd AVE @ Nearside NW 68th TER"
"516","Quail Ridge Neighborhood","Westbound NW 23rd AVE @ Nearside NW 71st ST"
"517","Shenandoah Neighborhood","Westbound NW 23rd AVE @ Nearside NW 77th TER"
"518","Santa Fe College @ NW 83rd Street","Northbound NW 83rd ST @ Farside NW 23rd AVE"
"520","Santa Fe","Westbound Santa Fe College @ Farside Santa Fe Col*"
"521","Santa Fe College","Eastbound NW South RD @ Nearside NW 83rd ST"
"522","The Pentecostals of Gainesville","Eastbound NW 23rd AVE @ Farside NW 83rd ST"
"523","Shenandoah Neighborhood","Eastbound NW 23rd AVE @ Farside NW 77th TER"
"524","Quail Ridge Neighborhood","Eastbound NW 23rd AVE @ Nearside NW 71st ST"
"525","Hickory Woods Neighborhood","Eastbound NW 23rd AVE @ Farside NW 68th TER"
"526","Eastbound NW 23rd Avenue @ NW 63rd Terrace","Eastbound NW 23rd AVE @ Nearside NW 63rd TER"
"528","Northwest Baptist Church","Eastbound NW 23rd AVE @ Nearside NW 55th ST"
"529","First Church of the Nazarene","Eastbound NW 23rd AVE @ Nearside NW 51st ST"
"531","Eastbound NW 23rd Avenue @ NW 46th Street","Eastbound NW 23rd AVE @ Nearside NW 46th ST"
"532","Floral Expressions","Eastbound NW 23rd AVE @ Nearside NW 43rd ST"
"533","NW 23rd Ave NW 43rd St","Eastbound NW 16th BLVD @ Nearside NW 43rd ST"
"534","Eastbound NW 16th Boulevard @ NW 39th Drive","Eastbound NW 16th BLVD @ Nearside NW 39th DR"
"535","B'Nai Israel School & Day Care","Eastbound NW 16th BLVD @ Nearside NW 38th TER"
"537","Willowcroft Neighborhood","Eastbound NW 16th BLVD @ Farside NW 35th WAY"
"538","Covenant Church","Eastbound NW 16th AVE @ Nearside NW 31st TER"
"539","Brywood Neighborhood","Eastbound NW 16th AVE @ Farside NW 27th TER"
"541","Raintree Neighborhood","Eastbound NW 16th AVE @ Nearside NW 23rd TER"
"543","Forest Ridge Neighborhood","Eastbound NW 16th AVE @ Nearside NW 22nd ST"
"544","Eastbound NW 16th Avenue @ NW 20th Way","Eastbound NW 16th AVE @ Nearside NW 20th WAY"
"545","Colony Park Apartments","Eastbound NW 16th AVE @ Nearside NW 18th ST"
"546","NW 16th Ave NW 13th St","Eastbound NW 16th AVE @ Nearside NW 13th ST"
"1560","Eastwood Meadows","Northbound SE 44th ST @ Farside SE 10th PL"
"595","Lake Forest Trails Neighborhood","Northbound SE 43rd ST @ Farside SE 6th AVE"
"596","Lake Forest Elementary School","Northbound SE 43rd ST @ Nearside SE 4th AVE"
"597","Sunrise Store @ SE 43rd Street","Northbound SE 43rd ST @ Nearside E University AVE"
"1259","Exxon Gas Station @ E University Avenue","Westbound E University AVE @ Farside SE 43rd ST"
"598","Eastside Plaza","Westbound E University AVE @ Farside SE 39th ST"
"599","Morningside Nature Center","Westbound E University AVE @ Nearside SE 38th ST"
"601","Fred Cone Park","Westbound E University AVE @ Nearside SE 27th ST"
"602","Pine Meadows Apartments","Westbound E University AVE @ Nearside NE 26th TER"
"1239","Caroline Manor Affordable Housing","Westbound E University AVE @ Nearside NE 25th ST"
"1240","Northbound NE 25th Street @ NE 3rd Place","Northbound NE 25th ST @ Nearside NE 3rd PL"
"608","Northbound NE 25th Street @ NE 6th Avenue","Northbound NE 25th ST @ Farside NE 6th AVE"
"609","Mt Carmel Baptist Church","Northbound NE 25th ST @ Nearside NE 8th AVE"
"611","Northbound NE 25th Street @ NE 11th Place","Northbound NE 25th ST @ Nearside NE 11th PL"
"612","Westbound NE 12th Avenue @ NE 24th Terrace","Westbound NE 12th AVE @ Nearside NE 24th TER"
"614","Southbound NE 24th Street @ NE 8th Avenue","Southbound NE 24th ST @ Nearside NE 8th AVE"
"617","Westbound NE 8th Avenue @ NE 23nd Street","Westbound NE 8th AVE @ Farside NE 23nd ST"
"618","Duval Elementary School","Westbound NE 8th AVE @ Nearside NE 21st ST"
"623","Westbound NE 13th Street @ NE 8th Avenue","Westbound NE 8th AVE @ Nearside NE 13th ST"
"624","Sunny Food Mart","Westbound NE 8th AVE @ Farside NE 12th ST"
"627","Southbound NE 9th Street @ NE 7th Avenue","Southbound NE 9th ST @ Nearside NE 7th AVE"
"629","Southbound NE 9th Street @ NE 5th Avenue","Southbound NE 9th ST @ Nearside NE 5th AVE"
"630","Southbound NE 9th Street @ NE 3rd Avenue","Southbound NE 9th ST @ Nearside NE 3rd AVE"
"632","Florida School of Traditional Midwifery","Westbound E University AVE @ Farside NE 8th ST"
"634","Alachua County School Board Administration","Westbound E University AVE @ Nearside NE BLVD"
"553","Downtown Library","Northbound SE 3rd ST @ Nearside E University AVE"
"554","Salvation Army Thrift Store","Eastbound E University AVE @ Nearside E 7th ST"
"555","Eastbound E University Avenue @ SE 8th Street","Eastbound E University AVE @ Nearside SE 8th ST"
"556","Northbound NE 9th Street @ E University Avenue","Northbound NE 9th ST @ Farside E University AVE"
"557","Northbound NE 9th Street @ NE 3rd Avenue","Northbound NE 9th ST @ Farside NE 3rd AVE"
"558","Northbound NE 9th Street @ NE 5th Avenue","Northbound NE 9th ST @ Nearside NE 5th AVE"
"560","Northbound NE 9th Street @ NE 8th Avenue","Northbound NE 9th ST @ Nearside NE 8th AVE"
"561","Eastbound NE 8th Avenue @ NE 11th Street","Eastbound NE 8th AVE @ Farside NE 11th ST"
"562","Sunny Food Mart","Eastbound NE 8th AVE @ Nearside NE 12th ST"
"563","Jones Edmunds","Eastbound NE 8th AVE @ Farside NE 13th ST"
"569","Duval Elementary School","Eastbound NE 8th AVE @ Farside NE 20th ST"
"570","Eastbound NE 8th Avenue @ NE 22nd Street","Eastbound NE 8th AVE @ Nearside NE 22nd ST"
"571","Northbound NE 24th Street @ NE 8th Avenue","Eastbound NE 8th AVE @ Nearside NE 24th ST"
"573","Northbound NE 24th Street @ NE 10th Avenue","Northbound NE 24th ST @ Nearside NE 10th AVE"
"575","Eastbound NE 12th Avenue @ NE 24th Terrace","Eastbound NE 12th AVE @ Farside NE 24th TER"
"576","Southbound NE 25th Street @ NE 11th Place","Southbound NE 25th ST @ Farside NE 11th PL"
"578","Southbound NE 25th Street @ NE 8th Avenue","Southbound NE 25th ST @ Nearside NE 8th AVE"
"579","Southbound NE 25th Street @ NE 6th Avenue","Southbound NE 25th ST @ Nearside NE 6th AVE"
"581","Southbound NE 25th Street @ NE 3rd Place","Southbound NE 25th ST @ Nearside NE 3rd PL"
"585","Eastbound SE 25th Terrace @ E University Avenue","Eastbound E University AVE @ Farside SE 25th TER"
"586","Pine Meadows Apartments","Eastbound E University AVE @ Farside SE 26th TER"
"587","Fred Cone Park","Eastbound E University AVE @ Farside SE 27th ST"
"588","Morningside Nature Center","Eastbound E University AVE @ Nearside SE SE 38th *"
"589","Eastside Plaza","Eastbound E University AVE @ Nearside SE 39th ST"
"590","Southbound SE 43rd Street @ E University Avenue","Southbound SE 43rd ST @ Farside E University AVE"
"591","Compassionate Outreach","Southbound SE 43rd ST @ Nearside SE 4th AVE"
"592","Lake Forest Trails Neighborhood","Southbound SE 43rd ST @ Nearside SE 6th AVE"
"1027","Best Buy @ Butler Plaza","Southbound SW 37th BLVD @ Nearside Archer RD"
"661","Regions Bank @ SW 37th Boulevard","Southbound SW 37th BLVD @ Nearside SW 38th ST"
"635","Gateway at Gainesville Apartments","Southbound SW 37th BLVD @ Farside SW 38th ST"
"636","Greenwich Green Apartments","Eastbound SW 37th BLVD @ Nearside SW 34th ST"
"637","Aspen Ridge Apartments","Northbound SW 34th ST @ Farside SW 37th BLVD"
"643","Ridgemar Apartments","Northbound SW 34th ST @ Nearside SW 35th AVE"
"644","Kangaroo @ SW 34th Street","Northbound SW 34th ST @ Farside SW 35th AVE"
"645","University Town Center","Northbound SW 34th ST @ Nearside Archer RD"
"652","Shands Hospital @ Helipad","Eastbound Shealy DR @ Farside Archer RD"
"653","Shands Hospital @ Parking Garage 9","Northbound Gale Lemerand DR @ Nearside Archer RD"
"654","Shands Hospital @ Davis Cancer Pavilion","Northbound Gale Lemerand DR @ Farside Archer RD"
"658","Shands Hospital @ Davis Cancer Pavilion","Southbound Gale Lemerand DR @ Nearside Archer RD"
"1299","Kohl's Department Store @ SW 34th ST","Southbound SW 34th ST @ Nearside SW 35th PL"
"1300","HH Gregg @ SW 34th ST","Southbound SW 34th ST @ Farside SW 35th PL"
"1301","Stoneridge Apartments","Southbound SW 34th ST @ Nearside SW 39th BLVD"
"1302","Greenwich Green Apartments","Westbound SW 39th BLVD @ Nearside SW 34th ST"
"1303","O2B Kids @ SW 37th BLVD","Northbound SW 39th BLVD @ Nearside Archer RD"
"1304","Regions Bank @ Archer Road","Northbound SW 39th BLVD @ Nearside Archer RD"
"1305","Best Buy @ Butler Plaza","Northbound SW 37th BLVD @ Nearside Windmeadows BL*"
"681","US 441 South","Southbound SW 13th ST @ Farside Williston RD"
"682","Budget Inn","Northbound SW 13th ST @ Nearside Williston RD"
"683","Meridian Behavioral Healthcare","Northbound SW 13th ST @ Nearside Williston RD"
"684","Residence Inn","Northbound SW 13th ST @ Farside Williston RD"
"685","The Landings Apartments","Northbound SW 13th ST @ Farside SW 36th PL"
"686","CDS Family and Behavioral Services","Northbound SW 13th ST @ Nearside SW 36th PL"
"687","Bivens Cove Apartments","Northbound SW 13th ST @ Nearside SW 36th PL"
"688","Tanglewood Apartments","Northbound SW 13th ST @ Nearside SW 14th DR"
"689","Boardwalk Apartments","Northbound SW 13th ST @ Farside SW 14th DR"
"690","Comfort Suites Hotel","Northbound SW 13th ST @ Farside SW 23rd PL"
"692","Village Square","Northbound SW 13th ST @ Farside SW 25th PL"
"693","home2 Hotel","Northbound SW 13th ST @ Nearside SW 21st AVE"
"1373","CVS @ SW 13th ST","Northbound SW 13th ST @ Nearside SW 16th AVE"
"695","Oakbrook Walk Condominiums","Northbound SW 13th ST @ Nearside SW 14th AVE"
"1358","SW 16th Avenue Building A","Eastbound SW 16th AVE @ Nearside SW  16th ST"
"667","Summit House Condominiums","Eastbound SW 16th AVE @ Farside SW 16th ST"
"668","Ronald McDonald House of Gainesville","Eastbound SW 16th AVE @ Nearside SW 14th ST"
"669","Liv+ Apartments 13th St","Southbound SW 13th ST @ Farside SW 18th PL"
"670","Dollar General","Southbound SW 13th ST @ Nearside SW18th PL"
"671","Lakeshore Towers Apartments","Southbound SW 13th ST @ Nearside SW 25th PL"
"672","City College Gainesville","Southbound SW 13th ST @ Nearside SW 25th PL"
"673","Wyndham Garden Hotel","Southbound SW 13th ST @ Nearside SW 14th DR"
"676","Chop Stix Cafe","Southbound SW 13th ST @ Farside SW 14th DR"
"677","The Landings Apartments","Southbound SW 13th ST @ Nearside SW 36th PL"
"678","Residence Inn","Southbound SW 13th ST @ Nearside Williston RD"
"679","Meridian Behavioral Healthcare","Southbound SW 13th ST @ Farside Williston RD"
"680","Bridge House","Southbound SW 13th ST @ Nearside SW 45th LN"
"1264","Cottage Grove Apartments at Gainesville","Southbound SW 13th ST @ Farside SW Williston RD"
"738","Palms at Brook Valley Apartments","Eastbound NW 39th AVE @ Farside NW 12th ST"
"739","Eastbound NW 39th Avenue @ NW 10th Street","Eastbound NW 39th AVE @ Farside NW 10th ST"
"740","Stephen Foster Elementary School @ 39th Ave","Eastbound NW 39th AVE @ Nearside NW 7th ST"
"741","Gainesville Public Works","Eastbound NW 39th AVE @ Farside NW 6th ST"
"742","Bella Vista Village Eastbound","Eastbound NW 39th AVE @ Farside NW 1st TER"
"743","Pine Forest Homes","Eastbound NW 39th AVE @ Nearside NE 2nd ST"
"744","Wade Raulerson Honda Dealership","Eastbound NE 39th AVE @ Farside N Main ST"
"745","Highland Court Manor","Eastbound NE 39th AVE @ Nearside NE 12th ST"
"746","Eden Park Apartments","Eastbound NE 39th AVE @ Nearside NE 14th ST"
"748","Fearnside Family Services Center","Southbound NE 15th ST @ Farside NE 39th AVE"
"749","Village Green Apartments","Southbound NE 15th ST @ Farside NE 31st AVE"
"750","Southbound NE 15th Street @ NE 31 Avenue","Southbound NE 15th ST @ Nearside NE 31st AVE"
"752","NE 15th Street @ NE 26th Avenue","Southbound NE 15th ST @ Nearside NE 26th AVE"
"753","Smokey Bear Park","Southbound NE 15th ST @ Nearside NE 23rd AVE"
"754","NE 23rd Ave Farside NE 14th St Westbound","Westbound NE 23rd AVE @ Farside NE 14th ST"
"755","Highland Court Manor Neighborhood @ NE 23rd Avenue","Westbound NE 23rd AVE @ Nearside NE 11th TER"
"756","Westbound NE 23rd Avenue @ NE 9th Street","Westbound NE 23rd AVE @ Nearside NE 9th ST"
"757","Pointe 23 Apartments","Westbound NE 23rd AVE @ Farside NE 7th TER"
"758","David's BBQ","Southbound NE 2nd ST @ Farside NE 23rd AVE"
"759","Pine Grove Apartments","Southbound NE 2nd ST @ Farside NE 21st LN"
"760","Laundry Mart","Southbound NE 2nd ST @ Nearside NE 16th AVE"
"763","Publix @ N Main Street","Southbound N Main ST @ Farside NE 14th AVE"
"764","Gainesville Shopping Center South","Southbound N Main ST @ Nearside NE 10th AVE"
"766","Fire Stone @ N Main Street","Southbound N Main ST @ Nearside NE 7th AV"
"768","Friends of the Library Alachua County","Southbound N Main ST @ Farside NE 6th AVE"
"769","The Collier Companies","Southbound N Main ST @ Nearside NW 2nd AVE"
"697","Masonic Temple","Northbound N Main ST @ Farside NE 2nd AVE"
"699","Partnership for Strong Families","Northbound N Main ST @ Farside NE 6th AVE"
"700","Fire Stone @ N Main Street","Northbound N Main ST @ Nearside NE 8th AVE"
"701","CVS Pharmacy @ N Main Street","Northbound N Main ST @ Nearside NE 10th AVE"
"703","US Post Office @ Main St","Northbound N Main ST @ Nearside NE 14th AVE"
"704","Kangaroo @ N Main St","Northbound N Main ST @ Nearside NE 16th AVE"
"706","Laundry Mart","Northbound NE 2nd ST @ Farside NE 16th AVE"
"707","Pine Grove Apartments","Northbound NE 2nd ST @ Nearside NE 21st LN"
"709","McCoy Court Apartments","Northbound NE 2nd ST @ Nearside NE 23rd AVE"
"710","Pointe 23 Apartments","Eastbound NE 23rd AVE @ Nearside NE 7th ST"
"711","Chelsea Apartments Eastbound","Eastbound NE 23rd AVE @ Nearside NE 9th ST"
"713","NE 23rd Avenue @ NE 11th Terrace","Eastbound NE 23rd AVE @ Farside NE 11th TER"
"714","Boulware Charter School","Eastbound NE 23rd AVE @ Nearside NE 14th ST"
"715","Smokey Bear Park","Northbound NE 15th ST @ Farside NE 23rd AVE"
"716","NE 28th Avenue @ NE 15th Street","Northbound NE 15th ST @ Nearside NE 28th AVE"
"718","Northbound NE 15th Street @ NE 31st Avenue","Northbound NE 15th ST @ Farside NE 31st AVE"
"719","Village Green Apartments","Northbound NE 15th ST @ Farside NE 31st AVE"
"720","Fearnside Family Services Center Northbound","Northbound NE 15th ST @ Nearside NE 39th AVE"
"721","NE 39th Ave WB Farside NE 15th St","Westbound NE 39th AVE @ Farside NE 15th ST"
"722","Eden Park at Ironwood","Westbound NE 39th AVE @ Farside NE 14th ST"
"723","Highland Court","Westbound NE 39th AVE @ Nearside NE 11th TER"
"724","Westbound NE 39th Ave at Main St - Gsville Nissan","Westbound NE 39th AVE @ Nearside N Main ST"
"725","Southeast Car Agency","Westbound NE 39th AVE @ Nearside NE 2nd WAY"
"726","Bella Vista Village","Westbound NW 39th AVE @ Nearside NW 1st TER"
"727","Oasis Carwash","Westbound NW 39th AVE @ Nearside NW 6th ST"
"728","Stephen Foster Elementary School","Southbound NW 6th ST @ Farside NW 39th Ave"
"729","Southbound SW 6th Street @ NW 36th Avenue","Southbound NW 6th ST @ Nearside NW 35th AVE"
"730","Southbound NW 6th Street @ NW 32nd Place","Southbound NW 6th ST @ Nearside NW 32nd PL"
"732","Oak Gate Condominiums","Southbound NW 6th ST @ Nearside NW 29th AVE"
"733","IBEW Local 1205","Southbound NW 6th ST @ Farside NW 26th AVE"
"782","Sugar Hill","Northbound SE 20th PL @ Nearside SE 4th ST"
"783","Chevron Gas Station @ Williston Road","Southbound Williston RD @ Farside SE 4th ST"
"784","Southbound Williston Road @ SE 1st Terrace","Southbound Williston RD @ Nearside SE 1st TER"
"785","Springhill Baptist Church","Southbound Williston RD @ Nearside SE 1st ST"
"786","Sweetwater on 16th Apartments Westbound","Westbound SE 16th AVE @ Farside SE Williston RD"
"787","Treehouse Village Apartments","Westbound SE 16th AVE @ Nearside S Main ST"
"788","Winn Dixie @ SW 16th Avenue","Westbound SW 16th AVE @ Nearside SW 6th ST"
"789","Sun Bay Apartments","Westbound SW 16th AVE @ Farside SW 6th ST"
"790","Parklands Rehab & Nursing Center","Westbound SW 16th AVE @ Farside SW 10th TER"
"791","Oakbrook Walk Condominiums @ SW 16th Avenue","Westbound SW 16th AVE @ Nearside SW 13th ST"
"794","Sai Quick Stop","Eastbound SW 16th AVE @ Farside SW 13th ST"
"795","The Retreat Apartments","Eastbound SW 16th AVE @ Farside SW 10th TER"
"796","Sun Bay Apartments","Eastbound SW 16th AVE @ Nearside SW 6th ST"
"773","Arbor Park Apartments","Eastbound SW 16th AVE @ Farside SW 6th ST"
"774","Treehouse Village Apartments","Eastbound SE 16th AVE @ Farside S Main ST"
"775","Sweetwater on 16th Apartments","Eastbound SE 16th AVE @ Nearside Williston RD"
"776","Spring Hill Church","Northbound Williston RD @ Farside SE 1st ST"
"1487","New RTS Maintenance Facility North","Northbound SE 1st St @ SE 13th AVE"
"1488","New RTS Maintenance Facility South","Southbound SE 1st St @ SE 13th AVE"
"171","Oaks Mall @ NW 62nd Blvd","Southbound NW 62nd ST @ Nearside NW 4th PL"
"172","Oaks Mall SW 62nd Blvd","Southbound NW 62nd ST @ Farside NW 1st PL"
"824","Hampton Oaks Apartments","Southbound SW 62nd BLVD @ Farside NW 1st PL"
"825","Fairmont Oaks Apartments","Southbound SW 62nd BLVD @ Farside NW 4th PL"
"827","Lakewood Villas Apartments","Southbound SW 62nd BLVD @ Farside SW 52nd St"
"828","Rockwood Villas Apartments","Southbound SW 62nd BLVD @ Nearside SW 9th PL"
"829","The District Apartments","Southbound SW 62nd BLVD @ Nearside SW 20th AVE"
"830","Cabana Beach Apartments","Eastbound SW 20th AVE @ Farside SW 52nd ST"
"832","Liv Apartments","Eastbound SW 20th AVE @ Farside SW 42nd DR"
"833","Addison Lane","Eastbound SW 20th AVE @ Nearside SW 40th TER"
"835","Kensington Apartments South","Eastbound SW 20th AVE @ Nearside SW 38th TER"
"837","Southwest Villas Apartments","Eastbound SW 20th AVE @ Nearside SW 37th WAY"
"838","34th St Plaza","Eastbound SW 20th AVE @ Nearside SW 34th ST"
"839","Florida Department Of Agriculture","Northbound SW 34th ST @ Farside SW 20th AVE"
"840","Hilton University of Florida Conference Center","Northbound SW 34th ST @ Nearside Hull RD"
"841","Harn Museum","Eastbound Hull RD @ Farside Bledsoe DR"
"842","Southwest Recreation Center","Northbound Bledsoe DR @ Farside Hull RD"
"844","Maguire Field","Northbound Bledsoe DR @ Nearside Radio RD"
"1326","UF Counseling and Wellness Center","Eastbound Radio RD @ Farside Bledsoe DR"
"845","Lakeside","Eastbound Radio RD @ Nearside Museum RD"
"846","Lakeside Residential Complex","Eastbound Radio RD @ Nearside Museum RD"
"847","Corry Village","Northbound Museum RD @ Nearside Village DR"
"848","Lake Alice Field","Eastbound Museum RD @ Farside Fraternity DR"
"849","Hume Hall","Eastbound Museum RD @ Nearside Gale Lemerand DR"
"797","Hume Hall","Westbound Museum RD @ Farside Gale Lemerand DR"
"798","Sigma Alpha Epsilon","Westbound Museum RD @ Nearside Woodlawn DR"
"800","Corry Village","Southbound Museum RD @ Farside Village DR"
"801","UF Bat Houses","Southbound Museum RD @ Nearside Radio RD"
"802","Lakeside Apartments","Westbound Radio RD @ Farside Museum RD"
"803","UF Counseling and Wellness Center","Westbound Radio RD @ Nearside Bledsoe DR"
"804","Family Housing","Southbound Bledsoe DR @ Farside Radio RD"
"806","Southwest Recreation Center","Southbound Bledsoe DR @ Nearside Hull RD"
"807","University Village South Apartments","Westbound Hull RD @ Nearside SW 34th ST"
"808","Hilton University of Florida Conference Center","Southbound SW 34th ST @ Nearside SW 19th AVE"
"810","Campus USA","Westbound SW 20th AVE @ Farside SW 34th ST"
"811","Pinnacle Point Apartments","Westbound SW 20th AVE @ Farside SW 38th ST"
"813","Kensington Apartments North","Westbound SW 20th AVE @ Farside SW 38th TER"
"814","Pinetree Gardens","Westbound SW 20th AVE @ Farside SW 40th TER"
"815","Circle K SW 20th Ave Westbound","Westbound SW 20th AVE @ Farside SW 42nd DR"
"816","Canopy Apartments","Westbound SW 20th AVE @ Farside SW 43rd ST"
"818","The Woodlands Apartments","Northbound SW 62nd BLVD @ Farside SW 20th AVE"
"819","Rockwood Villas Apartments","Northbound SW 62nd BLVD @ Farside SW 9th PL"
"820","Spyglass Apartments","Northbound SW 62nd BLVD @ Nearside SW 4th PL"
"822","Palm Garden of Gainesville","Northbound SW 62nd BLVD @ Nearside SW 4th PL"
"823","Hampton Oaks Apartments","Northbound SW 62nd BLVD @ Nearside NW 1st PL"
"174","Terwilliger Elementary School","Northbound NW 62nd ST @ Nearside NW 4th PL"
"859","Cabana Beach Apartments","Westbound SW 52nd BLVD @ Nearside SW 20th AVE"
"1236","Cabana Beach","Northbound SW 52nd BLVD @ Farside SW 20th AVE"
"1271","Marchwood Townhomes","Southbound SW 43rd ST @ Farside SW 20th LN"
"1272","Eastbound SW 24th Avenue @ SW 43rd Street","Southbound SW 43rd St @ Nearside SW 24th AVE"
"1557","The Ridge @ SW 38th TER northbound","Northbound SW 38th TER @ Farside SW 24th AVE"
"1273","SW 38th Terr nearside SW 20th Ave","Northbound SW 38th Terrace @ SW 20th Avenue"
"1459","Kensington Apartments Eastside","Southbound SW 38th TER @ Farside SW 20th AVE"
"1556","The Ridge @ SW 38th TER southbound","Southbound SW 38th TER @ Nearside SW 24th AVE"
"1351","Hailey Gardens","Northbound SW 43rd ST @ Nearside SW 22nd LN"
"1352","Forest Park","Northbound SW 43rd ST @ Nearside SW 21st PL"
"817","Cabana Beach Apartments","Eastbound SW 52 BLVD @ Nearside SW 20th AVE"
"1098","North Florida Regional Medical Center","Westbound Newberry RD @ Nearside NW 66th ST"
"1099","SUBWAY@ Newberry RD","Westbound Newberry RD @ Nearside Oaks Mall"
"1100","West Newberry Rd Nearside NW 69th Ter","Westbound Newberry RD @ Nearside NW 69th TER"
"1372","Newberry Rd @ NW 75th","Westbound Newberry RD @ Nearside Tower RD"
"1274","Krystal @ Newberry Road","Westbound Newberry RD @ Farside NW 76th ST"
"1275","Westbound Newberry Road @ Fort Clarke Boulevard","Westbound Newberry RD @ Nearside Fort Clarke BLVD"
"1276","Paddock Club Apartments","Northbound Fort Clarke BLVD @ Farside NW 8th AVE"
"1277","Legacy @ Fort Clarke Apartments","Northbound Fort Clarke BLVD @ Farside NW 15th PL"
"1278","Northbound Fort Clarke Boulevard @ Eagle Point","Northbound Fort Clarke BLVD @ Nearside NW 17th PL"
"1279","Hidden Oak Elementary School","Northbound Fort Clarke BLVD @ Farside NW 89th DR"
"1283","Ft Clarke Middle School","Northbound Fort Clarke BLVD @ Nearside NW 23rd AVE"
"1284","Ft Clarke Middle School","Southbound Fort Clarke BLVD @ Farside NW 23rd AVE"
"1280","Hidden Oak Elementary School","Southbound Fort Clarke BLVD @ Nearside NW 23rd AVE"
"1285","Southbound Fort Clarke Boulevard @ Eagle Point","Southbound Fort Clarke BLVD @ Nearside NW 17th PL"
"1286","Legacy @ Fort Clarke Apartments","Southbound Fort Clarke BLVD @ Nearside NW 15th PL"
"1287","Paddock Club Apartments","Southbound Fort Clarke BLVD @ Nearside NW 8th AVE"
"1288","Eastbound Newberry Road @ Fort Clarke Boulevard","Eastbound Newberry RD @ Farside Fort Clarke BLVD"
"1289","Pepboys Auto @ Newberry RD","Eastbound Newberry RD @ Nearside NW 76th BLVD"
"1552","Kangaroo Express @ Newberry/Tower Road","Eastbound Newberry RD @ Nearside NW 75th ST"
"1096","Oaks Square Complex","Eastbound Newberry RD @ Farside NW 69th TER"
"1097","Oaks Mall","Eastbound Newberry RD @ Nearside Oaks Mall"
"850","GRU Administration Building","Eastbound SE 4th AVE @ Farside SE 4th ST"
"851","Eastbound SE 4th Avenue @ SE 8th Street","Eastbound SE 4th AVE @ Nearside SE 8th ST"
"852","Triangle Club","Eastbound SE 4th AVE @ Nearside 11th ST"
"853","Northbound SE 11th Street @ SE 2nd Avenue","Northbound SE 11th ST @ Nearside SE 2nd AVE"
"855","Walgreens @ NE 3rd Avenue","Northbound Waldo RD @ Nearside NE 3rd AVE"
"856","UF Health Family Medicine Eastside Northbound","Northbound Waldo RD @ Farside NE 5th AVE"
"857","Episcopal Children's Services Northbound","Northbound Waldo RD @ Nearside NE 8th AVE"
"863","Northbound NE 9th Street @ NE 10th Place","Northbound NE 9th ST @ Nearside NE 10th PL"
"864","Northbound NE 9th Street @ NE 14th Avenue","Northbound NE 9th ST @ Farside NE 14th AVE"
"870","Tacachale Center","Northbound Waldo RD @ Farside NE 16th AVE"
"871","Family Worship Center","Northbound Waldo RD @ Farside NE 21st PL"
"872","University of Florida Eastside Campus @ Waldo Road","Northbound Waldo RD @ Nearside NE 23rd AVE"
"873","BP Gas Station @ NE 23rd Avenue","Westbound NE 23rd AVE @ Farside Waldo RD"
"875","Bertie Heating & Air","Westbound NE 23rd AVE @ Nearside NE 17th TER"
"877","Quick Mart @ NE 15th Street","Northbound NE 15th ST @ Nearside NE 39th AVE"
"1441","Lewis Place @ Ironwood Apartments","Northbound NE 15th ST @ Farside NE 13th AVE"
"1442","North Point @ Ironwood","Northbound NE 15th ST @ Nearside NE 47th PL"
"887","BP Gas Station @ Waldo Road","Southbound Waldo RD @ Nearside NE 53rd AVE"
"881","NE 49th AVE - Brittany Estates Neighborhood","Eastbound NE 49th AVE @ Farside Waldo RD"
"882","NE49th AVE - PFG Foods","Eastbound NE 49th AVE @ Nearside NE 40th TER"
"885","Nordstrom Distribution Center","Northbound NE 49th TER @ Nearside NE 54th PL"
"886","Job Corps","Westbound NE 54th PL @ Nearside NE 54th AVE"
"1456","NE 49th AVE","Westbound NE 49th AVE @ Farside Waldo RD"
"888","Invivo Imaging","Westbound NE 53rd AVE @ Farside Waldo RD"
"1443","North Point @ Ironwood","Southbound NE 15th ST @ Nearside NE 47th PL"
"891","Lewis Place @ Ironwood Apartments","Southbound NE 15th Street @ Nearside NE 39th AVE"
"892","One Room School","Southbound NE 15th ST @ Nearside NE 39th AVE"
"893","Bertie Heating & Air","Eastbound NE 23rd AVE @ Nearside NE 17th TER"
"895","BP Gas Station @ NE 23rd Avenue","Eastbound NE 23rd AVE @ Nearside Waldo RD"
"896","University of Florida Eastside Campus @ Waldo Road","Southbound Waldo RD @ Farside NE 21st PL"
"897","Crab House","Southbound Waldo RD @ Farside Ne 18th PL"
"903","Southbound NE 9th Street @ NE 14th Avenue","Southbound NE 9th ST @ Nearside NE 14th AVE"
"904","Southbound NE 9th Street @ Ne 10th Place","Southbound NE 9th ST @ Nearside NE 10th PL"
"909","Episcopal Children's Services","Southbound Waldo RD @ Farside NE 8th AVE"
"910","UF Health Family Medicine Eastside","Southbound Waldo RD @ Farside NE 5th AVE"
"912","Kangaroo @ Waldo Road","Southbound Waldo RD @ Nearside E University AVE"
"913","Southbound SE 11th Street @ SE 2nd Avenue","Southbound SE 11th ST @ Nearside SE 2nd AVE"
"915","Triangle Club","Westbound SE 4th AVE @ Farside SE 11th ST"
"917","Westbound SE 4th Avenue @ SE 8th Street","Westbound SE 4th AVE @ Nearside SE 8th ST"
"920","GRU Administration Building","Westbound SE 4th AVE @ Nearside SE 4th ST"
"1313","Bed and Breakfast District","Eastbound SE 2nd AVE @ Nearside SE 7th ST"
"1367","Eastbound SE 2nd AVE @ SE 10th ST","Eastbound SE 2nd AVE @ Farside SE 10th ST"
"1315","Super Wal-Mart @ Waldo Road","Northbound Waldo RD @ Farside NE 12th AVE"
"1163","Sonny's Barbecue @ Waldo Road","Northbound Waldo RD @ Nearside NE 27th AVE"
"1164","Merita Bread Box","Northbound Waldo RD @ Farside NE 31st AVE"
"1317","GRACE Marketplace","Eastbound NE 39th AVE @ Farside Waldo RD"
"1329","Alachua County Juvenile Detention","Eastbound NE 39th AVE @ Farside Waldo RD"
"1320","Airport","Westbound Airport Access RD @ Farside NE 39th AVE"
"1319","Gainesville Regional Airport Outbound","Westbound Airport Access RD @ Nearside NE 39th AVE"
"1330","Alachua County Juvenile Detention","Westbound NE 39th AVE @ Farside Waldo RD"
"1318","GRACE Marketplace","Westbound NE 39th AVE @ Nearside Waldo RD"
"1339","Merita Bread Box","Southbound Waldo RD @ Nearside NE 31st AVE"
"1338","Sonny's Barbecue @ Waldo Road","Southbound Waldo RD @ Farside NE 27th AVE"
"1316","Super Wal-Mart @ Waldo Road","Southbound Waldo RD @ Nearside NE 12th AVE"
"1368","Westbound SE 2nd AVE @ SE 10th ST","Westbound SE 2nd AVE @ Nearside SE 10th Street"
"1314","Bed and Breakfast District","Westbound SE 2nd AVE @ Farside SE 7th ST"
"927","Ben Hill Griffin Stadium North End Zone","Southbound Gale Lemerand DR @ Farside W Universit*"
"1165","Hills Mini Storage","Westbound NE 39th Ave @ Farside Waldo Rd"
"1166","Ironwood Golf Course","Westbound NE 39th AVE @ Nearside Waldo RD"
"1495","Passage Family Church","Southbound NE 15th St @ Nearside NE 20th Pl"
"1503","Southbound Metcalfe Elementary School","Southbound NE 15th ST @ Nearside NE 18th AVE"
"1447","Gardenia Gardens","Eastbound NE 8th AVE @ Farside NE 17th ST"
"1502","Northbound Metcalfe Elementary School","Northbound NE 15th ST @ Nearside NE 18th AVE"
"1494","NE 15th St @ NE 20th Pl","Northbound NE 15th St @ Farside NE 20th Pl"
"878","Ironwood Golf Course","Eastbound NE 39th AVE @ Farside Waldo RD"
"1430","NE 39th Ave @ Waldo Rd","Eastbound NW 39th AVE @ Nearside Waldo RD"
"1428","FDOT Operations Center","Eastbound NW 39th AVE @ Nearside NE 52 ST"
"214","Santa Fe College Charles L. Blount Center","Northbound NW 6th ST @ Nearside NW 4th AVE"
"1448","Northwest 8 Avenue @ farside NW 4th St","Northwest 8 Avenue @ farside NW 4th St Eastbound"
"1362","UF & Shands Family Medicine Main Street","Northbound N Main ST @ Farside NW 16th AVE"
"1545","Fresenius Medical Care","Northbound N Main ST @ Nearside NE 1st Blvd"
"1201","Greyhound Station","Westbound NW 23rd AVE @ Nearside N Main ST"
"1450","Northside Shopping Center West","Northbound NE 1 BLVD @ Farside NW 23 AVE"
"1451","Northside Shopping Center East","Southbound Main ST @ Nearside NW 23rd AVE"
"1415","Family Dollar @ NE 23rd AVE","Westbound NE 23rd AVE @  N Main ST"
"1546","The Clock Restaurant","Southbound N Main ST @ Nearside NE 1st Blvd"
"1449","Gator City Motors SB N Main St","Southbound Main ST @ Nearside NW 16th AVE"
"1366","Westbound NW 8th AVE @ NW 4th ST","Westbound NW 8th AVE @ Nearside NW 4th ST"
"284","Santa Fe College Charles L. Blount Center","Eastbound NW 6th ST @ Nearside NW 3rd AVE"
"959","Family Housing @ SW 34th Street","Northbound SW 34th ST @ Nearside Radio RD"
"1458","Northside Family Housing","Eastbound Radio RD @ Nearside SW 34 ST"
"1214","Corry Village","Northbound Village DR @ Nearside W Fraternity Row"
"1145","Fraternity Row II across Springs","Eastbound Fraternity Row @ Farside W Fraternity R*"
"1146","Beta Theta Pi across Springs","Eastbound Fraternity Row @ Nearside Woodlawn DR"
"926","Leigh Hall","Northbound Buckman DR @ Nearside W University AVE"
"1161","Springs Residence Building","Westbound Fraternity Row @ Farside Woodlawn DR"
"1133","Fraternity Row at West Fraternity Drive","Westbound Fraternity Row @ Nearside W Fraternity *"
"1189","Corry Village","Westbound West Fraternity DR @ Nearside Village DR"
"1457","Physical Plant Radio Road","Westbound Radio RD @ Nearside SW 34 ST"
"939","Orthopaedics and Sports Medicine Institute","Southbound SW 34th ST @ Nearside Hull RD"
"1559","Clark Butler BLVD @ Plaza southbound","Southbound Clark Butler BLVD @ Nearside Plaza BLVD"
"1580","Celebration Pointe At Regal Cinema 10","SW 45th Street Farside SW 32nd Road"
"1578","Celebration Pointe PNR","SW 32nd Rd And SW 50th Terrace Parking Lot"
"1579","Outside of Butler Plaza TS","SW 35th Blvd And SW 42nd Street"
"1555","Pod @ Plaza Blvd Eastbound","Eastbound Plaza Blvd @ Farside SW 62nd Blvd"
"1484","Varsity House Apartments @ SW 38th Ter","Northbound SW 38th TER @ Nearside Hull RD"
"1483","aloft Hotel @ Hull Rd Eastbound","Eastbound Hull Rd Farside SW 37th St"
"1237","Museum Walk Apartments","Eastbound Hull RD @ Nearside SW 34th ST"
"1173","Cultural Plaza","Eastbound Hull RD @ Farside Bledsoe DR"
"1174","Lacrosse Field","Eastbound Hull RD @ Nearside Natural Area DR"
"1176","Fifield Hall","Eastbound Hull RD @ Nearside Mowry RD"
"951","Southbound SW 26th Drive @ SW 40th Place","Southbound SW 26th DR @ Nearside SW 40th PL"
"452","Gainesville Place Apartments @ SW 35th Place","Westbound SW 35th PL @ Nearside SW 28th TER"
"952","Gainesville Place Apartments","Northbound Gainesville Place Apartments @ Farside*"
"953","Gainesville Place Apartments","Northbound Gainesville Place Apartments @ Farside*"
"954","Enclave Apartments","Westbound SW 28th PL @ Farside SW 28th PL"
"955","Gainesville Place Apartments","Northbound Old Archer RD @ Nearside SW 31st TER"
"956","Old Archer Road @ SW 34th Street","Westbound Old Archer RD @ Nearside SW 34th ST"
"957","Regency Oaks Apartments","Northbound SW 34th ST @ Farside Windmeadows BLVD"
"958","34th Street Plaza","Northbound SW 34th ST @ Nearside SW 20th AVE"
"960","34th Street Wall","Northbound SW 34th ST @ Nearside SW 2nd Ave"
"937","Point West Apartments","Southbound SW 34th ST @ Farside SW 2nd Ave"
"938","Maguire Village @ SW 34th Street","Southbound SW 34th ST @ Nearside Radio RD"
"942","34th Street Plaza","Southbound SW 34th ST @ Farside SW 20th AVE"
"943","Kelly's Kwik Stop","Southbound SW 34th ST @ Farside SW 24th AVE"
"945","Ridgemar Commons","Eastbound SW 35th PL @ Farside SW 32nd TER"
"946","Victoria Station Apartments","Eastbound SW 35th PL @ Farside SW 32nd TER"
"947","Gainesville Place Apartments @ SW 35th Place","Eastbound SW 35th PL @ Farside SW 28th TER"
"1140","Southbound SW 27th Street @ SW 35th Place","Southbound SW 27th ST @ Farside SW 35th PL"
"949","Lexington Crossing Apartments","Southbound SW 27th ST @ Farside SW 35th PL"
"950","Lexington Crossing Apartments","Southbound SW 27 PL @ Nearside SW 38th PL"
"1137","Savannah Place Apartments","Westbound SW 35th PL @ Farside SW 23rd TER"
"1138","Arbor Apartments","Westbound SW 35th PL @ Farside SW 23rd TER"
"1139","Casablanca Apartments","Westbound SW 35th PL @ Nearside SW 27th ST"
"1213","Lexington Crossing Apartments","Southbound SW 27th ST @ Nearside SW 40th PL"
"1542","The Polos Southwest Entrance","Eastbound SW 40th Pl. @ Nearside SW 25th Ter"
"967","Hunters Run Apartments","Westbound Williston RD @ Farside SW 25th TER"
"968","Campus Lodge Apartments","Westbound Williston RD @ Nearside SW 29Th Dr"
"969","Nationwide Insurance @ Williston Road","Westbound Williston RD @ Farside SW 29Th Dr"
"970","Williston Plaza","Northbound SW 34th ST @ Farside Williston RD"
"971","US Post Office @ SW 34th Street","Northbound SW 34th ST @ Nearside SW 47th AVE"
"972","Laurels Apartments","Northbound SW 34th ST @ Farside SW 47th AVE"
"974","Dollar General","Northbound SW 34th ST @ Farside SW 42 PL"
"642","University Terrace Condominiums","Northbound SW 34th ST @ Nearside SW 39th BLVD"
"1310","Williston Plaza","Northbound SW 47th AVE @ Nearside SW 34th ST"
"31","Regal  Cinema 14 @ Butler Plaza","Northbound Windmeadows BLVD @ Farside SW 35th BLVD"
"33","Spanish Trace Apartments","Eastbound Windmeadows BLVD @ Nearside SW 34th ST"
"1177","Fifield Hall","Westbound Hull RD @ Farside Mowry RD"
"1179","Pressly Softball Stadium","Westbound Hull RD @ Farside Natural Area DR"
"1180","Southwest Recreation Center","Westbound Hull RD @ Nearside Bledsoe DR"
"1155","Spanish Trace Apartments","Westbound Windmeadows BLVD @ Farside SW 34th ST"
"1156","Windmeadows Apartments","Westbound Windmeadows BLVD @ Nearside SW 35th ST"
"1307","Alarion Bank @ 34th ST","Southbound SW 34th ST @ Farside SW 42nd PL"
"1308","US Post Office @ SW 34th Street","Southbound SW 34th ST @ Nearside SW 47th AVE"
"1309","Williston Plaza","Westbound SW 48th LN @ Nearside SW 34th ST"
"1321","The Enclave Apartments","Westbound SW 35th PL @ Nearside SW 34th ST"
"1322","Rocky Point Apartments","Westbound SW 35th PL @ Nearside SW 34th ST"
"1337","Gainesville Place","Southbound Gainesville Place Apartments @ Nearsid*"
"1267","University Commons Apartments","Westbound Old Archer RD @ Farside SW 23rd TER"
"1268","Brandywine Apartments","Westbound Old Archer RD @ Farside SW 28th PL"
"1269","Archer Court Apartments","Westbound Old Archer RD @ Nearside SW 28th Pl"
"1270","Gainesville Place Apartments","Southbound Gainesville Place Ent @ Old Archer RD"
"1333","Enclave 1","Eastbound SW 32nd Terrace @ E of Main Bldg"
"1460","Enclave 3","Eastbound SW 32nd Terrace @ Traffic Circle"
"1341","Enclave 4","Eastbound Enclave Apartments @ Nearside Enclave A*"
"1539","Possum Creek Park","Northbound NW 41st Ter @ Nearside NW 53rd Ave"
"1538","Hunter's Crossing","Southbound NW 43rd St. @ Farside NW 52nd Pl"
"1534","Southbound NW 43rd St. @ NW 48th Pl","Southbound NW 43rd St. @ Nearside NW 48th Pl"
"1532","Southbound NW 43rd St. @ NW 46th Ave","Southbound NW 43rd St. @ Nearside NW 46th Ave"
"1530","Southbound NW 43rd St. @ NW 44th Ave","Southbound NW 43rd St. @ Farside NW 44th Ave"
"1528","Southbound NW 43rd St. @ NW 41st Pl","Southbound NW 43rd St. @ Farside NW 41st Pl"
"1391","Metrocorp Center","Eastbound NW 39th AVE @ Nearside NW 40th TER"
"1389","Eastbound NW 39th AVE @ NW 37th ST","Eastbound NW 39th AVE @ Farside NW 37th ST"
"1388","Sable Chase Neighborhood","Eastbound NW 39th AVE @ Farside NW 35th ST"
"1526","Southbound NW 34th St. @ NW 37th Ave","Northbound NW 34th St. @ Nearside NW 37th Ave"
"1524","Southbound NW 34th St. @ NW 33rd Ln","Southbound NW 34th St. @ Nearside NW 33rd Ln"
"1536","Southbound NW 34th St @ NW 30th Pl","Southbound NW 34th St. @ Farside NW 30th Blvd"
"1522","Southbound NW 34th St @ NW 26th Pl","Southbound NW 34th St. @ Nearside NW 34th Ter"
"1520","Southbound NW 34th St. @ NW 21st Pl","Southbound NW 34th St. @ Nearside NW 21st Pl"
"1518","Greenbriar Terrace Community","Southbound NW 34th St. @ Farside NW 19th Pl"
"1516","Southbound Westwood Middle School","Southbound NW 34th St. @ Farside NW 15th Pl"
"1514","Littlewood Elementary School","Southbound NW 34th St. @ Nearside NW 8th Ave"
"1512","Southbound NW 34th St. @ NW 7th Ave","Southbound NW 34th St. @ Nearside NW 7th Ave"
"1510","Southbound Loblolly Woods South Entrance","Southbound NW 34th St @ Nearside NW 5th Ave"
"1509","Northbound Loblolly Woods South Entrance","Northbound NW 34th Street @ Nearside NW 5th Ave"
"1511","Northbound NW 34th St. @ NW 8th Ave","Northbound NW 34th St. @ Nearside NW 8th Ave"
"1513","Westside Recreation Center","Northbound NW 34th St. @ Farside NW 8th Ave"
"1515","Northbound Westwood Middle School","Northbound NW 34th St. @ Nearside NW 15th Ave"
"1517","Northbound NW 34th St @ NW 16th Ave","Northbound NW 34th St @ Farside NW 16th Ave"
"1519","Northbound NW 34th St @ NW 21st Pl","Northbound NW 34th St. @ Nearside NW 24th Ave"
"1521","Northbound NW 34th St. @ NW 26th Ave","Northbound NW 34th St. @ Nearside NW 26th Ave"
"1535","Northbound NW 34th St. @ NW 31st Ave","Northbound NW 34th St. @ Nearside NW 31st Ave"
"1523","Northbound NW 34th St @ NW 33rd Ln","Northbound NW 34th St. @ Nearside NW 31st Blvd"
"1525","Northbound NW 34th St. @ NW 31st Blvd","Northbound NW 34th St. @ Nearside NW 31st Blvd"
"1387","Sable Chase Neighborhood","Westbound NW 39th AVE @ Nearside NW 35th ST"
"1386","Breckenridge Neighborhood","Westbound NW 39th AVE @ Farside NW 37th TER"
"1384","Metrocorp Center","Westbound NW 39th AVE @ Nearside NW 43rd ST"
"1527","Northbound NW 43rd St. @ NW 39th Ave","Northbound NW 34th St. @ Farside NW 39th Ave"
"1529","Pinewood Terrace Community","Northbound NW 43rd St. @ Nearside NW 44th Ave"
"1531","Northbound NW 43rd St. @ NW 46th Ave","Northbound NW 43rd St. @ Nearside NW 46th Ave"
"1533","Northbound NW 43rd St. @ NW 48th Pl","Northbound NW 43rd St. @ Nearside NW 48th Pl"
"1537","Walgreens on NW 43rd Street","Northbound NW 43rd St. @ Nearside NW 52nd Pl"
"1002","Santa Fe College @ NW 83rd Street","Northbound NW 83rd ST @ Nearside NW 31st AVE"
"1003","The Arc","Northbound NW 83rd ST @ Farside North RD"
"1004","Windsor Assisted Living","Northbound NW 83rd ST @ Farside NW 36th AVE"
"1005","Springhill Professional Center","Northbound NW 83rd ST @ Nearside NW 39th AVE"
"1006","Robin Lane Neighborhood","Eastbound NW 39th AVE @ Farside NW 75th ST"
"1007","Unicorn Hill Farm","Eastbound NW 39th AVE @ Nearside NW 69th ST"
"1008","Greystone Community","Eastbound NW 39th AVE @ Nearside NW 63rd ST"
"1009","Faith Presbyterian Church","Eastbound NW 39th AVE @ Farside NW 63rd ST"
"1010","Huntington Lakes Apartments","Eastbound NW 39th AVE @ Nearside NW 53rd ST"
"1011","NW Grille Seafood","Eastbound NW 39th AVE @ Nearside NW 51st ST"
"1012","Autumn Woods Neighborhood","Eastbound NW 39th AVE @ Nearside NW 48th TER"
"1013","Pine Woods Apartments","Eastbound NW 39th AVE @ Nearside NW 45th ST"
"1014","Allstate Insurance","Southbound NW 43rd ST @ Nearside NW 37th PL"
"1325","Division of Blind Services","Southbound NW 43rd ST @ Nearside NW 36th AVE"
"1015","Southbound NW 43rd Street @ NW 33rd Court","Southbound NW 43rd ST @ Nearside NW 33rd CT"
"1016","Millhopper Branch Library","Southbound NW 43rd ST @ Nearside NW 31st AVE"
"1017","Sunstate Insurance","Southbound NW 43rd ST @ Nearside NW 27th AVE"
"1018","CVS @ Millhopper","Southbound NW 43rd ST @ Nearside NW 23rd AVE"
"1019","Millhopper Plaza","Southbound NW 43rd ST @ Farside NW 23rd AVE"
"1020","Southbound NW 43rd Street @ NW 19th Avenue","Southbound NW 43rd ST @ Nearside NW 19th AVE"
"1022","Southbound NW 43rd Street @ NW 15th Place","Southbound NW 43rd ST @ Nearside NW 15th PL"
"1023","Suburban Heights Neighborhood","Southbound NW 43rd ST @ Nearside NW 13th AVE"
"1024","Landmark Woods Neighborhood","Southbound NW 43rd ST @ Farside NW 12th AVE"
"1025","Landmark Woods Neighborhood","Southbound NW 43rd ST @ Nearside NW 9th PL"
"1026","Holy Faith Catholic Church","Southbound NW 43rd ST @ Farside NW 8th AVE"
"1472","Kauffman Tires","Eastbound W University Ave @ Farside SW 36th St"
"1471","Westgate Plaza","Eastbound University Ave @ Nearside Nw 33rd Ct"
"1470","Women's Club","Eastbound University Ave @ Farside NW 28th St"
"1469","Eastbound University Avenue @ SW 23rd DR","Eastbound W University AVE @ Nearside SW 23rd Dr"
"152","Hillel at the University of Florida","Westbound W University AVE @ Farside NW 20th DR"
"153","Westbound University Avenue @ NW 22nd Street","Westbound W University AVE @ Nearside NW 22nd ST"
"154","Westbound University Avenue @ NW 23rd Drive","Westbound W University AVE @ Nearside NW 23rd DR"
"156","Women Center","Westbound W University AVE @ Nearside NW 28th ST"
"157","West Gate Shopping Center","Westbound W University AVE @ Nearside NW 32nd ST"
"158","Westgate Plaza","Westbound W University AVE @ Farside SW 34th ST"
"159","Fire Station @ W University Ave","Westbound W University AVE @ Nearside NW 36th ST"
"977","Millennium Center","Northbound NW 43rd ST @ Farside Newberry RD"
"1427","Holy Faith Catholic Church","Northbound NW 43rd ST @ Nearside NW 8th AVE"
"978","Lenox Place Apartments","Northbound NW 43rd ST @ Nearside NW 9th Pl"
"979","Landmark Woods Neighborhood","Northbound NW 43rd ST @ Nearside NW 12th AVE"
"980","NW 14th Place @ NW 43rd Street","Northbound NW 43rd ST @ Nearside NW 14th PL"
"981","Northbound NW 43rd Street @ NW 16th Place","Northbound NW 43rd ST @ Nearside NW 16th PL"
"983","Millhopper Pines Apartments","Northbound NW 43rd ST @ Farside NW 18th PL"
"984","Millhopper Plaza","Northbound NW 43rd ST @ Nearside NW 16th BLVD"
"985","Thorn Brook Shops","Northbound NW 43rd ST @ Farside NW 16th BLVD"
"986","Bank of America @ NW 43rd Street","Northbound NW 43rd ST @ Nearside NW 27th LN"
"987","Millhopper Branch Library","Northbound NW 43rd ST @ Farside NW 31st AVE"
"988","Monterey Apartments","Northbound NW 43rd ST @ Farside NW 34th AVE"
"989","Pinewood Apartments","Westbound NW 39th AVE @ Farside NW 43rd ST"
"990","Magnolia Park Neighborhood","Westbound NW 39th AVE @ Nearside NW 46th TER"
"992","Tire Plus @ NW 39th Avenue","Westbound NW 39th AVE @ Nearside NW 51st ST"
"993","Huntington Lakes Apartments","Westbound NW 39th AVE @ Farside NW 53rd ST"
"994","Faith Presbyterian Church","Westbound NW 39th AVE @ Farside NW 53rd ST"
"995","Summer Creek Neighborhood","Westbound NW 39th AVE @ Nearside NW 64th ST"
"996","Emerald Woods Neighborhood","Westbound NW 39th AVE @ Nearside NW 59th ST"
"997","Robin Lane Neighborhood","Westbound NW 39th AVE @ Nearside NW 75th ST"
"998","Springhill Professional Center","Southbound NW 83rd ST @ Farside NW 39th AVE"
"999","Northridge Neighborhood","Southbound NW 83rd ST @ Nearside NW 36th AVE"
"1000","The Arc","Southbound NW 83rd ST @ Farside North RD"
"1001","Santa Fe College @ NW 83rd Street","Southbound NW 83rd ST @ Nearside Administration RD"
"1028","Pollo Tropical @ Butler Plaza West","Westbound Archer RD @ Farside SW 37th BLVD"
"1249","Gainesville Ale House","Westbound Archer RD @ Nearside SW 40th BLVD"
"1250","Celebration Pointe at Archer Rd","Westbound Archer Rd Nearside SW 43rd St"
"1252","Gainesville Council on Aging","Westbound Archer RD @ Farside SW 47th ST"
"1033","Westbound Archer Road @ SW 50th Street","Westbound Archer RD @ Nearside SW 50th ST"
"1034","Madison Cove Apartments","Westbound Archer RD @ Nearside SW 56th TER"
"1035","Kanapaha Botanical Gardens","Westbound Archer RD @ Nearside SW 56th TER"
"1036","Westgate Mobile Manor Park","Westbound Archer RD @ Farside SW 58th DR"
"1038","A Child's Place","Westbound Archer RD @ Nearside SW 63rd BLVD"
"1039","Kanapaha Station Plaza","Westbound Archer RD @ Nearside SW 66th ST"
"1040","Town & Country Veterinarians","Westbound Archer RD @ Nearside SW 69th TER"
"1041","Bank of America @ Tower Square on Archer Road","Westbound Archer RD @ Farside SW 75th ST"
"1042","Publix @ Tower Square on SW 75th Street","Northbound SW 75th ST @ Farside Archer RD"
"1043","Asbury Park Apartments","Northbound SW 75th ST @ Nearside SW 53rd PL"
"1044","Kanapaha Middle School","Northbound SW 75th ST @ Farside SW 51st BLVD"
"1046","Tower Village Apartments","Northbound SW 75th ST @ Nearside SW 45th PL"
"1047","Vet Mem PK","Northbound SW 75th ST @ Nearside SW 42nd PL"
"1048","Kanapaha Park","Northbound SW 75th ST @ Nearside SW 36th AVE"
"1049","Tower Road Branch Library","Northbound SW 75th ST @ Farside SW 24th AVE"
"1050","Bellamy Grand","Northbound SW 75th ST @ Nearside SW 24th AVE"
"1051","Walgreens @ SW 24th Avenue","Eastbound SW 24th AVE @ Farside SW 75th ST"
"1053","Infinite Energy","Eastbound SW 24th AVE @ Farside SW 70th TER"
"1054","Tower Oaks Glenn Apartments","Eastbound SW 24th AVE @ Farside SW 19th CT"
"1055","Split Rock Conservation Area","Eastbound SW 24th AVE @ Farside SW 61st ST"
"1056","Linton Oaks Neighborhood","Northbound SW 61st ST @ Farside SW 20th AVE"
"1057","Linton Oaks Neighborhood @ SW 61st Street","Northbound SW 61st ST @ Farside SW 10th PL"
"1058","Linton Oaks","Northbound SW 61st ST @ Nearside SW 8th PL"
"1059","Linton Oaks Neighborhood @ SW 64th Terrace","Southbound SW 64th TER @ Farside SW 8th AVE"
"1061","Linton Oaks Neighborhood @ SW 63rd Terrace","Northbound SW 63rd TER @ Nearside SW 8th AVE"
"1062","Linton Oaks Neighborhood @ SW 61st Street","Southbound SW 61st ST @ Nearside SW 10th PL"
"1063","Linton Oaks Neighborhood","Southbound SW 61st ST @ Nearside SW 20th AVE"
"1064","Treebecka Park Apts","Westbound SW 20th AVE @ Farside SW 61st ST"
"1065","Tower Oaks Glenn Apartments","Westbound SW 24th AVE @ Farside SW 19th CT"
"1066","KISS 105.3 FM Station","Westbound SW 24th AVE @ Farside SW 70th TER"
"1067","Carriage House Lane","Westbound SW 24th AVE @ Nearside SW 73rd TER"
"1068","CVS Pharmacy @ SW 75th Street","Northbound SW 75th ST @ Farside SW 24th AVE"
"1069","Sunrise Apartments","Northbound SW 75th ST @ Farside SW 19th PL"
"1071","Woodlands Neighborhood","Northbound SW 75th ST @ Nearside SW 10th PL"
"1072","Sparrow Apartments","Eastbound SW 8th AVE @ Farside SW 75th ST"
"1074","Holly Heights","Northbound SW 70th TER @ Nearside SW 6th PL"
"1077","Eastbound SW 6th Place @ SW 67th Terrace","Eastbound SW 6th PL @ Nearside SW 67th TER"
"1078","Gordon Manor Neighborhood","Eastbound SW 67th TER @ Nearside SW 8th AVE"
"1079","Westbound SW 8th Avenue @ SW 70th Terrace","Westbound SW 8th AVE @ Farside SW 70th TER"
"1081","Sparrow Apartments","Westbound SW 8th AVE @ Farside SW 75th ST"
"1082","Sparrow Apartments","Northbound SW 75th ST @ Farside SW 8th AVE"
"1083","Cricket Club Apartments","Northbound SW 75th ST @ Farside SW 8th AVE"
"1084","Reflections Apartments","Northbound SW 75th ST @ Nearside SW 1st PL"
"1085","The Gardens Apartments","Northbound SW 75th ST @ Nearside W University AVE"
"1087","Pine Meadow Apartments","Eastbound W University AVE @ Farside SW 75th ST"
"1089","Harbor Cove Apartments","Eastbound W University AVE @ Nearside NW 4th BLVD"
"1091","Home Depot @ NW 4th Boulevard","Westbound NW 4th BLVD @ Nearside NW 75th ST"
"1093","Park Place Car Wash","Westbound NW 4th BLVD @ Nearside SW 75th ST"
"1094","Clarion Inn","Northbound SW 75th ST @ Nearside Newberry RD"
"1101","Tower Plaza","Southbound NW 75th ST @ Farside Newberry RD"
"1102","Advance Auto Parts","Southbound NW 75th ST @ Farside NW 4th BLVD"
"1103","Tower Hill","Southbound NW 75th ST @ Nearside W University AVE"
"1104","The Gardens Apartments","Southbound SW 75th ST @ Nearside SW 1st PL"
"1105","Cricket Club Apartments","Southbound SW 75th ST @ Nearside SW 8th AVE"
"1106","The Woodlands Neighborhood","Southbound SW 75th ST @ Farside SW 10th PL"
"1108","Sunrise Apartments","Southbound SW 75th ST @ Farside SW 19th PL"
"1109","Tower 24 Shopping Center","Southbound SW 75th ST @ Nearside SW 26th AVE"
"1110","Tower Road Library","Southbound SW 75th ST @ Farside SW 26th AVE"
"1111","Kenwood Neighborhood","Southbound SW 75th ST @ Farside SW 36th AVE"
"1112","Vet Mem PK","Southbound SW 75th ST @ Farside SW 42nd AVE"
"1113","Tower Village","Southbound SW 75th ST @ Farside SW 45th PL"
"1114","Haile Plantation Neighborhood","Southbound SW 75th ST @ Farside SW 46th BLVD"
"1115","Stillwind Neighborhood","Southbound SW 75th ST @ Farside SW 51st BLVD"
"1116","Valwood Neighborhood","Southbound SW 75th ST @ Nearside SW 53rd PL"
"1117","Tower Square @ SW 75th Street","Southbound SW 75th ST @ Farside SW 58th PL"
"1118","Arredondo Farms","Eastbound Archer RD @ Farside SW 75th ST"
"1119","CROM Equipment Rentals","Eastbound Archer RD @ Farside SW 69th TER"
"1120","Business Park Self Storage","Eastbound Archer RD @ Nearside SW  66th ST"
"1121","SunState","Eastbound Archer RD @ Nearside SW 63rd BLVD"
"1122","Westgate Manor Park","Eastbound Archer RD @ Farside SW 51st LN"
"1123","Broken Arrow Bluff Community","Eastbound Archer RD @ Nearside SW 56th TER"
"1124","Dogwood Dog Park","Eastbound Archer RD @ Nearside SW 52nd TER"
"1125","Hailey Forest Condominiums","Eastbound Archer RD @ Farside SW 50th ST"
"1126","Haystacks Housing Complex","Eastbound Archer RD @ Nearside SW 47th TER"
"1127","The Reserve at Kanapaha","Eastbound Archer RD @ Nearside SW 44th ST"
"1183","Cultural Plaza","Eastbound Hull RD @ Farside Bledsoe DR"
"1184","Weed Science Building","Northbound Museum RD @ Farside Hull RD"
"1185","Microbiology/Cell Science Building","Northbound Museum RD @ Farside Radio Rd"
"858","Lakeside Housing Complex","Northbound Museum RD @ Nearside Radio RD"
"1153","Tolbert Residence Hall","Southbound Gale Lemerand DR @ Farside Stadium RD"
"1154","Graham Hall","Southbound Gale Lemerand DR @ Nearside Museum RD"
"1186","Lakeside Residential Building","Southbound Museum RD @ Farside Radio RD"
"1187","Microbiology/Cell Science Building","Southbound Museum RD @ Nearside Radio RD"
"1191","Family Housing","Southbound Family Housing @ Farside Hull RD"
"1190","Family Housing","Southbound Family Housing @ Farside Bledsoe DR"
"1197","Webb Livestock Pavilion","Southbound Shealy DR @ Farside SW 16th AVE"
"1196","Animal Science","Southbound Shealy DR @ Farside SW 16th AVE"
"1219","Webb Livestock Pavilion","Northbound Shealy DR @ Nearside SW 16th AVE"
"1353","College Park @ NW 17th ST","Northbound NW 17th ST @ Nearside NW 3rd AVE"
"1414","Northbound NW 17th ST @ NW 5th AVE","Northbound NW 17th ST @ Farside NW 5th AVE"
"1409","Northbound NW 17th ST @ NW 7th AVE","Northbound NW 17th ST @ Nearside NW 7th AVE"
"1444","Alight Gainesville Apts","Soundbound NW 12th ST @ Nearside NW 7th AVE"
"1506","The Trophy Shop","Westbound NW 7th Ave @ Nearside NW 13th St"
"1412","College Park @ NW 5th AVE","Westbound NW 5th AVE @ Nearside NW 15th ST"
"1408","Eastbound NW 5th AVE @ NW 17th ST","Westbound NW 5th AVE @ Nearside NW 17th ST"
"1413","College Park @ NW 17th ST","Southbound NW 17th ST @ Nearside NW 3rd AVE"
"1356","Dauer Hall","Southbound Buckman DR @ Nearside Union DR"
"1241","Newell Hall across Hub","Westbound Stadium RD @ Farside Buckman DR"
"1152","Florida Gym","Westbound Stadium RD @ Nearside Gale Lemerand DR"
"474","Commuter Lot Parking Garage","Southbound Gale Lemerand DR @ Farside Museum RD"
"1141","Wilmot Gardens","Eastbound Mowry RD @ Farside Gale Lemerand DR"
"666","Health Science Center Administration","Southbound SW 16th ST @ Nearside SW 16th AVE"
"1217","Schiebler Childrens Medical Facility","Westbound SW 16th AVE @ Nearside Shealy DR"
"1144","Fraternity Row","Northbound Fraternity Row @ Farside Museum RD"
"1238","Sorority Row","Northbound SW 11th ST @ Nearside E Panhellenic DR"
"1324","Sorority Row","Northbound SW 11th ST @ Nearside SW 8th AVE"
"12","Norman Field @ SW 8th Avenue","Westbound SW 8th AVE @ Farside SW 12th ST"
"1294","Southbound SW 10th ST at SW 4th Ave (Deco 39)","Southbound SW 10th ST @ Nearside SW 4th AVE"
"1295","Stratford Court Apartments","Southbound SW 10th ST @ Nearside SW 6th AVE"
"1296","Ivy House Apartment","Southbound SW 10th ST @ Nearside SW 8th AVE"
"1209","Oxford Terrace Apartments","Southbound SW 9th ST @ Nearside SW Depot AVE"
"1248","Parkside II Apartments","Westbound Depot AVE @ Nearside SW 11th ST"
"8","Courtyard Apartments","Southbound SW 12th ST @ Farside SW 2nd AVE"
"9","Campus USA Bank","Southbound SW 12th ST @ Farside SW 4th AVE"
"10","Norman Hall","Southbound SW 12th ST @ Farside SW 6th AVE"
"1327","Eastbound SW 7th AVE @ SW 12th ST","Eastbound SW 7th AVE @ Farside SW 12th ST"
"1328","Eastbound SW 7th AVE @ SW 10th ST","Eastbound SW 7th AVE @ Nearside SW 10th ST"
"1452","Campus Walk @ SW 9th St","Southbound SW 9th ST @ Nearside SW 8th AV"
"1477","Kangaroo Station","Eastbound NW 39th Ave @ Nearside NW 92nd Ct"
"1432","Unity of Gainesville","Eastbound NW 39th Ave Farside NW 89th Blvd"
"1507","UF & Shands at Springhill","Westbound NW 39th Ave Farside NW 83rd St"
"1476","McDonalds","Westbound NW 39th Ave @ Nearside NW 92nd Ct"
"1582","Fifield PNR","Memorial Rd @ PNR Lot"
"472","Rawlings Hall","Northbound Newell DR @ Nearside McCarty DR"
"1181","UF Orthopaedics Institute","Westbound Hull RD @ Farside SW 34th ST"
"1489","Village Point 4","Westbound Hull RD @ Nearside SW 38th TER"
"1486","Village Point 3","Southbound SW 38th TER @ Farside Hull RD"
"1554","Pod @ Plaza Blvd Westbound","Westbound Plaza Blvd @ Nearside SW 62nd Blvd"
"1563","Haile Plantation I","SW 91st Terrace Farside SW 51st Rd"
"1394","Southbound NW 55th ST @ NW 14th AVE","Southbound NW 55th ST @ Farside NW 14th AVE"
"1395","Southbound NW 55th ST @ NW 9th LN","Southbound NW 55th ST @ Farside NW 9th LN"
"1398","Westbound SW 24th AVE @ SW 75th ST","Westbound SW 24th AVE @ Farside SW 75th ST"
"1402","Westbound SW 87th Dr @ SW 91st St","Westbound SW 87th DR @ Nearside SW 91st ST"
"1407","Eastbound SW 24th AVE @ SW 76th ST","Eastbound SW 24th AVE @ Farside SW 76th ST"
"1392","Northbound NW 55th St @ NW 9th Ln","Northbound NW 55th ST @ Nearside NW 9th LN"
"1393","Northbound NW 55th ST @ NW 14th AVE","Northbound NW 55th ST @ Nearside NW 14th AVE"
